city,theatre_name,average_ticket_price,total_seats,no_screens,type,lat,lon,source_of_information,imdb_rating,genre,release_date,production,cast,director,budget,revenue,movie_name,showtime,weather,holiday_event_impact,ticket_sold
Chennai,Devi Karumari A/C,97.97240740555556,850,1,0,13.0499059,80.1934024,Internet Research,8.3,"Biography, Drama, Sport",2016-12-23,Walt Disney Pictures India,"Aamir Khan, Sakshi Tanwar, Fatima Sana Shaikh",Nitesh Tiwari,70000000,2100000000,Dangal,Morning,Sunny,No,182
Kochi,Padma Cinema Screen 2: Ernakulam,110.0,98,1,0,9.981755,76.2826,BookMyShow,7.8,"Action, Drama",2022-03-25,DVV Entertainment,"N.T. Rama Rao Jr., Ram Charan, Alia Bhatt",S.S. Rajamouli,5500000000,12000000000,RRR,Morning,Stormy,No,79
Ahmedabad,Rajhans Cinemas: Nikol,114.5055556,741,3,1,23.05089,72.66758,BookMyShow,7.8,"Action, Drama",2022-03-25,DVV Entertainment,"N.T. Rama Rao Jr., Ram Charan, Alia Bhatt",S.S. Rajamouli,5500000000,12000000000,RRR,Morning,Cloudy,Yes,39
Chennai,Bharath Theatre Dolby AtmosDolby Atmos,97.97240740555556,963,1,0,13.1102599,80.2797875,Internet Research,6.5,"Action, Crime, Thriller",2021-11-05,Reliance Entertainment,"Akshay Kumar, Katrina Kaif, Ajay Devgn",Rohit Shetty,1650000000,2900000000,Sooryavanshi,Night,Cloudy,No,610
Kolkata,"Padmasree Cinema, Jadavpore",187.80483726826088,730,1,0,22.4728672,88.37637,MediaAnt,8.4,"Comedy, Drama",2009-12-25,Vinod Chopra Films,"Aamir Khan, R. Madhavan, Sharman Joshi",Rajkumar Hirani,35000000,470000000,3 Idiots,Afternoon,Rainy,No,497
Mumbai,Miraj Anupam Cinemas: Goregaon (E),146.1666667,490,2,1,19.16545,72.85126,BookMyShow,7.0,"Action, Thriller",2023-06-02,Red Chillies Entertainment,"Shah Rukh Khan, Nayanthara, Vijay Sethupathi",Atlee Kumar,2200000000,8000000000,Jawan,Evening,Humid,No,342
Delhi,PVR Promenade: Vasant Kunj,431.7234848,1139,7,1,28.54262,77.15575,"BookMyShow, Internet Research",8.2,"Crime, Drama, Thriller",2022-11-18,Panorama Studios,"Ajay Devgn, Shriya Saran, Tabu",Abhishek Pathak,50000000,340000000,Drishyam 2,Afternoon,Cloudy,Yes,300
Bangalore,"Sri Siddalingeswara Chitra Mandira, Bangalore",183.50891304903843,940,1,0,12.9037028,77.5804877,MediaAnt,7.3,"Action, Thriller",2022-06-03,Raaj Kamal Films International,"Kamal Haasan, Vijay Sethupathi, Fahadh Faasil",Lokesh Kanagaraj,1500000000,4000000000,Vikram,Night,Hot,No,225
Chennai,"Baby Albert Theatre, Whannels Road",97.97240740555556,242,1,0,13.0761555,80.263841,MediaAnt,8.4,"Comedy, Drama",2009-12-25,Vinod Chopra Films,"Aamir Khan, R. Madhavan, Sharman Joshi",Rajkumar Hirani,35000000,470000000,3 Idiots,Afternoon,Humid,Yes,213
Chennai,"INOX: Chennai Citi Centre, Dr. RK Salai",153.6,528,4,1,13.04295,80.27379,BookMyShow,8.4,"Comedy, Drama",2009-12-25,Vinod Chopra Films,"Aamir Khan, R. Madhavan, Sharman Joshi",Rajkumar Hirani,35000000,470000000,3 Idiots,Night,Stormy,Yes,175
Delhi,Carnival: Odeon Complex,493.0555556,592,2,1,28.63429,77.22107,BookMyShow,8.0,"Action, Drama",2015-07-10,Arka Media Works,"Prabhas, Rana Daggubati, Anushka Shetty",S.S. Rajamouli,1800000000,6500000000,Baahubali,Evening,Stormy,No,290
Hyderabad,Raghavendra Mini: Malkajgiri,70.0,385,1,0,17.4513,78.53616,"BookMyShow, MediaAnt",7.0,"Action, Thriller",2023-06-02,Red Chillies Entertainment,"Shah Rukh Khan, Nayanthara, Vijay Sethupathi",Atlee Kumar,2200000000,8000000000,Jawan,Morning,Humid,Yes,374
Chennai,"Udhayam Theatre, Ashoknagar",97.97240740555556,759,1,0,13.0346888,80.2103968,MediaAnt,7.1,"Drama, Romance",2019-06-21,Cine1 Studios,"Shahid Kapoor, Kiara Advani, Soham Majumdar",Sandeep Reddy Vanga,600000000,3800000000,Kabir Singh,Morning,Stormy,Yes,550
Hyderabad,Sree Rama Theatre: Bahadurpura,80.0,796,1,0,17.35449,78.4573,"BookMyShow, MediaAnt",7.7,"Action, Adventure, Drama",2022-09-30,Hombale Films,"Rishab Shetty, Kishore Kumar G., Achyuth Kumar",Rishab Shetty,160000000,4000000000,Kantara,Night,Hot,No,473
Bangalore,Srinivasa Digital 4K Cinema: S.G. Palya,132.5,800,1,0,12.93188,77.60772,"BookMyShow, MediaAnt",8.2,"Crime, Drama, Thriller",2022-11-18,Panorama Studios,"Ajay Devgn, Shriya Saran, Tabu",Abhishek Pathak,50000000,340000000,Drishyam 2,Afternoon,Humid,No,19
Hyderabad,Manju Cinema: Kalasiguda,70.0,289,1,0,17.44048,78.4936,BookMyShow,6.3,"Action, Adventure, Thriller",2023-01-25,Yash Raj Films,"Shah Rukh Khan, Deepika Padukone, John Abraham",Siddharth Anand,2500000000,10500000000,Pathaan,Afternoon,Hot,Yes,274
Hyderabad,Asian Lakshmikala Cinepride: Moosapet,88.81481481,2403,4,1,17.46753,78.42831,BookMyShow,7.8,"Action, Drama",2022-03-25,DVV Entertainment,"N.T. Rama Rao Jr., Ram Charan, Alia Bhatt",S.S. Rajamouli,5500000000,12000000000,RRR,Evening,Sunny,No,1618
Bangalore,Rex Theatre: Brigade Road,185.0,707,1,0,12.97262,77.60663,BookMyShow,7.4,"Action, Crime, Drama",2021-12-17,Mythri Movie Makers,"Allu Arjun, Fahadh Faasil, Rashmika Mandanna",Sukumar,2500000000,3650000000,Pushpa,Night,Cloudy,Yes,187
Chennai,Sangam Cinemas,97.97240740555556,1662,3,1,13.0794633,80.2492933,Internet Research,8.4,"Comedy, Drama",2009-12-25,Vinod Chopra Films,"Aamir Khan, R. Madhavan, Sharman Joshi",Rajkumar Hirani,35000000,470000000,3 Idiots,Night,Cloudy,Yes,879
Hyderabad,"Miraj Cinemas: Shalini Shivani, Hyderabad",158.8541667,1286,4,1,17.36764,78.5362,BookMyShow,7.8,"Action, Drama",2022-03-25,DVV Entertainment,"N.T. Rama Rao Jr., Ram Charan, Alia Bhatt",S.S. Rajamouli,5500000000,12000000000,RRR,Morning,Cloudy,No,1255
Bangalore,"Pushpanjali Talkies, Dinnur Main Road",183.50891304903843,1330,1,0,13.0218949,77.6031292,MediaAnt,8.3,"Biography, Drama, Sport",2016-12-23,Walt Disney Pictures India,"Aamir Khan, Sakshi Tanwar, Fatima Sana Shaikh",Nitesh Tiwari,70000000,2100000000,Dangal,Evening,Sunny,No,483
Mumbai,"Fun Cinemas: K Star Mall, Chembur",149.7530864,1253,5,1,19.05235,72.90172,"BookMyShow, MediaAnt",7.3,"Action, Crime, Drama",2022-04-14,Hombale Films,"Yash, Sanjay Dutt, Raveena Tandon",Prashanth Neel,1000000000,12500000000,KGF 2,Afternoon,Hot,Yes,238
Kolkata,"Aleya Cinema, Ballygunge RS",187.80483726826088,447,1,0,22.52022,88.367129,MediaAnt,7.8,"Action, Drama",2022-03-25,DVV Entertainment,"N.T. Rama Rao Jr., Ram Charan, Alia Bhatt",S.S. Rajamouli,5500000000,12000000000,RRR,Afternoon,Sunny,Yes,112
Chennai,Bharath Theatre Dolby AtmosDolby Atmos,97.97240740555556,963,1,0,13.1102599,80.2797875,Internet Research,7.8,"Action, Drama",2022-03-25,DVV Entertainment,"N.T. Rama Rao Jr., Ram Charan, Alia Bhatt",S.S. Rajamouli,5500000000,12000000000,RRR,Night,Sunny,Yes,546
Hyderabad,Sree Sai Raja Theatre: Musheerabad,70.0,777,1,0,17.41634,78.49944,"BookMyShow, MediaAnt",7.0,"Action, Thriller",2023-06-02,Red Chillies Entertainment,"Shah Rukh Khan, Nayanthara, Vijay Sethupathi",Atlee Kumar,2200000000,8000000000,Jawan,Afternoon,Sunny,No,289
Bangalore,Maheshwari Digital 4K Cinema: Bannerghatta Road,183.50891304903843,0,0,1,12.92339,77.59894,BookMyShow,5.6,"Action, Adventure, Fantasy",2022-09-09,Dharma Productions,"Ranbir Kapoor, Alia Bhatt, Amitabh Bachchan",Ayan Mukerji,4100000000,4300000000,Brahmastra,Morning,Hot,Yes,0
Mumbai,Natraj Cinema: Chembur,65.0,746,1,0,19.06247,72.89922,BookMyShow,8.0,"Action, Drama",2015-07-10,Arka Media Works,"Prabhas, Rana Daggubati, Anushka Shetty",S.S. Rajamouli,1800000000,6500000000,Baahubali,Night,Cloudy,Yes,217
Chennai,"Annai Karumari, Virugambakkam",97.97240740555556,196,1,0,13.0530785,80.1931011,MediaAnt,7.4,"Action, Crime, Drama",2021-12-17,Mythri Movie Makers,"Allu Arjun, Fahadh Faasil, Rashmika Mandanna",Sukumar,2500000000,3650000000,Pushpa,Morning,Cloudy,No,67
Bangalore,Parimala Digital 2K Cinema: K.R.Market,183.50891304903843,1112,1,0,12.963107,77.57705,Internet Research,6.3,"Action, Adventure, Thriller",2023-01-25,Yash Raj Films,"Shah Rukh Khan, Deepika Padukone, John Abraham",Siddharth Anand,2500000000,10500000000,Pathaan,Evening,Hot,No,998
Mumbai,"Shri Krishna Cinema, Bhandup Ind. Estate",198.1442727463636,766,1,0,19.151394,72.936919,MediaAnt,7.3,"Action, Thriller",2022-06-03,Raaj Kamal Films International,"Kamal Haasan, Vijay Sethupathi, Fahadh Faasil",Lokesh Kanagaraj,1500000000,4000000000,Vikram,Afternoon,Humid,Yes,262
Mumbai,"INOX: Thakur Movie, Kandivali (E)",126.9166667,410,1,0,19.21198,72.87165,BookMyShow,5.6,"Action, Adventure, Fantasy",2022-09-09,Dharma Productions,"Ranbir Kapoor, Alia Bhatt, Amitabh Bachchan",Ayan Mukerji,4100000000,4300000000,Brahmastra,Night,Rainy,Yes,45
Mumbai,"INOX: Nakshatra Mall, Dadar (W)",167.3333333,272,1,0,19.0199,72.84133,BookMyShow,5.6,"Action, Adventure, Fantasy",2022-09-09,Dharma Productions,"Ranbir Kapoor, Alia Bhatt, Amitabh Bachchan",Ayan Mukerji,4100000000,4300000000,Brahmastra,Evening,Cloudy,Yes,223
Bangalore,"7D Mastii: Element Mall, Nagwara",150.0,18,1,0,13.04541,77.6266,BookMyShow,7.0,"Action, Thriller",2023-06-02,Red Chillies Entertainment,"Shah Rukh Khan, Nayanthara, Vijay Sethupathi",Atlee Kumar,2200000000,8000000000,Jawan,Night,Cloudy,Yes,5
Chennai,Kasi4K Dolby Atmos,97.97240740555556,733,1,0,13.0294637,80.2084348,Internet Research,7.8,"Action, Drama",2022-03-25,DVV Entertainment,"N.T. Rama Rao Jr., Ram Charan, Alia Bhatt",S.S. Rajamouli,5500000000,12000000000,RRR,Evening,Hot,No,482
Mumbai,"PVR: Dynamix, Juhu",277.4550265,1279,5,1,19.11482,72.82753,"BookMyShow, MediaAnt",6.3,"Action, Adventure, Thriller",2023-01-25,Yash Raj Films,"Shah Rukh Khan, Deepika Padukone, John Abraham",Siddharth Anand,2500000000,10500000000,Pathaan,Evening,Hot,Yes,664
Ahmedabad,Rajhans Cinemas: Nikol,114.5055556,741,3,1,23.05089,72.66758,BookMyShow,7.4,"Action, Crime, Drama",2021-12-17,Mythri Movie Makers,"Allu Arjun, Fahadh Faasil, Rashmika Mandanna",Sukumar,2500000000,3650000000,Pushpa,Night,Cloudy,No,636
Delhi,Satyam Patel Nagar-NCR,301.8207102540476,1207,4,1,28.6504,77.1576999,Internet Research,8.3,"Biography, Drama, Sport",2016-12-23,Walt Disney Pictures India,"Aamir Khan, Sakshi Tanwar, Fatima Sana Shaikh",Nitesh Tiwari,70000000,2100000000,Dangal,Night,Hot,No,133
Hyderabad,Rajdhani Deluxe Theatre: Dilsukhnagar,90.0,628,1,0,17.36897,78.52737,"BookMyShow, MediaAnt",7.4,"Action, Crime, Drama",2021-12-17,Mythri Movie Makers,"Allu Arjun, Fahadh Faasil, Rashmika Mandanna",Sukumar,2500000000,3650000000,Pushpa,Night,Cloudy,Yes,421
Chennai,"Bala Theatre, Anna Road",97.97240740555556,518,1,0,13.0949014,80.1855746,MediaAnt,7.3,"Action, Thriller",2022-06-03,Raaj Kamal Films International,"Kamal Haasan, Vijay Sethupathi, Fahadh Faasil",Lokesh Kanagaraj,1500000000,4000000000,Vikram,Morning,Stormy,Yes,397
Hyderabad,Sri Mayuri Theatre: RTC X Roads,86.66666667,941,1,0,17.40747,78.49604,"BookMyShow, MediaAnt",7.3,"Action, Thriller",2022-06-03,Raaj Kamal Films International,"Kamal Haasan, Vijay Sethupathi, Fahadh Faasil",Lokesh Kanagaraj,1500000000,4000000000,Vikram,Evening,Humid,No,894
Hyderabad,Cine Town: Miyapur,90.0,1263,3,1,17.49534,78.35329,BookMyShow,6.3,"Action, Adventure, Thriller",2023-01-25,Yash Raj Films,"Shah Rukh Khan, Deepika Padukone, John Abraham",Siddharth Anand,2500000000,10500000000,Pathaan,Night,Humid,No,100
Chennai,AGS Cinemas: T. Nagar,82.7,884,4,1,13.04745,80.24485,BookMyShow,7.4,"Action, Crime, Drama",2021-12-17,Mythri Movie Makers,"Allu Arjun, Fahadh Faasil, Rashmika Mandanna",Sukumar,2500000000,3650000000,Pushpa,Afternoon,Rainy,Yes,90
Mumbai,Super Cinema: Grant Road,198.1442727463636,822,1,0,18.962068,72.821162,Internet Research,7.3,"Action, Crime, Drama",2022-04-14,Hombale Films,"Yash, Sanjay Dutt, Raveena Tandon",Prashanth Neel,1000000000,12500000000,KGF 2,Night,Stormy,No,675
Bangalore,Sri Venkateshwara Theatre: Kengeri,100.0,500,1,0,12.90644,77.48277,"BookMyShow, MediaAnt",8.4,"Action, Biography, Drama",2021-08-12,Dharma Productions,"Sidharth Malhotra, Kiara Advani, Shiv Panditt",Vishnuvardhan,550000000,1360000000,Shershaah,Morning,Sunny,No,33
Bangalore,"Uma Theatre, Chamrajpet",183.50891304903843,984,1,0,12.9554065,77.567022,MediaAnt,5.6,"Action, Adventure, Fantasy",2022-09-09,Dharma Productions,"Ranbir Kapoor, Alia Bhatt, Amitabh Bachchan",Ayan Mukerji,4100000000,4300000000,Brahmastra,Morning,Sunny,Yes,394
Hyderabad,Manju Cinema: Kalasiguda,70.0,289,1,0,17.44048,78.4936,BookMyShow,7.3,"Action, Thriller",2022-06-03,Raaj Kamal Films International,"Kamal Haasan, Vijay Sethupathi, Fahadh Faasil",Lokesh Kanagaraj,1500000000,4000000000,Vikram,Morning,Cloudy,No,12
Mumbai,"Cinemax: Infiniti Mall, Malad (W)",252.310119,904,5,1,19.18512,72.83401,"BookMyShow, Internet Research",8.2,"Crime, Drama, Thriller",2022-11-18,Panorama Studios,"Ajay Devgn, Shriya Saran, Tabu",Abhishek Pathak,50000000,340000000,Drishyam 2,Morning,Hot,No,332
Mumbai,"INOX: Raghuleela Mall, Kandivali (W)",194.4583333,1236,5,1,19.21345,72.84918,BookMyShow,6.5,"Action, Crime, Thriller",2021-11-05,Reliance Entertainment,"Akshay Kumar, Katrina Kaif, Ajay Devgn",Rohit Shetty,1650000000,2900000000,Sooryavanshi,Night,Stormy,Yes,581
Hyderabad,Sapna Cinemas: Abids,80.0,552,1,0,17.39103,78.47569,"BookMyShow, Internet Research",7.0,"Action, Thriller",2023-06-02,Red Chillies Entertainment,"Shah Rukh Khan, Nayanthara, Vijay Sethupathi",Atlee Kumar,2200000000,8000000000,Jawan,Morning,Humid,Yes,447
Kolkata,11D Adventureplex: Quest Mall,250.0,30,1,0,22.52575,88.35952,"BookMyShow, Internet Research",5.6,"Action, Adventure, Fantasy",2022-09-09,Dharma Productions,"Ranbir Kapoor, Alia Bhatt, Amitabh Bachchan",Ayan Mukerji,4100000000,4300000000,Brahmastra,Evening,Stormy,No,26
Bangalore,"7D Voyage: Central Mall, Bellandur",180.0,8,1,0,12.9264,77.67533,BookMyShow,6.3,"Action, Adventure, Thriller",2023-01-25,Yash Raj Films,"Shah Rukh Khan, Deepika Padukone, John Abraham",Siddharth Anand,2500000000,10500000000,Pathaan,Morning,Rainy,No,5
Hyderabad,Select Talkies: Bolaram,60.0,566,1,0,17.51147,78.51067,"BookMyShow, MediaAnt",7.4,"Action, Crime, Drama",2021-12-17,Mythri Movie Makers,"Allu Arjun, Fahadh Faasil, Rashmika Mandanna",Sukumar,2500000000,3650000000,Pushpa,Night,Rainy,No,28
Kolkata,"Park Show House, Shakespeare Sarani",187.80483726826088,588,1,0,22.5462997,88.3622103,MediaAnt,8.4,"Comedy, Drama",2009-12-25,Vinod Chopra Films,"Aamir Khan, R. Madhavan, Sharman Joshi",Rajkumar Hirani,35000000,470000000,3 Idiots,Evening,Cloudy,Yes,9
Bangalore,"Sujatha Talkies, Deepanjalinagar",183.50891304903843,450,1,0,12.9618776,77.5473551,MediaAnt,7.8,"Action, Drama",2022-03-25,DVV Entertainment,"N.T. Rama Rao Jr., Ram Charan, Alia Bhatt",S.S. Rajamouli,5500000000,12000000000,RRR,Evening,Rainy,No,353
Mumbai,"Palace Talkies, V J B Udyan",198.1442727463636,724,1,0,18.9759324,72.8331947,MediaAnt,7.1,"Drama, Romance",2019-06-21,Cine1 Studios,"Shahid Kapoor, Kiara Advani, Soham Majumdar",Sandeep Reddy Vanga,600000000,3800000000,Kabir Singh,Evening,Sunny,No,123
Chennai,"Spectrum Mall, Perambur North",97.97240740555556,1395,5,1,13.1122465,80.2363247,MediaAnt,7.1,"Drama, Romance",2019-06-21,Cine1 Studios,"Shahid Kapoor, Kiara Advani, Soham Majumdar",Sandeep Reddy Vanga,600000000,3800000000,Kabir Singh,Morning,Hot,No,905
Bangalore,Parimala Digital 2K Cinema: K.R.Market,183.50891304903843,1112,1,0,12.963107,77.57705,Internet Research,8.4,"Action, Biography, Drama",2021-08-12,Dharma Productions,"Sidharth Malhotra, Kiara Advani, Shiv Panditt",Vishnuvardhan,550000000,1360000000,Shershaah,Afternoon,Rainy,No,529
Hyderabad,Asian Shiva: Dilsukhnagar,85.0,554,1,0,17.36117,78.5231,BookMyShow,6.3,"Action, Adventure, Thriller",2023-01-25,Yash Raj Films,"Shah Rukh Khan, Deepika Padukone, John Abraham",Siddharth Anand,2500000000,10500000000,Pathaan,Evening,Sunny,No,519
Delhi,PVR Promenade: Vasant Kunj,431.7234848,1139,7,1,28.54262,77.15575,"BookMyShow, Internet Research",7.0,"Action, Thriller",2023-06-02,Red Chillies Entertainment,"Shah Rukh Khan, Nayanthara, Vijay Sethupathi",Atlee Kumar,2200000000,8000000000,Jawan,Evening,Stormy,No,5
Delhi,M Cinemas: East of Kailash (Gold Class),493.75,780,2,1,28.55923,77.24623,BookMyShow,7.0,"Action, Thriller",2023-06-02,Red Chillies Entertainment,"Shah Rukh Khan, Nayanthara, Vijay Sethupathi",Atlee Kumar,2200000000,8000000000,Jawan,Afternoon,Stormy,No,285
Chennai,AVM Rajeswari A/C dts,97.97240740555556,603,1,0,13.0475424,80.2046086,Internet Research,5.6,"Action, Adventure, Fantasy",2022-09-09,Dharma Productions,"Ranbir Kapoor, Alia Bhatt, Amitabh Bachchan",Ayan Mukerji,4100000000,4300000000,Brahmastra,Evening,Humid,Yes,122
Mumbai,Maratha Mandir: Mumbai Central,60.0,1107,1,0,18.97133,72.82214,BookMyShow,6.3,"Action, Adventure, Thriller",2023-01-25,Yash Raj Films,"Shah Rukh Khan, Deepika Padukone, John Abraham",Siddharth Anand,2500000000,10500000000,Pathaan,Evening,Hot,Yes,523
Bangalore,"PVR: VR Gold, Bengaluru",697.025,1,4,1,12.99651,77.69526,BookMyShow,8.4,"Comedy, Drama",2009-12-25,Vinod Chopra Films,"Aamir Khan, R. Madhavan, Sharman Joshi",Rajkumar Hirani,35000000,470000000,3 Idiots,Morning,Stormy,Yes,1
Ahmedabad,"Shree Balaji Agora Mall, Chandkheda",149.09491512148148,802,4,1,23.1144241,72.5679062,MediaAnt,7.1,"Drama, Romance",2019-06-21,Cine1 Studios,"Shahid Kapoor, Kiara Advani, Soham Majumdar",Sandeep Reddy Vanga,600000000,3800000000,Kabir Singh,Night,Stormy,Yes,432
Mumbai,"PVR: Oberoi Mall, Goregaon (E)",264.9142857,1782,6,1,19.17399,72.86125,"BookMyShow, MediaAnt",7.7,"Action, Adventure, Drama",2022-09-30,Hombale Films,"Rishab Shetty, Kishore Kumar G., Achyuth Kumar",Rishab Shetty,160000000,4000000000,Kantara,Morning,Rainy,Yes,1085
Kolkata,"Chabighar, Parsibagan",187.80483726826088,646,1,0,22.5795878,88.3724625,MediaAnt,8.0,"Action, Drama",2015-07-10,Arka Media Works,"Prabhas, Rana Daggubati, Anushka Shetty",S.S. Rajamouli,1800000000,6500000000,Baahubali,Evening,Stormy,Yes,432
Bangalore,Mukunda Dolby Atmos: M S Nagar,159.375,814,1,0,13.00325,77.63585,BookMyShow,7.1,"Drama, Romance",2019-06-21,Cine1 Studios,"Shahid Kapoor, Kiara Advani, Soham Majumdar",Sandeep Reddy Vanga,600000000,3800000000,Kabir Singh,Morning,Stormy,No,312
Ahmedabad,City Gold: Motera,111.5,728,2,1,23.09203,72.59319,BookMyShow,8.2,"Crime, Drama, Thriller",2022-11-18,Panorama Studios,"Ajay Devgn, Shriya Saran, Tabu",Abhishek Pathak,50000000,340000000,Drishyam 2,Afternoon,Hot,Yes,521
Ahmedabad,"Apsara Cinema, Behrampura",149.09491512148148,1117,1,0,23.0039742,72.597468,MediaAnt,7.3,"Action, Crime, Drama",2022-04-14,Hombale Films,"Yash, Sanjay Dutt, Raveena Tandon",Prashanth Neel,1000000000,12500000000,KGF 2,Afternoon,Stormy,Yes,564
Chennai,"The Forum Vijaya Mall, Vadapalani",97.97240740555556,3010,9,1,13.0497383,80.2095368,MediaAnt,8.0,"Action, Drama",2015-07-10,Arka Media Works,"Prabhas, Rana Daggubati, Anushka Shetty",S.S. Rajamouli,1800000000,6500000000,Baahubali,Night,Humid,No,1244
Hyderabad,Konark: Dilsukhnagar,80.0,1026,1,0,17.3686,78.51865,"BookMyShow, MediaAnt",8.0,"Action, Drama",2015-07-10,Arka Media Works,"Prabhas, Rana Daggubati, Anushka Shetty",S.S. Rajamouli,1800000000,6500000000,Baahubali,Afternoon,Hot,Yes,670
Hyderabad,Srinivasa Talkies: Uppal,60.0,809,1,0,17.40106,78.56853,"BookMyShow, MediaAnt",7.3,"Action, Crime, Drama",2022-04-14,Hombale Films,"Yash, Sanjay Dutt, Raveena Tandon",Prashanth Neel,1000000000,12500000000,KGF 2,Evening,Hot,Yes,108
Bangalore,Cauvery Theatre: Sankey Road,123.3333333,1210,1,0,13.00256,77.58328,"BookMyShow, MediaAnt",7.3,"Action, Thriller",2022-06-03,Raaj Kamal Films International,"Kamal Haasan, Vijay Sethupathi, Fahadh Faasil",Lokesh Kanagaraj,1500000000,4000000000,Vikram,Afternoon,Rainy,No,200
Mumbai,Miraj Anupam Cinemas: Goregaon (E),146.1666667,490,2,1,19.16545,72.85126,BookMyShow,7.3,"Action, Crime, Drama",2022-04-14,Hombale Films,"Yash, Sanjay Dutt, Raveena Tandon",Prashanth Neel,1000000000,12500000000,KGF 2,Afternoon,Humid,Yes,345
Chennai,Abirami Cinemas: Chennai,113.5833333,1656,4,1,13.086,80.24809,BookMyShow,7.4,"Action, Crime, Drama",2021-12-17,Mythri Movie Makers,"Allu Arjun, Fahadh Faasil, Rashmika Mandanna",Sukumar,2500000000,3650000000,Pushpa,Afternoon,Cloudy,No,810
Bangalore,Kapali Theatre: Gandhi Nagar,100.0,1475,1,0,12.97791,77.57578,"BookMyShow, MediaAnt",5.6,"Action, Adventure, Fantasy",2022-09-09,Dharma Productions,"Ranbir Kapoor, Alia Bhatt, Amitabh Bachchan",Ayan Mukerji,4100000000,4300000000,Brahmastra,Morning,Sunny,Yes,1458
Hyderabad,SVC Sangeetha Theatre: RC Puram,100.0,590,1,0,17.51352,78.2866,"BookMyShow, Internet Research",8.2,"Crime, Drama, Thriller",2022-11-18,Panorama Studios,"Ajay Devgn, Shriya Saran, Tabu",Abhishek Pathak,50000000,340000000,Drishyam 2,Evening,Rainy,Yes,198
Mumbai,"New Shirin Talkies, Agripada",198.1442727463636,801,1,0,18.9811379,72.8260349,MediaAnt,5.6,"Action, Adventure, Fantasy",2022-09-09,Dharma Productions,"Ranbir Kapoor, Alia Bhatt, Amitabh Bachchan",Ayan Mukerji,4100000000,4300000000,Brahmastra,Night,Hot,No,748
Kolkata,"Aleya Cinema, Ballygunge RS",187.80483726826088,447,1,0,22.52022,88.367129,MediaAnt,8.4,"Comedy, Drama",2009-12-25,Vinod Chopra Films,"Aamir Khan, R. Madhavan, Sharman Joshi",Rajkumar Hirani,35000000,470000000,3 Idiots,Evening,Cloudy,Yes,261
Hyderabad,"Nagendra 70 Mm, Main Road",95.06145388259615,711,1,0,17.3561,78.5333,MediaAnt,7.7,"Action, Adventure, Drama",2022-09-30,Hombale Films,"Rishab Shetty, Kishore Kumar G., Achyuth Kumar",Rishab Shetty,160000000,4000000000,Kantara,Morning,Stormy,No,248
Hyderabad,Asian Ganga: Dilsukhnagar,85.0,707,1,0,17.36117,78.5231,BookMyShow,8.4,"Comedy, Drama",2009-12-25,Vinod Chopra Films,"Aamir Khan, R. Madhavan, Sharman Joshi",Rajkumar Hirani,35000000,470000000,3 Idiots,Afternoon,Stormy,Yes,77
Bangalore,"PVR: IMAX, VR Bengaluru, Whitefield",292.0,292,1,0,12.99639,77.69531,BookMyShow,6.3,"Action, Adventure, Thriller",2023-01-25,Yash Raj Films,"Shah Rukh Khan, Deepika Padukone, John Abraham",Siddharth Anand,2500000000,10500000000,Pathaan,Afternoon,Humid,Yes,20
Mumbai,Sun City: Vile Parle,180.2083333,615,2,1,19.10541,72.84651,BookMyShow,6.3,"Action, Adventure, Thriller",2023-01-25,Yash Raj Films,"Shah Rukh Khan, Deepika Padukone, John Abraham",Siddharth Anand,2500000000,10500000000,Pathaan,Morning,Rainy,No,138
Delhi,"Hans Cinema, G.T Karnal Road",301.8207102540476,900,1,0,28.7031355,77.1824101,MediaAnt,7.3,"Action, Crime, Drama",2022-04-14,Hombale Films,"Yash, Sanjay Dutt, Raveena Tandon",Prashanth Neel,1000000000,12500000000,KGF 2,Night,Cloudy,No,662
Hyderabad,Venkatadri Cinema 70MM: Dilsukhnagar,90.0,1263,1,0,17.36799,78.52345,"BookMyShow, MediaAnt",7.0,"Action, Thriller",2023-06-02,Red Chillies Entertainment,"Shah Rukh Khan, Nayanthara, Vijay Sethupathi",Atlee Kumar,2200000000,8000000000,Jawan,Evening,Rainy,No,768
Ahmedabad,"PVR: Arved Transcube, Ahmedabad",167.8217593,1404,7,1,23.0685,72.57602,"BookMyShow, MediaAnt",7.4,"Action, Crime, Drama",2021-12-17,Mythri Movie Makers,"Allu Arjun, Fahadh Faasil, Rashmika Mandanna",Sukumar,2500000000,3650000000,Pushpa,Evening,Sunny,Yes,1353
Bangalore,Rex Theatre: Brigade Road,185.0,707,1,0,12.97262,77.60663,BookMyShow,8.4,"Comedy, Drama",2009-12-25,Vinod Chopra Films,"Aamir Khan, R. Madhavan, Sharman Joshi",Rajkumar Hirani,35000000,470000000,3 Idiots,Evening,Cloudy,No,551
Chennai,"Spectrum Mall, Perambur North",97.97240740555556,1395,5,1,13.1122465,80.2363247,MediaAnt,8.4,"Comedy, Drama",2009-12-25,Vinod Chopra Films,"Aamir Khan, R. Madhavan, Sharman Joshi",Rajkumar Hirani,35000000,470000000,3 Idiots,Morning,Sunny,Yes,826
Bangalore,Sandhya Digital 4K Projection Dolby Atmos: Madiwal,125.0,720,1,0,12.92101,77.61794,"BookMyShow, MediaAnt",7.0,"Action, Thriller",2023-06-02,Red Chillies Entertainment,"Shah Rukh Khan, Nayanthara, Vijay Sethupathi",Atlee Kumar,2200000000,8000000000,Jawan,Afternoon,Sunny,No,510
Mumbai,Carnival: R Mall Mulund,150.9619048,1353,4,1,19.18385,72.95173,BookMyShow,7.1,"Drama, Romance",2019-06-21,Cine1 Studios,"Shahid Kapoor, Kiara Advani, Soham Majumdar",Sandeep Reddy Vanga,600000000,3800000000,Kabir Singh,Night,Rainy,Yes,191
Chennai,"INOX: Chennai Citi Centre, Dr. RK Salai",153.6,528,4,1,13.04295,80.27379,BookMyShow,8.2,"Crime, Drama, Thriller",2022-11-18,Panorama Studios,"Ajay Devgn, Shriya Saran, Tabu",Abhishek Pathak,50000000,340000000,Drishyam 2,Afternoon,Stormy,No,128
Delhi,"Vishal Cinema, Janta Market",301.8207102540476,1401,1,0,28.6555642,77.118129,MediaAnt,7.8,"Action, Drama",2022-03-25,DVV Entertainment,"N.T. Rama Rao Jr., Ram Charan, Alia Bhatt",S.S. Rajamouli,5500000000,12000000000,RRR,Evening,Stormy,Yes,1190
Hyderabad,"Pratap Theatre, Gandhi Bhawan",95.06145388259615,774,1,0,17.3882628,78.4707395,MediaAnt,7.1,"Drama, Romance",2019-06-21,Cine1 Studios,"Shahid Kapoor, Kiara Advani, Soham Majumdar",Sandeep Reddy Vanga,600000000,3800000000,Kabir Singh,Night,Sunny,Yes,591
Delhi,"Vishal Cinema, Janta Market",301.8207102540476,1401,1,0,28.6555642,77.118129,MediaAnt,8.0,"Action, Drama",2015-07-10,Arka Media Works,"Prabhas, Rana Daggubati, Anushka Shetty",S.S. Rajamouli,1800000000,6500000000,Baahubali,Evening,Rainy,Yes,651
Bangalore,"N Lakshmi Chitra Mandira, B G Road",183.50891304903843,850,1,0,12.860183,77.589458,MediaAnt,7.3,"Action, Crime, Drama",2022-04-14,Hombale Films,"Yash, Sanjay Dutt, Raveena Tandon",Prashanth Neel,1000000000,12500000000,KGF 2,Night,Hot,No,763
Bangalore,Bhumika Digital 2K Cinema: Gandhinagar,135.0,894,1,0,12.97382,77.57964,"BookMyShow, MediaAnt",8.2,"Crime, Drama, Thriller",2022-11-18,Panorama Studios,"Ajay Devgn, Shriya Saran, Tabu",Abhishek Pathak,50000000,340000000,Drishyam 2,Evening,Sunny,Yes,747
Chennai,INOX National: Arcot Road,153.6,1182,5,1,13.04689,80.19036,BookMyShow,7.0,"Action, Thriller",2023-06-02,Red Chillies Entertainment,"Shah Rukh Khan, Nayanthara, Vijay Sethupathi",Atlee Kumar,2200000000,8000000000,Jawan,Afternoon,Hot,No,151
Chennai,"SK-Marlen Cinemas 2K, Guindy: Alandur",150.0,229,1,0,13.00176,80.20358,"BookMyShow, Internet Research",7.4,"Action, Crime, Drama",2021-12-17,Mythri Movie Makers,"Allu Arjun, Fahadh Faasil, Rashmika Mandanna",Sukumar,2500000000,3650000000,Pushpa,Morning,Stormy,Yes,78
Hyderabad,Sandhya 70mm: RTC X Roads,100.0,1323,1,0,17.40691,78.49726,"BookMyShow, MediaAnt",7.7,"Action, Adventure, Drama",2022-09-30,Hombale Films,"Rishab Shetty, Kishore Kumar G., Achyuth Kumar",Rishab Shetty,160000000,4000000000,Kantara,Night,Humid,Yes,535
Bangalore,Kamakya Cinema: Banashankari,100.0,706,1,0,12.92331,77.55334,"BookMyShow, MediaAnt",7.4,"Action, Crime, Drama",2021-12-17,Mythri Movie Makers,"Allu Arjun, Fahadh Faasil, Rashmika Mandanna",Sukumar,2500000000,3650000000,Pushpa,Evening,Sunny,Yes,597
Bangalore,Veerabhadreshwara Theatre: Kamala Nagar,97.5,898,1,0,12.9931,77.52909,BookMyShow,8.4,"Comedy, Drama",2009-12-25,Vinod Chopra Films,"Aamir Khan, R. Madhavan, Sharman Joshi",Rajkumar Hirani,35000000,470000000,3 Idiots,Evening,Hot,No,11
Mumbai,"New Shirin Talkies, Agripada",198.1442727463636,801,1,0,18.9811379,72.8260349,MediaAnt,7.1,"Drama, Romance",2019-06-21,Cine1 Studios,"Shahid Kapoor, Kiara Advani, Soham Majumdar",Sandeep Reddy Vanga,600000000,3800000000,Kabir Singh,Evening,Humid,Yes,795
Hyderabad,Sree Rama Theatre: Bahadurpura,80.0,796,1,0,17.35449,78.4573,"BookMyShow, MediaAnt",5.6,"Action, Adventure, Fantasy",2022-09-09,Dharma Productions,"Ranbir Kapoor, Alia Bhatt, Amitabh Bachchan",Ayan Mukerji,4100000000,4300000000,Brahmastra,Afternoon,Hot,No,28
Hyderabad,Rukmini Cinema: Patancheru,70.0,956,1,0,17.53212,78.26473,"BookMyShow, Internet Research",7.0,"Action, Thriller",2023-06-02,Red Chillies Entertainment,"Shah Rukh Khan, Nayanthara, Vijay Sethupathi",Atlee Kumar,2200000000,8000000000,Jawan,Evening,Rainy,Yes,733
Kochi,EVM Kavitha Theatre 2K UFO: Ernakulam,110.0,1220,4,1,9.978573,76.28262,"BookMyShow, MediaAnt",7.8,"Action, Drama",2022-03-25,DVV Entertainment,"N.T. Rama Rao Jr., Ram Charan, Alia Bhatt",S.S. Rajamouli,5500000000,12000000000,RRR,Evening,Cloudy,No,1189
Hyderabad,Priya Theatre: Malleypally,80.0,750,1,0,17.39049,78.4549,"BookMyShow, MediaAnt",5.6,"Action, Adventure, Fantasy",2022-09-09,Dharma Productions,"Ranbir Kapoor, Alia Bhatt, Amitabh Bachchan",Ayan Mukerji,4100000000,4300000000,Brahmastra,Afternoon,Hot,Yes,602
Hyderabad,"Cinepolis: Manjeera Mall, Kukatpally",200.0,1405,5,1,17.48978,78.39322,BookMyShow,6.5,"Action, Crime, Thriller",2021-11-05,Reliance Entertainment,"Akshay Kumar, Katrina Kaif, Ajay Devgn",Rohit Shetty,1650000000,2900000000,Sooryavanshi,Afternoon,Hot,Yes,512
Delhi,"Cinepolis: Cross River Mall, Mall, Shahdara",249.375,1191,4,1,28.65681,77.30189,BookMyShow,8.0,"Action, Drama",2015-07-10,Arka Media Works,"Prabhas, Rana Daggubati, Anushka Shetty",S.S. Rajamouli,1800000000,6500000000,Baahubali,Morning,Stormy,No,293
Hyderabad,Rukmini Cinema: Patancheru,70.0,956,1,0,17.53212,78.26473,"BookMyShow, Internet Research",8.3,"Biography, Drama, Sport",2016-12-23,Walt Disney Pictures India,"Aamir Khan, Sakshi Tanwar, Fatima Sana Shaikh",Nitesh Tiwari,70000000,2100000000,Dangal,Evening,Sunny,Yes,35
Delhi,"PVR: Select City Walk (Gold), Delhi",943.75,40,1,0,28.52857,77.21973,BookMyShow,7.7,"Action, Adventure, Drama",2022-09-30,Hombale Films,"Rishab Shetty, Kishore Kumar G., Achyuth Kumar",Rishab Shetty,160000000,4000000000,Kantara,Night,Sunny,No,20
Kolkata,"Talkie Show House, Sibdas Bhaduri St",187.80483726826088,994,1,0,22.5985914,88.373945,MediaAnt,7.0,"Action, Thriller",2023-06-02,Red Chillies Entertainment,"Shah Rukh Khan, Nayanthara, Vijay Sethupathi",Atlee Kumar,2200000000,8000000000,Jawan,Morning,Stormy,Yes,251
Kolkata,"Mayur Cinema, Chittaranjan Avenue",187.80483726826088,853,1,0,22.5751236,88.3538911,MediaAnt,6.3,"Action, Adventure, Thriller",2023-01-25,Yash Raj Films,"Shah Rukh Khan, Deepika Padukone, John Abraham",Siddharth Anand,2500000000,10500000000,Pathaan,Afternoon,Cloudy,No,835
Hyderabad,"Miraj Cinemas: Shalini Shivani, Hyderabad",158.8541667,1286,4,1,17.36764,78.5362,BookMyShow,5.6,"Action, Adventure, Fantasy",2022-09-09,Dharma Productions,"Ranbir Kapoor, Alia Bhatt, Amitabh Bachchan",Ayan Mukerji,4100000000,4300000000,Brahmastra,Night,Stormy,Yes,462
Delhi,"PVR: Sangam, Delhi",312.2321429,392,2,1,28.57239,77.1735,BookMyShow,7.4,"Action, Crime, Drama",2021-12-17,Mythri Movie Makers,"Allu Arjun, Fahadh Faasil, Rashmika Mandanna",Sukumar,2500000000,3650000000,Pushpa,Night,Stormy,No,60
Hyderabad,Asian Shiva: Dilsukhnagar,85.0,554,1,0,17.36117,78.5231,BookMyShow,7.8,"Action, Drama",2022-03-25,DVV Entertainment,"N.T. Rama Rao Jr., Ram Charan, Alia Bhatt",S.S. Rajamouli,5500000000,12000000000,RRR,Morning,Humid,Yes,443
Hyderabad,Tivoli Cinema: Extreme,118.0,912,1,0,17.44724,78.49246,"BookMyShow, MediaAnt",7.1,"Drama, Romance",2019-06-21,Cine1 Studios,"Shahid Kapoor, Kiara Advani, Soham Majumdar",Sandeep Reddy Vanga,600000000,3800000000,Kabir Singh,Night,Humid,No,345
Kochi,"Jayalakshmi Talkies, Palluruthy",119.55509767142858,600,1,0,9.924479,76.2714001,MediaAnt,7.7,"Action, Adventure, Drama",2022-09-30,Hombale Films,"Rishab Shetty, Kishore Kumar G., Achyuth Kumar",Rishab Shetty,160000000,4000000000,Kantara,Night,Hot,No,307
Bangalore,Veerabhadreshwara Theatre: Kamala Nagar,97.5,898,1,0,12.9931,77.52909,BookMyShow,6.3,"Action, Adventure, Thriller",2023-01-25,Yash Raj Films,"Shah Rukh Khan, Deepika Padukone, John Abraham",Siddharth Anand,2500000000,10500000000,Pathaan,Night,Stormy,Yes,359
Bangalore,"Cinepolis: Orion East Mall, Banaswadi",244.5454545,1097,5,1,13.00121,77.63265,"BookMyShow, MediaAnt",7.0,"Action, Thriller",2023-06-02,Red Chillies Entertainment,"Shah Rukh Khan, Nayanthara, Vijay Sethupathi",Atlee Kumar,2200000000,8000000000,Jawan,Afternoon,Rainy,No,933
Chennai,Albert Complex,97.97240740555556,1200,1,0,13.0761554,80.2638409,Internet Research,8.2,"Crime, Drama, Thriller",2022-11-18,Panorama Studios,"Ajay Devgn, Shriya Saran, Tabu",Abhishek Pathak,50000000,340000000,Drishyam 2,Night,Sunny,Yes,401
Bangalore,"PVR: VR Gold, Bengaluru",697.025,1,4,1,12.99651,77.69526,BookMyShow,8.3,"Biography, Drama, Sport",2016-12-23,Walt Disney Pictures India,"Aamir Khan, Sakshi Tanwar, Fatima Sana Shaikh",Nitesh Tiwari,70000000,2100000000,Dangal,Night,Hot,Yes,1
Bangalore,"Fun Cinemas: Sigma Mall, Bengaluru",180.3571429,985,3,1,12.9882,77.59477,"BookMyShow, MediaAnt",7.1,"Drama, Romance",2019-06-21,Cine1 Studios,"Shahid Kapoor, Kiara Advani, Soham Majumdar",Sandeep Reddy Vanga,600000000,3800000000,Kabir Singh,Afternoon,Cloudy,Yes,339
Delhi,"PVR: Pacific, Delhi",446.3415179,1116,6,1,28.64269,77.10595,"BookMyShow, Internet Research",7.0,"Action, Thriller",2023-06-02,Red Chillies Entertainment,"Shah Rukh Khan, Nayanthara, Vijay Sethupathi",Atlee Kumar,2200000000,8000000000,Jawan,Afternoon,Hot,No,1115
Mumbai,"INOX: Neelyog, Ghatkopar (E)",159.4047619,915,4,1,19.08522,72.90917,BookMyShow,7.1,"Drama, Romance",2019-06-21,Cine1 Studios,"Shahid Kapoor, Kiara Advani, Soham Majumdar",Sandeep Reddy Vanga,600000000,3800000000,Kabir Singh,Morning,Cloudy,No,287
Delhi,Wave: Raja Garden,269.1666667,777,4,1,28.65193,77.1208,BookMyShow,5.6,"Action, Adventure, Fantasy",2022-09-09,Dharma Productions,"Ranbir Kapoor, Alia Bhatt, Amitabh Bachchan",Ayan Mukerji,4100000000,4300000000,Brahmastra,Morning,Cloudy,No,190
Bangalore,Sampige Digital 2k Cinema: Malleshwaram,150.0,1129,1,0,12.99307,77.5711,"BookMyShow, MediaAnt",7.0,"Action, Thriller",2023-06-02,Red Chillies Entertainment,"Shah Rukh Khan, Nayanthara, Vijay Sethupathi",Atlee Kumar,2200000000,8000000000,Jawan,Evening,Cloudy,Yes,181
Kolkata,"Talkie Show House, Sibdas Bhaduri St",187.80483726826088,994,1,0,22.5985914,88.373945,MediaAnt,8.0,"Action, Drama",2015-07-10,Arka Media Works,"Prabhas, Rana Daggubati, Anushka Shetty",S.S. Rajamouli,1800000000,6500000000,Baahubali,Evening,Rainy,No,908
Mumbai,PVR: Sion,172.8125,730,3,1,19.04175,72.86422,"BookMyShow, MediaAnt",7.3,"Action, Crime, Drama",2022-04-14,Hombale Films,"Yash, Sanjay Dutt, Raveena Tandon",Prashanth Neel,1000000000,12500000000,KGF 2,Evening,Cloudy,No,459
Delhi,"PVR: Pacific, Delhi",446.3415179,1116,6,1,28.64269,77.10595,"BookMyShow, Internet Research",5.6,"Action, Adventure, Fantasy",2022-09-09,Dharma Productions,"Ranbir Kapoor, Alia Bhatt, Amitabh Bachchan",Ayan Mukerji,4100000000,4300000000,Brahmastra,Evening,Cloudy,No,590
Hyderabad,BVK Multiplex Vijayalakshmi: LB Nagar,105.5555556,1211,3,1,17.34365,78.55422,BookMyShow,7.8,"Action, Drama",2022-03-25,DVV Entertainment,"N.T. Rama Rao Jr., Ram Charan, Alia Bhatt",S.S. Rajamouli,5500000000,12000000000,RRR,Night,Rainy,Yes,1001
Bangalore,"Ganesh Theatre, Attur",183.50891304903843,713,1,0,13.1001929,77.5872728,MediaAnt,5.6,"Action, Adventure, Fantasy",2022-09-09,Dharma Productions,"Ranbir Kapoor, Alia Bhatt, Amitabh Bachchan",Ayan Mukerji,4100000000,4300000000,Brahmastra,Afternoon,Rainy,Yes,424
Hyderabad,"Manikanta, Reddy Colony",95.06145388259615,394,1,0,17.337529,78.549634,MediaAnt,5.6,"Action, Adventure, Fantasy",2022-09-09,Dharma Productions,"Ranbir Kapoor, Alia Bhatt, Amitabh Bachchan",Ayan Mukerji,4100000000,4300000000,Brahmastra,Afternoon,Rainy,No,105
Bangalore,"The Cinema GT World: Magadi Rd, Bengaluru",195.8333333,1155,5,1,12.97345,77.55171,BookMyShow,8.2,"Crime, Drama, Thriller",2022-11-18,Panorama Studios,"Ajay Devgn, Shriya Saran, Tabu",Abhishek Pathak,50000000,340000000,Drishyam 2,Evening,Cloudy,Yes,21
Hyderabad,SVC Cinemas Eeshwar: Attapur,100.0,645,1,0,17.36645,78.42768,"BookMyShow, Internet Research",7.4,"Action, Crime, Drama",2021-12-17,Mythri Movie Makers,"Allu Arjun, Fahadh Faasil, Rashmika Mandanna",Sukumar,2500000000,3650000000,Pushpa,Afternoon,Cloudy,No,267
Ahmedabad,"Cinepolis: Alpha One Mall, Ahmedabad",197.9494949,1136,6,1,23.03952,72.53199,"BookMyShow, MediaAnt",7.7,"Action, Adventure, Drama",2022-09-30,Hombale Films,"Rishab Shetty, Kishore Kumar G., Achyuth Kumar",Rishab Shetty,160000000,4000000000,Kantara,Morning,Stormy,Yes,878
Mumbai,Regal Cinema: Colaba,166.0,1178,1,0,18.92472,72.83243,BookMyShow,7.1,"Drama, Romance",2019-06-21,Cine1 Studios,"Shahid Kapoor, Kiara Advani, Soham Majumdar",Sandeep Reddy Vanga,600000000,3800000000,Kabir Singh,Morning,Humid,Yes,220
Mumbai,Sangeeta Cineplex: Malad,128.45,178,1,0,19.18976,72.85168,BookMyShow,7.3,"Action, Crime, Drama",2022-04-14,Hombale Films,"Yash, Sanjay Dutt, Raveena Tandon",Prashanth Neel,1000000000,12500000000,KGF 2,Afternoon,Humid,Yes,56
Kolkata,Roxy Talkies: Kolkata,85.0,730,1,0,22.56229,88.35205,"BookMyShow, MediaAnt",8.2,"Crime, Drama, Thriller",2022-11-18,Panorama Studios,"Ajay Devgn, Shriya Saran, Tabu",Abhishek Pathak,50000000,340000000,Drishyam 2,Night,Cloudy,No,472
Delhi,Satyam Nehru Place-NCR,301.8207102540476,994,4,1,28.550044,77.251155,Internet Research,7.7,"Action, Adventure, Drama",2022-09-30,Hombale Films,"Rishab Shetty, Kishore Kumar G., Achyuth Kumar",Rishab Shetty,160000000,4000000000,Kantara,Night,Humid,Yes,298
Chennai,"INOX: Chennai Citi Centre, Dr. RK Salai",153.6,528,4,1,13.04295,80.27379,BookMyShow,7.3,"Action, Crime, Drama",2022-04-14,Hombale Films,"Yash, Sanjay Dutt, Raveena Tandon",Prashanth Neel,1000000000,12500000000,KGF 2,Morning,Humid,No,440
Mumbai,"Carnival: Harmony Mall, Oshiwara",160.06,433,2,1,19.15756,72.83473,BookMyShow,6.5,"Action, Crime, Thriller",2021-11-05,Reliance Entertainment,"Akshay Kumar, Katrina Kaif, Ajay Devgn",Rohit Shetty,1650000000,2900000000,Sooryavanshi,Evening,Sunny,Yes,23
Mumbai,Paradise E-Square Cinema: Mahim,102.2916667,502,1,0,19.0372,72.84256,BookMyShow,8.4,"Comedy, Drama",2009-12-25,Vinod Chopra Films,"Aamir Khan, R. Madhavan, Sharman Joshi",Rajkumar Hirani,35000000,470000000,3 Idiots,Night,Rainy,No,96
Chennai,Devicineplex,97.97240740555556,2462,1,0,13.0662224,80.2707235,Internet Research,7.8,"Action, Drama",2022-03-25,DVV Entertainment,"N.T. Rama Rao Jr., Ram Charan, Alia Bhatt",S.S. Rajamouli,5500000000,12000000000,RRR,Night,Cloudy,No,1879
Hyderabad,Sensation Insomnia: Khairatabad,80.0,555,1,0,17.40693,78.46363,"BookMyShow, MediaAnt",7.0,"Action, Thriller",2023-06-02,Red Chillies Entertainment,"Shah Rukh Khan, Nayanthara, Vijay Sethupathi",Atlee Kumar,2200000000,8000000000,Jawan,Night,Stormy,No,150
Mumbai,"Cinemax: Infiniti Mall, Malad (W)",252.310119,904,5,1,19.18512,72.83401,"BookMyShow, Internet Research",8.4,"Comedy, Drama",2009-12-25,Vinod Chopra Films,"Aamir Khan, R. Madhavan, Sharman Joshi",Rajkumar Hirani,35000000,470000000,3 Idiots,Afternoon,Rainy,Yes,121
Delhi,Delite Cinema: Asaf Ali Road,93.75,110,2,1,28.64122,77.23587,BookMyShow,8.2,"Crime, Drama, Thriller",2022-11-18,Panorama Studios,"Ajay Devgn, Shriya Saran, Tabu",Abhishek Pathak,50000000,340000000,Drishyam 2,Evening,Sunny,Yes,16
Mumbai,"Super Cinema, Bharat Nagar",198.1442727463636,822,1,0,18.9620626,72.8209921,MediaAnt,8.2,"Crime, Drama, Thriller",2022-11-18,Panorama Studios,"Ajay Devgn, Shriya Saran, Tabu",Abhishek Pathak,50000000,340000000,Drishyam 2,Evening,Sunny,No,560
Mumbai,"KSS Miniplex, Kurla North",198.1442727463636,182,3,1,19.0819265,72.8861376,MediaAnt,7.0,"Action, Thriller",2023-06-02,Red Chillies Entertainment,"Shah Rukh Khan, Nayanthara, Vijay Sethupathi",Atlee Kumar,2200000000,8000000000,Jawan,Evening,Stormy,Yes,55
Hyderabad,Asian CineSquare Multiplex: Uppal,125.0,1512,5,1,17.40215,78.57207,BookMyShow,6.5,"Action, Crime, Thriller",2021-11-05,Reliance Entertainment,"Akshay Kumar, Katrina Kaif, Ajay Devgn",Rohit Shetty,1650000000,2900000000,Sooryavanshi,Morning,Rainy,No,571
Bangalore,Cinepolis: Binnypet Mall,220.537415,1580,8,1,12.96579,77.56202,"BookMyShow, MediaAnt",6.5,"Action, Crime, Thriller",2021-11-05,Reliance Entertainment,"Akshay Kumar, Katrina Kaif, Ajay Devgn",Rohit Shetty,1650000000,2900000000,Sooryavanshi,Morning,Sunny,No,995
Bangalore,Triveni Theatre: Gandhinagar,109.0,800,1,0,12.97628,77.57538,"BookMyShow, MediaAnt",7.1,"Drama, Romance",2019-06-21,Cine1 Studios,"Shahid Kapoor, Kiara Advani, Soham Majumdar",Sandeep Reddy Vanga,600000000,3800000000,Kabir Singh,Morning,Rainy,Yes,19
Kolkata,"Malancha Cinema, Netaji Nagar",187.80483726826088,840,1,0,22.4870162,88.3506847,MediaAnt,8.0,"Action, Drama",2015-07-10,Arka Media Works,"Prabhas, Rana Daggubati, Anushka Shetty",S.S. Rajamouli,1800000000,6500000000,Baahubali,Evening,Hot,No,138
Delhi,"DT Cinemas: DLF Place, Saket",286.0795455,953,6,1,28.5274,77.21713,BookMyShow,8.3,"Biography, Drama, Sport",2016-12-23,Walt Disney Pictures India,"Aamir Khan, Sakshi Tanwar, Fatima Sana Shaikh",Nitesh Tiwari,70000000,2100000000,Dangal,Morning,Stormy,No,63
Kolkata,"INOX: South City, Kolkata",306.1619444,1426,6,1,22.50136,88.36196,"BookMyShow, MediaAnt",7.8,"Action, Drama",2022-03-25,DVV Entertainment,"N.T. Rama Rao Jr., Ram Charan, Alia Bhatt",S.S. Rajamouli,5500000000,12000000000,RRR,Evening,Stormy,Yes,974
Bangalore,"Pushpanjali Talkies, Dinnur Main Road",183.50891304903843,1330,1,0,13.0218949,77.6031292,MediaAnt,8.4,"Comedy, Drama",2009-12-25,Vinod Chopra Films,"Aamir Khan, R. Madhavan, Sharman Joshi",Rajkumar Hirani,35000000,470000000,3 Idiots,Morning,Sunny,No,798
Ahmedabad,"Galaxy, Station Road",149.09491512148148,909,1,0,23.0748037,72.6554437,MediaAnt,7.8,"Action, Drama",2022-03-25,DVV Entertainment,"N.T. Rama Rao Jr., Ram Charan, Alia Bhatt",S.S. Rajamouli,5500000000,12000000000,RRR,Evening,Humid,Yes,886
Bangalore,Navrang Theatre: Rajaji Nagar,90.0,990,1,0,12.99784,77.5528,"BookMyShow, MediaAnt",7.0,"Action, Thriller",2023-06-02,Red Chillies Entertainment,"Shah Rukh Khan, Nayanthara, Vijay Sethupathi",Atlee Kumar,2200000000,8000000000,Jawan,Morning,Rainy,Yes,552
Hyderabad,Asian M Cube Mall: Attapur,140.0,1014,4,1,17.37169,78.43027,BookMyShow,7.1,"Drama, Romance",2019-06-21,Cine1 Studios,"Shahid Kapoor, Kiara Advani, Soham Majumdar",Sandeep Reddy Vanga,600000000,3800000000,Kabir Singh,Evening,Stormy,No,110
Hyderabad,Sri Lakshmi Deluxe: Karmanghat,80.0,629,1,0,17.34575,78.53156,"BookMyShow, MediaAnt",8.4,"Comedy, Drama",2009-12-25,Vinod Chopra Films,"Aamir Khan, R. Madhavan, Sharman Joshi",Rajkumar Hirani,35000000,470000000,3 Idiots,Morning,Stormy,No,87
Bangalore,"Deepak Theatre, Mahatma Gandhi Road",183.50891304903843,525,1,0,12.997947,77.5405319,MediaAnt,8.3,"Biography, Drama, Sport",2016-12-23,Walt Disney Pictures India,"Aamir Khan, Sakshi Tanwar, Fatima Sana Shaikh",Nitesh Tiwari,70000000,2100000000,Dangal,Afternoon,Stormy,No,212
Bangalore,Sampige Digital 2k Cinema: Malleshwaram,150.0,1129,1,0,12.99307,77.5711,"BookMyShow, MediaAnt",5.6,"Action, Adventure, Fantasy",2022-09-09,Dharma Productions,"Ranbir Kapoor, Alia Bhatt, Amitabh Bachchan",Ayan Mukerji,4100000000,4300000000,Brahmastra,Afternoon,Humid,Yes,461
Hyderabad,Asian Ganga: Dilsukhnagar,85.0,707,1,0,17.36117,78.5231,BookMyShow,7.0,"Action, Thriller",2023-06-02,Red Chillies Entertainment,"Shah Rukh Khan, Nayanthara, Vijay Sethupathi",Atlee Kumar,2200000000,8000000000,Jawan,Afternoon,Rainy,No,92
Chennai,Sangam Cinemas,97.97240740555556,1662,3,1,13.0794633,80.2492933,Internet Research,8.2,"Crime, Drama, Thriller",2022-11-18,Panorama Studios,"Ajay Devgn, Shriya Saran, Tabu",Abhishek Pathak,50000000,340000000,Drishyam 2,Evening,Sunny,Yes,424
Hyderabad,Prasads: Hyderabad,150.0,2230,6,1,17.33215,78.47,"BookMyShow, MediaAnt",7.7,"Action, Adventure, Drama",2022-09-30,Hombale Films,"Rishab Shetty, Kishore Kumar G., Achyuth Kumar",Rishab Shetty,160000000,4000000000,Kantara,Morning,Stormy,Yes,736
Bangalore,Ravi Digital 2K Cinema: Ejipura,109.0,820,1,0,12.95124,77.62217,"BookMyShow, Internet Research",7.0,"Action, Thriller",2023-06-02,Red Chillies Entertainment,"Shah Rukh Khan, Nayanthara, Vijay Sethupathi",Atlee Kumar,2200000000,8000000000,Jawan,Evening,Hot,Yes,586
Mumbai,"PVR: Phoenix, Lower Parel",337.8737374,1760,7,1,18.9952,72.82407,BookMyShow,7.1,"Drama, Romance",2019-06-21,Cine1 Studios,"Shahid Kapoor, Kiara Advani, Soham Majumdar",Sandeep Reddy Vanga,600000000,3800000000,Kabir Singh,Afternoon,Hot,No,378
Ahmedabad,"Shree Balaji Agora Mall, Chandkheda",149.09491512148148,802,4,1,23.1144241,72.5679062,MediaAnt,8.3,"Biography, Drama, Sport",2016-12-23,Walt Disney Pictures India,"Aamir Khan, Sakshi Tanwar, Fatima Sana Shaikh",Nitesh Tiwari,70000000,2100000000,Dangal,Evening,Cloudy,Yes,453
Kolkata,"Cinepolis: Lake Mall, Kolkata",214.2045455,947,4,1,22.51652,88.34876,BookMyShow,8.0,"Action, Drama",2015-07-10,Arka Media Works,"Prabhas, Rana Daggubati, Anushka Shetty",S.S. Rajamouli,1800000000,6500000000,Baahubali,Afternoon,Rainy,Yes,746
Bangalore,Srinivasa Digital 4K Cinema: S.G. Palya,132.5,800,1,0,12.93188,77.60772,"BookMyShow, MediaAnt",7.3,"Action, Thriller",2022-06-03,Raaj Kamal Films International,"Kamal Haasan, Vijay Sethupathi, Fahadh Faasil",Lokesh Kanagaraj,1500000000,4000000000,Vikram,Afternoon,Stormy,No,287
Delhi,"7D Mastiii: TDI Mall, Rajouri Garden, Delhi",170.0,18,1,0,28.65083,77.12087,BookMyShow,8.2,"Crime, Drama, Thriller",2022-11-18,Panorama Studios,"Ajay Devgn, Shriya Saran, Tabu",Abhishek Pathak,50000000,340000000,Drishyam 2,Evening,Stormy,Yes,18
Ahmedabad,"Cinemax: Red Carpet, Ahmedabad",152.0524691,991,4,1,23.07968,72.5277,BookMyShow,5.6,"Action, Adventure, Fantasy",2022-09-09,Dharma Productions,"Ranbir Kapoor, Alia Bhatt, Amitabh Bachchan",Ayan Mukerji,4100000000,4300000000,Brahmastra,Morning,Sunny,Yes,136
Hyderabad,Tivoli Cinema: Extreme,118.0,912,1,0,17.44724,78.49246,"BookMyShow, MediaAnt",7.3,"Action, Crime, Drama",2022-04-14,Hombale Films,"Yash, Sanjay Dutt, Raveena Tandon",Prashanth Neel,1000000000,12500000000,KGF 2,Afternoon,Hot,No,379
Bangalore,"Lavanya, Sivan Chetty Gardens",183.50891304903843,786,1,0,12.9848012,77.6148355,MediaAnt,6.3,"Action, Adventure, Thriller",2023-01-25,Yash Raj Films,"Shah Rukh Khan, Deepika Padukone, John Abraham",Siddharth Anand,2500000000,10500000000,Pathaan,Night,Sunny,Yes,137
Bangalore,Nartaki Theatre: Gandhi Nagar,111.5,1150,1,0,12.9743,77.57619,"BookMyShow, Internet Research",7.8,"Action, Drama",2022-03-25,DVV Entertainment,"N.T. Rama Rao Jr., Ram Charan, Alia Bhatt",S.S. Rajamouli,5500000000,12000000000,RRR,Night,Sunny,No,159
Chennai,Arvind Theatre A/C dts,97.97240740555556,445,1,0,12.9153435,80.2297244,Internet Research,8.4,"Comedy, Drama",2009-12-25,Vinod Chopra Films,"Aamir Khan, R. Madhavan, Sharman Joshi",Rajkumar Hirani,35000000,470000000,3 Idiots,Night,Stormy,No,17
Kolkata,"Bhabani Cinema, Indrani Park",187.80483726826088,665,1,0,22.5055091,88.3451152,MediaAnt,7.4,"Action, Crime, Drama",2021-12-17,Mythri Movie Makers,"Allu Arjun, Fahadh Faasil, Rashmika Mandanna",Sukumar,2500000000,3650000000,Pushpa,Morning,Cloudy,Yes,209
Chennai,Anna Theatre: Chennai,94.6,364,1,0,13.06717,80.27129,"BookMyShow, Internet Research",8.2,"Crime, Drama, Thriller",2022-11-18,Panorama Studios,"Ajay Devgn, Shriya Saran, Tabu",Abhishek Pathak,50000000,340000000,Drishyam 2,Morning,Sunny,No,186
Hyderabad,Gokul 70MM: Erragadda,90.0,1224,1,0,17.45358,78.43435,"BookMyShow, MediaAnt",8.0,"Action, Drama",2015-07-10,Arka Media Works,"Prabhas, Rana Daggubati, Anushka Shetty",S.S. Rajamouli,1800000000,6500000000,Baahubali,Evening,Rainy,Yes,479
Kolkata,"PVR: Mani Square Mall, Kolkata",237.3840741,1208,4,1,22.57771,88.4009,"BookMyShow, MediaAnt",5.6,"Action, Adventure, Fantasy",2022-09-09,Dharma Productions,"Ranbir Kapoor, Alia Bhatt, Amitabh Bachchan",Ayan Mukerji,4100000000,4300000000,Brahmastra,Morning,Cloudy,Yes,285
Bangalore,"Shobha Talkies, Bhabuji Nagar",183.50891304903843,1000,1,0,12.9574781,77.543303,MediaAnt,7.4,"Action, Crime, Drama",2021-12-17,Mythri Movie Makers,"Allu Arjun, Fahadh Faasil, Rashmika Mandanna",Sukumar,2500000000,3650000000,Pushpa,Evening,Rainy,No,435
Bangalore,Cinepolis: Royal Meenakshi Mall,271.0,1344,7,1,12.876,77.59582,"BookMyShow, MediaAnt",6.3,"Action, Adventure, Thriller",2023-01-25,Yash Raj Films,"Shah Rukh Khan, Deepika Padukone, John Abraham",Siddharth Anand,2500000000,10500000000,Pathaan,Morning,Stormy,No,292
Delhi,"Hans Cinema, G.T Karnal Road",301.8207102540476,900,1,0,28.7031355,77.1824101,MediaAnt,8.0,"Action, Drama",2015-07-10,Arka Media Works,"Prabhas, Rana Daggubati, Anushka Shetty",S.S. Rajamouli,1800000000,6500000000,Baahubali,Morning,Stormy,No,869
Hyderabad,Arjun 70MM: Kukatpally,100.0,786,1,0,17.49677,78.39703,"BookMyShow, MediaAnt",7.4,"Action, Crime, Drama",2021-12-17,Mythri Movie Makers,"Allu Arjun, Fahadh Faasil, Rashmika Mandanna",Sukumar,2500000000,3650000000,Pushpa,Afternoon,Sunny,No,361
Kochi,Sarita Cinema: Kochi,110.0,2141,3,1,9.984626,76.27759,"BookMyShow, Internet Research",7.4,"Action, Crime, Drama",2021-12-17,Mythri Movie Makers,"Allu Arjun, Fahadh Faasil, Rashmika Mandanna",Sukumar,2500000000,3650000000,Pushpa,Morning,Hot,No,1984
Bangalore,"Ganesh Theatre, Attur",183.50891304903843,713,1,0,13.1001929,77.5872728,MediaAnt,7.8,"Action, Drama",2022-03-25,DVV Entertainment,"N.T. Rama Rao Jr., Ram Charan, Alia Bhatt",S.S. Rajamouli,5500000000,12000000000,RRR,Afternoon,Humid,Yes,507
Bangalore,Sri Srinivasa Theatre: Padmanabanagara,110.0,725,1,0,12.90898,77.55804,"BookMyShow, Internet Research",7.4,"Action, Crime, Drama",2021-12-17,Mythri Movie Makers,"Allu Arjun, Fahadh Faasil, Rashmika Mandanna",Sukumar,2500000000,3650000000,Pushpa,Night,Sunny,No,61
Mumbai,"PVR: Sona Shopping Centre, Kandivali (W)",125.4166667,287,1,0,19.20243,72.8511,BookMyShow,7.0,"Action, Thriller",2023-06-02,Red Chillies Entertainment,"Shah Rukh Khan, Nayanthara, Vijay Sethupathi",Atlee Kumar,2200000000,8000000000,Jawan,Evening,Rainy,Yes,271
Kolkata,"INOX: South City, Kolkata",306.1619444,1426,6,1,22.50136,88.36196,"BookMyShow, MediaAnt",7.4,"Action, Crime, Drama",2021-12-17,Mythri Movie Makers,"Allu Arjun, Fahadh Faasil, Rashmika Mandanna",Sukumar,2500000000,3650000000,Pushpa,Morning,Cloudy,No,1340
Hyderabad,Nartaki Theatre: Alwal,70.0,854,1,0,17.49423,78.5133,"BookMyShow, MediaAnt",7.4,"Action, Crime, Drama",2021-12-17,Mythri Movie Makers,"Allu Arjun, Fahadh Faasil, Rashmika Mandanna",Sukumar,2500000000,3650000000,Pushpa,Morning,Hot,No,30
Hyderabad,Asian Radhika Multiplex: ECIL,130.0,894,3,1,17.47656,78.56309,BookMyShow,7.7,"Action, Adventure, Drama",2022-09-30,Hombale Films,"Rishab Shetty, Kishore Kumar G., Achyuth Kumar",Rishab Shetty,160000000,4000000000,Kantara,Afternoon,Stormy,No,260
Mumbai,Gold Cinema: Santacruz (W),205.3333333,420,1,0,19.08958,72.83912,BookMyShow,7.1,"Drama, Romance",2019-06-21,Cine1 Studios,"Shahid Kapoor, Kiara Advani, Soham Majumdar",Sandeep Reddy Vanga,600000000,3800000000,Kabir Singh,Night,Stormy,Yes,50
Bangalore,Vaishnavi A/C Theatre: Uttarahalli,120.0,800,1,0,12.90348,77.54415,"BookMyShow, MediaAnt",8.2,"Crime, Drama, Thriller",2022-11-18,Panorama Studios,"Ajay Devgn, Shriya Saran, Tabu",Abhishek Pathak,50000000,340000000,Drishyam 2,Night,Rainy,No,590
Hyderabad,Select Talkies: Bolaram,60.0,566,1,0,17.51147,78.51067,"BookMyShow, MediaAnt",7.0,"Action, Thriller",2023-06-02,Red Chillies Entertainment,"Shah Rukh Khan, Nayanthara, Vijay Sethupathi",Atlee Kumar,2200000000,8000000000,Jawan,Evening,Sunny,Yes,367
Hyderabad,Prasads: Hyderabad,150.0,2230,6,1,17.33215,78.47,"BookMyShow, MediaAnt",7.4,"Action, Crime, Drama",2021-12-17,Mythri Movie Makers,"Allu Arjun, Fahadh Faasil, Rashmika Mandanna",Sukumar,2500000000,3650000000,Pushpa,Evening,Sunny,No,1401
Bangalore,"INOX: Garuda Mall, Magrath Road",337.1212121,1103,5,1,12.97009,77.60943,"BookMyShow, MediaAnt",5.6,"Action, Adventure, Fantasy",2022-09-09,Dharma Productions,"Ranbir Kapoor, Alia Bhatt, Amitabh Bachchan",Ayan Mukerji,4100000000,4300000000,Brahmastra,Morning,Stormy,No,780
Chennai,Devicineplex,97.97240740555556,2462,1,0,13.0662224,80.2707235,Internet Research,7.8,"Action, Drama",2022-03-25,DVV Entertainment,"N.T. Rama Rao Jr., Ram Charan, Alia Bhatt",S.S. Rajamouli,5500000000,12000000000,RRR,Afternoon,Rainy,Yes,1466
Kolkata,Navina Cinema: Tollygunge,110.1333333,983,1,0,22.501,88.34881,"BookMyShow, Internet Research",5.6,"Action, Adventure, Fantasy",2022-09-09,Dharma Productions,"Ranbir Kapoor, Alia Bhatt, Amitabh Bachchan",Ayan Mukerji,4100000000,4300000000,Brahmastra,Morning,Humid,No,323
Bangalore,"Mohan Theatre, Magadi Main Road",183.50891304903843,956,1,0,12.9987083,77.5035393,MediaAnt,6.3,"Action, Adventure, Thriller",2023-01-25,Yash Raj Films,"Shah Rukh Khan, Deepika Padukone, John Abraham",Siddharth Anand,2500000000,10500000000,Pathaan,Evening,Stormy,Yes,233
Hyderabad,Srilatha and Sridevi Complex: Chanda Nagar,55.0,2009,2,1,17.49805,78.3171,"BookMyShow, Internet Research",7.4,"Action, Crime, Drama",2021-12-17,Mythri Movie Makers,"Allu Arjun, Fahadh Faasil, Rashmika Mandanna",Sukumar,2500000000,3650000000,Pushpa,Evening,Sunny,Yes,715
Bangalore,Goverdhan Theatre: Yeshwantpur,90.0,1064,1,0,13.02163,77.55132,"BookMyShow, MediaAnt",7.7,"Action, Adventure, Drama",2022-09-30,Hombale Films,"Rishab Shetty, Kishore Kumar G., Achyuth Kumar",Rishab Shetty,160000000,4000000000,Kantara,Afternoon,Cloudy,No,693
Hyderabad,Mukta A2 Cinemas: Abids,90.0,637,1,0,17.38586,78.47723,BookMyShow,7.4,"Action, Crime, Drama",2021-12-17,Mythri Movie Makers,"Allu Arjun, Fahadh Faasil, Rashmika Mandanna",Sukumar,2500000000,3650000000,Pushpa,Morning,Humid,No,491
Hyderabad,"Miraj Cinemas: Shalini Shivani, Hyderabad",158.8541667,1286,4,1,17.36764,78.5362,BookMyShow,8.4,"Action, Biography, Drama",2021-08-12,Dharma Productions,"Sidharth Malhotra, Kiara Advani, Shiv Panditt",Vishnuvardhan,550000000,1360000000,Shershaah,Morning,Cloudy,Yes,654
Bangalore,"Venkateshwara Cinemas: Gollarahatti,Magadi Rd",90.0,300,1,0,12.98848,77.47392,BookMyShow,6.3,"Action, Adventure, Thriller",2023-01-25,Yash Raj Films,"Shah Rukh Khan, Deepika Padukone, John Abraham",Siddharth Anand,2500000000,10500000000,Pathaan,Night,Sunny,No,269
Mumbai,Citylight Cinema: Mahim,181.25,252,1,0,19.03054,72.84139,BookMyShow,7.1,"Drama, Romance",2019-06-21,Cine1 Studios,"Shahid Kapoor, Kiara Advani, Soham Majumdar",Sandeep Reddy Vanga,600000000,3800000000,Kabir Singh,Afternoon,Rainy,No,113
Hyderabad,Asian Jyothi: RC Puram,90.0,520,1,0,17.50277,78.31221,BookMyShow,8.4,"Action, Biography, Drama",2021-08-12,Dharma Productions,"Sidharth Malhotra, Kiara Advani, Shiv Panditt",Vishnuvardhan,550000000,1360000000,Shershaah,Evening,Stormy,Yes,441
Bangalore,Manasa Digital 4K Dolby Atmos: Konanakunte,175.0,640,1,0,12.89064,77.5622,"BookMyShow, MediaAnt",8.3,"Biography, Drama, Sport",2016-12-23,Walt Disney Pictures India,"Aamir Khan, Sakshi Tanwar, Fatima Sana Shaikh",Nitesh Tiwari,70000000,2100000000,Dangal,Night,Stormy,Yes,480
Bangalore,"Shobha Talkies, Bhabuji Nagar",183.50891304903843,1000,1,0,12.9574781,77.543303,MediaAnt,8.2,"Crime, Drama, Thriller",2022-11-18,Panorama Studios,"Ajay Devgn, Shriya Saran, Tabu",Abhishek Pathak,50000000,340000000,Drishyam 2,Morning,Hot,No,812
Mumbai,"Kings Cinema, Kurla North",198.1442727463636,191,1,0,19.0774291,72.8789924,MediaAnt,5.6,"Action, Adventure, Fantasy",2022-09-09,Dharma Productions,"Ranbir Kapoor, Alia Bhatt, Amitabh Bachchan",Ayan Mukerji,4100000000,4300000000,Brahmastra,Morning,Cloudy,No,152
Delhi,Satyam Nehru Place-NCR,301.8207102540476,994,4,1,28.550044,77.251155,Internet Research,7.1,"Drama, Romance",2019-06-21,Cine1 Studios,"Shahid Kapoor, Kiara Advani, Soham Majumdar",Sandeep Reddy Vanga,600000000,3800000000,Kabir Singh,Morning,Hot,Yes,879
Ahmedabad,City Gold: Motera,111.5,728,2,1,23.09203,72.59319,BookMyShow,6.3,"Action, Adventure, Thriller",2023-01-25,Yash Raj Films,"Shah Rukh Khan, Deepika Padukone, John Abraham",Siddharth Anand,2500000000,10500000000,Pathaan,Evening,Hot,Yes,231
Chennai,Bharath Theatre Dolby AtmosDolby Atmos,97.97240740555556,963,1,0,13.1102599,80.2797875,Internet Research,5.6,"Action, Adventure, Fantasy",2022-09-09,Dharma Productions,"Ranbir Kapoor, Alia Bhatt, Amitabh Bachchan",Ayan Mukerji,4100000000,4300000000,Brahmastra,Afternoon,Sunny,No,651
Chennai,"Thirumurugan, Ambattur",97.97240740555556,510,1,0,13.1212603,80.1513583,MediaAnt,8.4,"Comedy, Drama",2009-12-25,Vinod Chopra Films,"Aamir Khan, R. Madhavan, Sharman Joshi",Rajkumar Hirani,35000000,470000000,3 Idiots,Night,Hot,No,127
Hyderabad,Konark: Dilsukhnagar,80.0,1026,1,0,17.3686,78.51865,"BookMyShow, MediaAnt",5.6,"Action, Adventure, Fantasy",2022-09-09,Dharma Productions,"Ranbir Kapoor, Alia Bhatt, Amitabh Bachchan",Ayan Mukerji,4100000000,4300000000,Brahmastra,Morning,Humid,No,740
Kolkata,INOX: Hiland Park,171.452381,934,4,1,22.48339,88.39075,BookMyShow,7.8,"Action, Drama",2022-03-25,DVV Entertainment,"N.T. Rama Rao Jr., Ram Charan, Alia Bhatt",S.S. Rajamouli,5500000000,12000000000,RRR,Morning,Hot,No,336
Hyderabad,Sree Ramana 70MM: Amberpet,100.0,1111,1,0,17.39247,78.51578,"BookMyShow, MediaAnt",8.3,"Biography, Drama, Sport",2016-12-23,Walt Disney Pictures India,"Aamir Khan, Sakshi Tanwar, Fatima Sana Shaikh",Nitesh Tiwari,70000000,2100000000,Dangal,Afternoon,Rainy,No,730
Hyderabad,Asian Lakshmikala Cinepride: Moosapet,88.81481481,2403,4,1,17.46753,78.42831,BookMyShow,8.0,"Action, Drama",2015-07-10,Arka Media Works,"Prabhas, Rana Daggubati, Anushka Shetty",S.S. Rajamouli,1800000000,6500000000,Baahubali,Afternoon,Stormy,No,2239
Hyderabad,Amba Theatre: Mehdipatnam,100.0,64,1,0,17.39167,78.44133,BookMyShow,8.4,"Comedy, Drama",2009-12-25,Vinod Chopra Films,"Aamir Khan, R. Madhavan, Sharman Joshi",Rajkumar Hirani,35000000,470000000,3 Idiots,Night,Cloudy,No,9
Chennai,Rohini Silver Screens: Chennai,104.03,3175,7,1,13.07575,80.19586,BookMyShow,6.3,"Action, Adventure, Thriller",2023-01-25,Yash Raj Films,"Shah Rukh Khan, Deepika Padukone, John Abraham",Siddharth Anand,2500000000,10500000000,Pathaan,Night,Humid,No,2204
Hyderabad,Amba Theatre: Mehdipatnam,100.0,64,1,0,17.39167,78.44133,BookMyShow,6.3,"Action, Adventure, Thriller",2023-01-25,Yash Raj Films,"Shah Rukh Khan, Deepika Padukone, John Abraham",Siddharth Anand,2500000000,10500000000,Pathaan,Morning,Stormy,No,11
Chennai,"Saravana Theatre, Brick Kiln Road",97.97240740555556,600,1,0,13.0928614,80.2515167,MediaAnt,7.3,"Action, Crime, Drama",2022-04-14,Hombale Films,"Yash, Sanjay Dutt, Raveena Tandon",Prashanth Neel,1000000000,12500000000,KGF 2,Morning,Hot,Yes,126
Bangalore,"PVR: Orion Gold, Rajajinagar",806.2962963,144,3,0,13.011,77.55509,BookMyShow,7.3,"Action, Thriller",2022-06-03,Raaj Kamal Films International,"Kamal Haasan, Vijay Sethupathi, Fahadh Faasil",Lokesh Kanagaraj,1500000000,4000000000,Vikram,Evening,Stormy,No,57
Mumbai,"Fun Cinemas: K Star Mall, Chembur",149.7530864,1253,5,1,19.05235,72.90172,"BookMyShow, MediaAnt",8.0,"Action, Drama",2015-07-10,Arka Media Works,"Prabhas, Rana Daggubati, Anushka Shetty",S.S. Rajamouli,1800000000,6500000000,Baahubali,Evening,Hot,No,1171
Kochi,Q Cinemas: Gold Souk Grande,159.5384615,1236,4,1,9.977553,76.31627,"BookMyShow, MediaAnt",7.1,"Drama, Romance",2019-06-21,Cine1 Studios,"Shahid Kapoor, Kiara Advani, Soham Majumdar",Sandeep Reddy Vanga,600000000,3800000000,Kabir Singh,Night,Stormy,No,407
Bangalore,"PVR: MSR Elements Mall, Bengaluru",288.0883838,1383,7,1,13.04516,77.62658,"BookMyShow, MediaAnt",7.3,"Action, Crime, Drama",2022-04-14,Hombale Films,"Yash, Sanjay Dutt, Raveena Tandon",Prashanth Neel,1000000000,12500000000,KGF 2,Night,Rainy,No,644
Mumbai,"PVR: Market City, Kurla (Gold)",530.0,137,2,1,19.08571,72.88842,BookMyShow,7.1,"Drama, Romance",2019-06-21,Cine1 Studios,"Shahid Kapoor, Kiara Advani, Soham Majumdar",Sandeep Reddy Vanga,600000000,3800000000,Kabir Singh,Night,Hot,Yes,15
Mumbai,"Fun Cinemas: K Star Mall, Chembur",149.7530864,1253,5,1,19.05235,72.90172,"BookMyShow, MediaAnt",8.3,"Biography, Drama, Sport",2016-12-23,Walt Disney Pictures India,"Aamir Khan, Sakshi Tanwar, Fatima Sana Shaikh",Nitesh Tiwari,70000000,2100000000,Dangal,Afternoon,Cloudy,Yes,270
Hyderabad,Asian Lakshmikala Cinepride: Moosapet,88.81481481,2403,4,1,17.46753,78.42831,BookMyShow,8.3,"Biography, Drama, Sport",2016-12-23,Walt Disney Pictures India,"Aamir Khan, Sakshi Tanwar, Fatima Sana Shaikh",Nitesh Tiwari,70000000,2100000000,Dangal,Evening,Rainy,Yes,1367
Bangalore,Pushpanjali A/C Theatre: B.N. Pura,125.0,999,1,0,12.99809,77.67521,"BookMyShow, MediaAnt",7.4,"Action, Crime, Drama",2021-12-17,Mythri Movie Makers,"Allu Arjun, Fahadh Faasil, Rashmika Mandanna",Sukumar,2500000000,3650000000,Pushpa,Night,Hot,Yes,174
Bangalore,"PVR: VR Gold, Bengaluru",697.025,1,4,1,12.99651,77.69526,BookMyShow,6.3,"Action, Adventure, Thriller",2023-01-25,Yash Raj Films,"Shah Rukh Khan, Deepika Padukone, John Abraham",Siddharth Anand,2500000000,10500000000,Pathaan,Afternoon,Cloudy,Yes,1
Mumbai,Premiere Cinema: Dadar (E),132.5,465,1,0,19.00752,72.84061,BookMyShow,7.0,"Action, Thriller",2023-06-02,Red Chillies Entertainment,"Shah Rukh Khan, Nayanthara, Vijay Sethupathi",Atlee Kumar,2200000000,8000000000,Jawan,Night,Stormy,No,450
Hyderabad,Lakshmi Kala Mandir: Alwal,70.0,277,1,0,17.49476,78.51121,BookMyShow,7.0,"Action, Thriller",2023-06-02,Red Chillies Entertainment,"Shah Rukh Khan, Nayanthara, Vijay Sethupathi",Atlee Kumar,2200000000,8000000000,Jawan,Afternoon,Humid,No,46
Mumbai,Maratha Mandir: Mumbai Central,60.0,1107,1,0,18.97133,72.82214,BookMyShow,8.4,"Action, Biography, Drama",2021-08-12,Dharma Productions,"Sidharth Malhotra, Kiara Advani, Shiv Panditt",Vishnuvardhan,550000000,1360000000,Shershaah,Night,Hot,Yes,108
Mumbai,"Mukta A2 Cinemas: Jai Hind, Lalbaugh",158.0555556,350,2,1,18.98584,72.83596,BookMyShow,6.5,"Action, Crime, Thriller",2021-11-05,Reliance Entertainment,"Akshay Kumar, Katrina Kaif, Ajay Devgn",Rohit Shetty,1650000000,2900000000,Sooryavanshi,Afternoon,Humid,Yes,296
Bangalore,HMT Digital 4K Cinema: Jalahalli,150.0,874,1,0,13.0495,77.5439,BookMyShow,7.3,"Action, Thriller",2022-06-03,Raaj Kamal Films International,"Kamal Haasan, Vijay Sethupathi, Fahadh Faasil",Lokesh Kanagaraj,1500000000,4000000000,Vikram,Afternoon,Cloudy,Yes,412
Bangalore,Anjan Digital 4K A/C Cinema: Magadi Road,125.0,990,1,0,12.97517,77.55891,"BookMyShow, MediaAnt",6.3,"Action, Adventure, Thriller",2023-01-25,Yash Raj Films,"Shah Rukh Khan, Deepika Padukone, John Abraham",Siddharth Anand,2500000000,10500000000,Pathaan,Evening,Stormy,No,423
Mumbai,"Kings Cinema, Kurla North",198.1442727463636,191,1,0,19.0774291,72.8789924,MediaAnt,8.3,"Biography, Drama, Sport",2016-12-23,Walt Disney Pictures India,"Aamir Khan, Sakshi Tanwar, Fatima Sana Shaikh",Nitesh Tiwari,70000000,2100000000,Dangal,Night,Hot,Yes,55
Hyderabad,Sree Ramana 70MM: Amberpet,100.0,1111,1,0,17.39247,78.51578,"BookMyShow, MediaAnt",8.3,"Biography, Drama, Sport",2016-12-23,Walt Disney Pictures India,"Aamir Khan, Sakshi Tanwar, Fatima Sana Shaikh",Nitesh Tiwari,70000000,2100000000,Dangal,Night,Hot,Yes,711
Bangalore,"Raja Murali Theatre, Kodigehalli Sahakar Nagar(post)",183.50891304903843,558,1,0,13.0605001,77.5768534,MediaAnt,8.3,"Biography, Drama, Sport",2016-12-23,Walt Disney Pictures India,"Aamir Khan, Sakshi Tanwar, Fatima Sana Shaikh",Nitesh Tiwari,70000000,2100000000,Dangal,Afternoon,Stormy,Yes,40
Kochi,EVM Kavitha Theatre 2K UFO: Ernakulam,110.0,1220,4,1,9.978573,76.28262,"BookMyShow, MediaAnt",8.4,"Action, Biography, Drama",2021-08-12,Dharma Productions,"Sidharth Malhotra, Kiara Advani, Shiv Panditt",Vishnuvardhan,550000000,1360000000,Shershaah,Evening,Cloudy,Yes,338
Hyderabad,Bhujanga 70MM: Jeedimetla,65.0,1311,1,0,17.5122,78.44861,"BookMyShow, MediaAnt",8.2,"Crime, Drama, Thriller",2022-11-18,Panorama Studios,"Ajay Devgn, Shriya Saran, Tabu",Abhishek Pathak,50000000,340000000,Drishyam 2,Morning,Hot,Yes,955
Hyderabad,"Cinepolis: CCPL Mall, Hyderabad",150.0,703,5,1,17.45718,78.53681,BookMyShow,7.0,"Action, Thriller",2023-06-02,Red Chillies Entertainment,"Shah Rukh Khan, Nayanthara, Vijay Sethupathi",Atlee Kumar,2200000000,8000000000,Jawan,Evening,Humid,Yes,585
Mumbai,"Nishat Talkies, Falkland Road",198.1442727463636,691,1,0,18.9620811,72.8237374,MediaAnt,6.3,"Action, Adventure, Thriller",2023-01-25,Yash Raj Films,"Shah Rukh Khan, Deepika Padukone, John Abraham",Siddharth Anand,2500000000,10500000000,Pathaan,Evening,Hot,No,498
Delhi,"PVR: Anupam, Delhi",170.6018519,1000,4,1,28.52374,77.20716,"BookMyShow, Internet Research",7.4,"Action, Crime, Drama",2021-12-17,Mythri Movie Makers,"Allu Arjun, Fahadh Faasil, Rashmika Mandanna",Sukumar,2500000000,3650000000,Pushpa,Night,Humid,Yes,611
Hyderabad,"Sri Lakshmi Deluxe, Main Road",95.06145388259615,629,1,0,17.494647,78.3977,MediaAnt,7.3,"Action, Crime, Drama",2022-04-14,Hombale Films,"Yash, Sanjay Dutt, Raveena Tandon",Prashanth Neel,1000000000,12500000000,KGF 2,Afternoon,Stormy,No,604
Bangalore,Vaibhavi A/C Theatre: Uttarahalli,105.0,715,1,0,12.90348,77.54415,"BookMyShow, MediaAnt",6.3,"Action, Adventure, Thriller",2023-01-25,Yash Raj Films,"Shah Rukh Khan, Deepika Padukone, John Abraham",Siddharth Anand,2500000000,10500000000,Pathaan,Night,Humid,Yes,255
Mumbai,Movietime: Dahisar (E),140.5555556,354,1,0,19.25194,72.86307,BookMyShow,6.5,"Action, Crime, Thriller",2021-11-05,Reliance Entertainment,"Akshay Kumar, Katrina Kaif, Ajay Devgn",Rohit Shetty,1650000000,2900000000,Sooryavanshi,Afternoon,Stormy,No,138
Delhi,PVR Promenade: Vasant Kunj,431.7234848,1139,7,1,28.54262,77.15575,"BookMyShow, Internet Research",8.4,"Action, Biography, Drama",2021-08-12,Dharma Productions,"Sidharth Malhotra, Kiara Advani, Shiv Panditt",Vishnuvardhan,550000000,1360000000,Shershaah,Night,Cloudy,Yes,16
Hyderabad,Amba Theatre: Mehdipatnam,100.0,64,1,0,17.39167,78.44133,BookMyShow,7.4,"Action, Crime, Drama",2021-12-17,Mythri Movie Makers,"Allu Arjun, Fahadh Faasil, Rashmika Mandanna",Sukumar,2500000000,3650000000,Pushpa,Afternoon,Sunny,No,31
Delhi,Q Cinemas: Shahdara,185.4166667,601,3,1,28.67512,77.28808,BookMyShow,5.6,"Action, Adventure, Fantasy",2022-09-09,Dharma Productions,"Ranbir Kapoor, Alia Bhatt, Amitabh Bachchan",Ayan Mukerji,4100000000,4300000000,Brahmastra,Afternoon,Rainy,Yes,376
Bangalore,Vijay Theatre: Byatarayanapura,118.0,912,1,0,12.94846,77.53969,"BookMyShow, MediaAnt",7.7,"Action, Adventure, Drama",2022-09-30,Hombale Films,"Rishab Shetty, Kishore Kumar G., Achyuth Kumar",Rishab Shetty,160000000,4000000000,Kantara,Evening,Stormy,Yes,372
Bangalore,"Sri Madeswara Chitra Mandira, Bangalore",183.50891304903843,1250,1,0,12.9156484,77.5633059,MediaAnt,8.4,"Comedy, Drama",2009-12-25,Vinod Chopra Films,"Aamir Khan, R. Madhavan, Sharman Joshi",Rajkumar Hirani,35000000,470000000,3 Idiots,Morning,Rainy,Yes,1139
Hyderabad,"PVR: Panjagutta, Hyderabad",150.0,1322,5,1,17.42675,78.45295,BookMyShow,8.3,"Biography, Drama, Sport",2016-12-23,Walt Disney Pictures India,"Aamir Khan, Sakshi Tanwar, Fatima Sana Shaikh",Nitesh Tiwari,70000000,2100000000,Dangal,Morning,Hot,Yes,180
Kochi,Padma Cinema Screen 1: Ernakulam,105.0,324,1,0,9.981755,76.2826,BookMyShow,8.4,"Comedy, Drama",2009-12-25,Vinod Chopra Films,"Aamir Khan, R. Madhavan, Sharman Joshi",Rajkumar Hirani,35000000,470000000,3 Idiots,Morning,Rainy,No,25
Bangalore,Sri Renuka Prasanna Theatre: J P Nagar,104.0,1078,1,0,12.91506,77.58783,"BookMyShow, Internet Research",6.5,"Action, Crime, Thriller",2021-11-05,Reliance Entertainment,"Akshay Kumar, Katrina Kaif, Ajay Devgn",Rohit Shetty,1650000000,2900000000,Sooryavanshi,Afternoon,Humid,Yes,871
Hyderabad,Asian CineSquare Multiplex: Uppal,125.0,1512,5,1,17.40215,78.57207,BookMyShow,7.3,"Action, Thriller",2022-06-03,Raaj Kamal Films International,"Kamal Haasan, Vijay Sethupathi, Fahadh Faasil",Lokesh Kanagaraj,1500000000,4000000000,Vikram,Night,Hot,No,4
Delhi,Suraj Cinema - Najafgarh-NCR,301.8207102540476,519,1,0,28.6111587,76.9764621,Internet Research,8.2,"Crime, Drama, Thriller",2022-11-18,Panorama Studios,"Ajay Devgn, Shriya Saran, Tabu",Abhishek Pathak,50000000,340000000,Drishyam 2,Afternoon,Sunny,No,332
Bangalore,Kamakya Cinema: Banashankari,100.0,706,1,0,12.92331,77.55334,"BookMyShow, MediaAnt",8.4,"Comedy, Drama",2009-12-25,Vinod Chopra Films,"Aamir Khan, R. Madhavan, Sharman Joshi",Rajkumar Hirani,35000000,470000000,3 Idiots,Morning,Hot,No,538
Hyderabad,Shama Cinema: Hyderabad,46.66666667,712,1,0,17.34158,78.46565,"BookMyShow, MediaAnt",7.0,"Action, Thriller",2023-06-02,Red Chillies Entertainment,"Shah Rukh Khan, Nayanthara, Vijay Sethupathi",Atlee Kumar,2200000000,8000000000,Jawan,Night,Stormy,Yes,488
Bangalore,Akash Cinemas (Rajeshwari Theatre): Laggere,125.0,780,1,0,13.01481,77.51611,"BookMyShow, MediaAnt",8.3,"Biography, Drama, Sport",2016-12-23,Walt Disney Pictures India,"Aamir Khan, Sakshi Tanwar, Fatima Sana Shaikh",Nitesh Tiwari,70000000,2100000000,Dangal,Afternoon,Stormy,No,88
Mumbai,Cinemax: Andheri (E),118.0,362,1,0,19.11633,72.85641,BookMyShow,8.0,"Action, Drama",2015-07-10,Arka Media Works,"Prabhas, Rana Daggubati, Anushka Shetty",S.S. Rajamouli,1800000000,6500000000,Baahubali,Evening,Cloudy,No,92
Kolkata,Hind INOX: Kolkata,178.2,710,2,1,22.56492,88.3591,"BookMyShow, Internet Research",6.3,"Action, Adventure, Thriller",2023-01-25,Yash Raj Films,"Shah Rukh Khan, Deepika Padukone, John Abraham",Siddharth Anand,2500000000,10500000000,Pathaan,Evening,Sunny,No,157
Bangalore,"Lavanya, Sivan Chetty Gardens",183.50891304903843,786,1,0,12.9848012,77.6148355,MediaAnt,7.7,"Action, Adventure, Drama",2022-09-30,Hombale Films,"Rishab Shetty, Kishore Kumar G., Achyuth Kumar",Rishab Shetty,160000000,4000000000,Kantara,Afternoon,Cloudy,No,243
Mumbai,"PVR: Sona Shopping Centre, Kandivali (W)",125.4166667,287,1,0,19.20243,72.8511,BookMyShow,7.0,"Action, Thriller",2023-06-02,Red Chillies Entertainment,"Shah Rukh Khan, Nayanthara, Vijay Sethupathi",Atlee Kumar,2200000000,8000000000,Jawan,Morning,Cloudy,Yes,278
Bangalore,"Ranganatha Theatre, Mysore Road",183.50891304903843,410,1,0,12.9632206,77.5663842,MediaAnt,6.5,"Action, Crime, Thriller",2021-11-05,Reliance Entertainment,"Akshay Kumar, Katrina Kaif, Ajay Devgn",Rohit Shetty,1650000000,2900000000,Sooryavanshi,Evening,Humid,Yes,6
Mumbai,Premiere Cinema: Dadar (E),132.5,465,1,0,19.00752,72.84061,BookMyShow,8.4,"Comedy, Drama",2009-12-25,Vinod Chopra Films,"Aamir Khan, R. Madhavan, Sharman Joshi",Rajkumar Hirani,35000000,470000000,3 Idiots,Afternoon,Cloudy,Yes,111
Mumbai,Miraj Anupam Cinemas: Goregaon (E),146.1666667,490,2,1,19.16545,72.85126,BookMyShow,8.4,"Action, Biography, Drama",2021-08-12,Dharma Productions,"Sidharth Malhotra, Kiara Advani, Shiv Panditt",Vishnuvardhan,550000000,1360000000,Shershaah,Night,Humid,Yes,489
Bangalore,"INOX: Mantri Square, Malleshwaram",399.0611111,1497,6,1,12.99216,77.5703,"BookMyShow, MediaAnt",7.0,"Action, Thriller",2023-06-02,Red Chillies Entertainment,"Shah Rukh Khan, Nayanthara, Vijay Sethupathi",Atlee Kumar,2200000000,8000000000,Jawan,Afternoon,Cloudy,No,1362
Mumbai,"Bharat Chitra Mandir, Kurla North",198.1442727463636,398,2,1,19.071989,72.884082,MediaAnt,7.7,"Action, Adventure, Drama",2022-09-30,Hombale Films,"Rishab Shetty, Kishore Kumar G., Achyuth Kumar",Rishab Shetty,160000000,4000000000,Kantara,Evening,Hot,Yes,124
Mumbai,"New Shirin Talkies, Agripada",198.1442727463636,801,1,0,18.9811379,72.8260349,MediaAnt,7.8,"Action, Drama",2022-03-25,DVV Entertainment,"N.T. Rama Rao Jr., Ram Charan, Alia Bhatt",S.S. Rajamouli,5500000000,12000000000,RRR,Morning,Rainy,Yes,583
Mumbai,PVR ICON: Versova,290.9197531,844,4,1,19.14147,72.83059,BookMyShow,7.1,"Drama, Romance",2019-06-21,Cine1 Studios,"Shahid Kapoor, Kiara Advani, Soham Majumdar",Sandeep Reddy Vanga,600000000,3800000000,Kabir Singh,Evening,Stormy,Yes,750
Chennai,Woodlands Complex: Chennai,69.5,1713,2,1,13.05656,80.26497,"BookMyShow, MediaAnt",6.5,"Action, Crime, Thriller",2021-11-05,Reliance Entertainment,"Akshay Kumar, Katrina Kaif, Ajay Devgn",Rohit Shetty,1650000000,2900000000,Sooryavanshi,Afternoon,Hot,Yes,1420
Bangalore,Triveni Theatre: Gandhinagar,109.0,800,1,0,12.97628,77.57538,"BookMyShow, MediaAnt",8.3,"Biography, Drama, Sport",2016-12-23,Walt Disney Pictures India,"Aamir Khan, Sakshi Tanwar, Fatima Sana Shaikh",Nitesh Tiwari,70000000,2100000000,Dangal,Night,Stormy,Yes,679
Kolkata,Menoka Cinema: Kolkata,130.0,790,1,0,22.51115,88.35068,"BookMyShow, Internet Research",7.3,"Action, Thriller",2022-06-03,Raaj Kamal Films International,"Kamal Haasan, Vijay Sethupathi, Fahadh Faasil",Lokesh Kanagaraj,1500000000,4000000000,Vikram,Evening,Stormy,Yes,284
Bangalore,"PVR: Market City (4DX), Bengaluru",450.0,100,1,0,12.99725,77.69573,BookMyShow,8.2,"Crime, Drama, Thriller",2022-11-18,Panorama Studios,"Ajay Devgn, Shriya Saran, Tabu",Abhishek Pathak,50000000,340000000,Drishyam 2,Morning,Rainy,Yes,60
Ahmedabad,"Cinepolis: Alpha One Mall, Ahmedabad",197.9494949,1136,6,1,23.03952,72.53199,"BookMyShow, MediaAnt",7.4,"Action, Crime, Drama",2021-12-17,Mythri Movie Makers,"Allu Arjun, Fahadh Faasil, Rashmika Mandanna",Sukumar,2500000000,3650000000,Pushpa,Night,Cloudy,No,207
Mumbai,"Kings Cinema, Kurla North",198.1442727463636,191,1,0,19.0774291,72.8789924,MediaAnt,7.0,"Action, Thriller",2023-06-02,Red Chillies Entertainment,"Shah Rukh Khan, Nayanthara, Vijay Sethupathi",Atlee Kumar,2200000000,8000000000,Jawan,Afternoon,Stormy,No,172
Kochi,Sridar Cinemas: Ernakulam,114.0,530,1,0,9.979525,76.27683,"BookMyShow, Internet Research",7.3,"Action, Thriller",2022-06-03,Raaj Kamal Films International,"Kamal Haasan, Vijay Sethupathi, Fahadh Faasil",Lokesh Kanagaraj,1500000000,4000000000,Vikram,Afternoon,Hot,No,490
Ahmedabad,City Gold: Ashram Road,159.9814815,1313,5,1,23.0319,72.56999,"BookMyShow, MediaAnt",7.8,"Action, Drama",2022-03-25,DVV Entertainment,"N.T. Rama Rao Jr., Ram Charan, Alia Bhatt",S.S. Rajamouli,5500000000,12000000000,RRR,Night,Sunny,No,696
Delhi,Satyam Nehru Place-NCR,301.8207102540476,994,4,1,28.550044,77.251155,Internet Research,7.3,"Action, Crime, Drama",2022-04-14,Hombale Films,"Yash, Sanjay Dutt, Raveena Tandon",Prashanth Neel,1000000000,12500000000,KGF 2,Evening,Stormy,No,657
Bangalore,"INOX: Garuda Swagath Mall, Jayanagar",285.5555556,793,3,1,12.92906,77.59123,"BookMyShow, MediaAnt",6.3,"Action, Adventure, Thriller",2023-01-25,Yash Raj Films,"Shah Rukh Khan, Deepika Padukone, John Abraham",Siddharth Anand,2500000000,10500000000,Pathaan,Night,Humid,Yes,711
Hyderabad,Padmavati Cinema: Kachiguda,60.0,490,1,0,17.39063,78.4916,"BookMyShow, MediaAnt",8.4,"Comedy, Drama",2009-12-25,Vinod Chopra Films,"Aamir Khan, R. Madhavan, Sharman Joshi",Rajkumar Hirani,35000000,470000000,3 Idiots,Morning,Rainy,No,121
Ahmedabad,"Sapna Cinema, Juhapura",149.09491512148148,1401,1,0,22.9855719,72.500771,MediaAnt,7.3,"Action, Crime, Drama",2022-04-14,Hombale Films,"Yash, Sanjay Dutt, Raveena Tandon",Prashanth Neel,1000000000,12500000000,KGF 2,Evening,Rainy,Yes,45
Hyderabad,Raghavendra 70mm: Malkajgiri,70.0,691,1,0,17.4513,78.53616,"BookMyShow, MediaAnt",5.6,"Action, Adventure, Fantasy",2022-09-09,Dharma Productions,"Ranbir Kapoor, Alia Bhatt, Amitabh Bachchan",Ayan Mukerji,4100000000,4300000000,Brahmastra,Night,Rainy,No,512
Delhi,"Ritz Cinema: Kashmere Gate, Delhi",113.3333333,576,1,0,28.66669,77.22984,"BookMyShow, MediaAnt",7.3,"Action, Thriller",2022-06-03,Raaj Kamal Films International,"Kamal Haasan, Vijay Sethupathi, Fahadh Faasil",Lokesh Kanagaraj,1500000000,4000000000,Vikram,Night,Hot,No,307
Bangalore,"Sujatha Talkies, Deepanjalinagar",183.50891304903843,450,1,0,12.9618776,77.5473551,MediaAnt,7.1,"Drama, Romance",2019-06-21,Cine1 Studios,"Shahid Kapoor, Kiara Advani, Soham Majumdar",Sandeep Reddy Vanga,600000000,3800000000,Kabir Singh,Night,Stormy,No,98
Hyderabad,"Brahmarambha 70 Mm, Hyder nagar",95.06145388259615,861,1,0,17.5000891,78.386969,MediaAnt,8.2,"Crime, Drama, Thriller",2022-11-18,Panorama Studios,"Ajay Devgn, Shriya Saran, Tabu",Abhishek Pathak,50000000,340000000,Drishyam 2,Morning,Sunny,No,315
Kolkata,"Malancha Cinema, Netaji Nagar",187.80483726826088,840,1,0,22.4870162,88.3506847,MediaAnt,8.2,"Crime, Drama, Thriller",2022-11-18,Panorama Studios,"Ajay Devgn, Shriya Saran, Tabu",Abhishek Pathak,50000000,340000000,Drishyam 2,Night,Rainy,No,306
Chennai,"Mayura, Arakonam Road",97.97240740555556,474,1,0,13.0997993,80.1698389,MediaAnt,6.3,"Action, Adventure, Thriller",2023-01-25,Yash Raj Films,"Shah Rukh Khan, Deepika Padukone, John Abraham",Siddharth Anand,2500000000,10500000000,Pathaan,Evening,Sunny,Yes,104
Delhi,Amba Cinema: Delhi,128.0,486,1,0,28.67724,77.20104,BookMyShow,6.5,"Action, Crime, Thriller",2021-11-05,Reliance Entertainment,"Akshay Kumar, Katrina Kaif, Ajay Devgn",Rohit Shetty,1650000000,2900000000,Sooryavanshi,Evening,Sunny,No,187
Kolkata,"Ellora Cinema, Behala Municipal Market",187.80483726826088,2080,2,1,22.5000008,88.31873,MediaAnt,7.1,"Drama, Romance",2019-06-21,Cine1 Studios,"Shahid Kapoor, Kiara Advani, Soham Majumdar",Sandeep Reddy Vanga,600000000,3800000000,Kabir Singh,Evening,Stormy,Yes,679
Chennai,"Sathyam Royapettah, Lloyds Estate",97.97240740555556,2283,6,1,13.0553683,80.2579668,MediaAnt,7.1,"Drama, Romance",2019-06-21,Cine1 Studios,"Shahid Kapoor, Kiara Advani, Soham Majumdar",Sandeep Reddy Vanga,600000000,3800000000,Kabir Singh,Morning,Cloudy,Yes,851
Bangalore,"PVR: Forum, Bengaluru",286.9333333,1590,10,1,12.93463,77.6113,"BookMyShow, MediaAnt",6.3,"Action, Adventure, Thriller",2023-01-25,Yash Raj Films,"Shah Rukh Khan, Deepika Padukone, John Abraham",Siddharth Anand,2500000000,10500000000,Pathaan,Morning,Rainy,No,112
Bangalore,"PVR: Arena Mahadevapura, Bengaluru",233.5353535,1084,6,1,12.97991,77.69319,"BookMyShow, MediaAnt",7.3,"Action, Crime, Drama",2022-04-14,Hombale Films,"Yash, Sanjay Dutt, Raveena Tandon",Prashanth Neel,1000000000,12500000000,KGF 2,Evening,Hot,Yes,1029
Mumbai,"Imperial Cinema Pvt Ltd., Ambewadi",198.1442727463636,816,1,0,18.9585704,72.8174214,MediaAnt,7.7,"Action, Adventure, Drama",2022-09-30,Hombale Films,"Rishab Shetty, Kishore Kumar G., Achyuth Kumar",Rishab Shetty,160000000,4000000000,Kantara,Evening,Stormy,Yes,357
Mumbai,"Carnival: Dreams Mall, Bhandup",138.2121212,1334,6,1,19.14617,72.93694,"BookMyShow, MediaAnt",8.2,"Crime, Drama, Thriller",2022-11-18,Panorama Studios,"Ajay Devgn, Shriya Saran, Tabu",Abhishek Pathak,50000000,340000000,Drishyam 2,Evening,Humid,No,375
Hyderabad,Select Talkies: Bolaram,60.0,566,1,0,17.51147,78.51067,"BookMyShow, MediaAnt",7.3,"Action, Crime, Drama",2022-04-14,Hombale Films,"Yash, Sanjay Dutt, Raveena Tandon",Prashanth Neel,1000000000,12500000000,KGF 2,Afternoon,Sunny,Yes,284
Hyderabad,Asian Shiva: Dilsukhnagar,85.0,554,1,0,17.36117,78.5231,BookMyShow,8.4,"Comedy, Drama",2009-12-25,Vinod Chopra Films,"Aamir Khan, R. Madhavan, Sharman Joshi",Rajkumar Hirani,35000000,470000000,3 Idiots,Night,Cloudy,No,255
Bangalore,"PVR: Forum, Bengaluru",286.9333333,1590,10,1,12.93463,77.6113,"BookMyShow, MediaAnt",6.5,"Action, Crime, Thriller",2021-11-05,Reliance Entertainment,"Akshay Kumar, Katrina Kaif, Ajay Devgn",Rohit Shetty,1650000000,2900000000,Sooryavanshi,Evening,Rainy,Yes,218
Ahmedabad,City Gold: Bopal,152.3571429,462,4,1,23.02869,72.47856,BookMyShow,7.3,"Action, Thriller",2022-06-03,Raaj Kamal Films International,"Kamal Haasan, Vijay Sethupathi, Fahadh Faasil",Lokesh Kanagaraj,1500000000,4000000000,Vikram,Afternoon,Stormy,Yes,357
Hyderabad,Kumar Theatre: Kachiguda,90.0,74,1,0,17.38886,78.49632,BookMyShow,8.0,"Action, Drama",2015-07-10,Arka Media Works,"Prabhas, Rana Daggubati, Anushka Shetty",S.S. Rajamouli,1800000000,6500000000,Baahubali,Evening,Hot,Yes,68
Bangalore,Abhinay Theatre: Gandhi Nagar,130.0,1019,1,0,12.97354,77.57755,"BookMyShow, MediaAnt",8.2,"Crime, Drama, Thriller",2022-11-18,Panorama Studios,"Ajay Devgn, Shriya Saran, Tabu",Abhishek Pathak,50000000,340000000,Drishyam 2,Morning,Stormy,Yes,833
Hyderabad,Asian Swapna 35mm: Katedan,90.0,272,1,0,17.31143,78.43869,"BookMyShow, MediaAnt",8.2,"Crime, Drama, Thriller",2022-11-18,Panorama Studios,"Ajay Devgn, Shriya Saran, Tabu",Abhishek Pathak,50000000,340000000,Drishyam 2,Night,Hot,Yes,240
Ahmedabad,"Hanjar Cinema, Gandhi Ashram",149.09491512148148,995,1,0,23.0263983,72.6040875,MediaAnt,7.0,"Action, Thriller",2023-06-02,Red Chillies Entertainment,"Shah Rukh Khan, Nayanthara, Vijay Sethupathi",Atlee Kumar,2200000000,8000000000,Jawan,Night,Stormy,Yes,989
Mumbai,"Shri Krishna Cinema, Bhandup Ind. Estate",198.1442727463636,766,1,0,19.151394,72.936919,MediaAnt,7.3,"Action, Thriller",2022-06-03,Raaj Kamal Films International,"Kamal Haasan, Vijay Sethupathi, Fahadh Faasil",Lokesh Kanagaraj,1500000000,4000000000,Vikram,Night,Hot,Yes,409
Chennai,MM Theatre,97.97240740555556,772,1,0,13.1260232,80.2896379,Internet Research,6.3,"Action, Adventure, Thriller",2023-01-25,Yash Raj Films,"Shah Rukh Khan, Deepika Padukone, John Abraham",Siddharth Anand,2500000000,10500000000,Pathaan,Night,Rainy,No,296
Mumbai,"Fun Cinemas: K Star Mall, Chembur",149.7530864,1253,5,1,19.05235,72.90172,"BookMyShow, MediaAnt",7.4,"Action, Crime, Drama",2021-12-17,Mythri Movie Makers,"Allu Arjun, Fahadh Faasil, Rashmika Mandanna",Sukumar,2500000000,3650000000,Pushpa,Morning,Hot,Yes,957
Chennai,Murugan Cinemas - AmbatturDolby Atmos,97.97240740555556,960,1,0,13.1135444,80.1572574,Internet Research,7.0,"Action, Thriller",2023-06-02,Red Chillies Entertainment,"Shah Rukh Khan, Nayanthara, Vijay Sethupathi",Atlee Kumar,2200000000,8000000000,Jawan,Night,Cloudy,Yes,365
Bangalore,Pradeep Theatre: K.R.Market,183.50891304903843,305,1,0,12.963106,77.577049,Internet Research,6.5,"Action, Crime, Thriller",2021-11-05,Reliance Entertainment,"Akshay Kumar, Katrina Kaif, Ajay Devgn",Rohit Shetty,1650000000,2900000000,Sooryavanshi,Morning,Hot,Yes,184
Delhi,Suraj Cinema - Najafgarh-NCR,301.8207102540476,519,1,0,28.6111587,76.9764621,Internet Research,6.3,"Action, Adventure, Thriller",2023-01-25,Yash Raj Films,"Shah Rukh Khan, Deepika Padukone, John Abraham",Siddharth Anand,2500000000,10500000000,Pathaan,Night,Rainy,Yes,145
Chennai,Jothi Theatre 4K A/c DTS: ST Thomas Mount,0.0,805,1,0,13.00611,80.20134,"BookMyShow, Internet Research",6.3,"Action, Adventure, Thriller",2023-01-25,Yash Raj Films,"Shah Rukh Khan, Deepika Padukone, John Abraham",Siddharth Anand,2500000000,10500000000,Pathaan,Evening,Stormy,No,564
Bangalore,"PVR: Forum Gold, Bengaluru",825.0,32,1,0,12.93463,77.6113,BookMyShow,7.8,"Action, Drama",2022-03-25,DVV Entertainment,"N.T. Rama Rao Jr., Ram Charan, Alia Bhatt",S.S. Rajamouli,5500000000,12000000000,RRR,Evening,Humid,Yes,14
Mumbai,Maratha Mandir: Mumbai Central,60.0,1107,1,0,18.97133,72.82214,BookMyShow,8.3,"Biography, Drama, Sport",2016-12-23,Walt Disney Pictures India,"Aamir Khan, Sakshi Tanwar, Fatima Sana Shaikh",Nitesh Tiwari,70000000,2100000000,Dangal,Morning,Sunny,No,18
Bangalore,Galaxy Paradise Screen 1: Bommanahalli Hosur Rd,160.0,100,1,0,12.89108,77.62648,"BookMyShow, Internet Research",7.7,"Action, Adventure, Drama",2022-09-30,Hombale Films,"Rishab Shetty, Kishore Kumar G., Achyuth Kumar",Rishab Shetty,160000000,4000000000,Kantara,Evening,Cloudy,Yes,24
Mumbai,24 Karat: Jogeshwari,219.5555556,1527,4,1,19.14108,72.84372,BookMyShow,7.0,"Action, Thriller",2023-06-02,Red Chillies Entertainment,"Shah Rukh Khan, Nayanthara, Vijay Sethupathi",Atlee Kumar,2200000000,8000000000,Jawan,Night,Rainy,Yes,1363
Mumbai,Premiere Cinema: Dadar (E),132.5,465,1,0,19.00752,72.84061,BookMyShow,7.3,"Action, Thriller",2022-06-03,Raaj Kamal Films International,"Kamal Haasan, Vijay Sethupathi, Fahadh Faasil",Lokesh Kanagaraj,1500000000,4000000000,Vikram,Afternoon,Stormy,Yes,176
Hyderabad,"Mallikarjuna 70 Mm, Hyder nagar",95.06145388259615,861,1,0,17.5000892,78.38697,MediaAnt,7.7,"Action, Adventure, Drama",2022-09-30,Hombale Films,"Rishab Shetty, Kishore Kumar G., Achyuth Kumar",Rishab Shetty,160000000,4000000000,Kantara,Morning,Hot,Yes,91
Hyderabad,"PVR Forum Sujana Mall: Kukatpally, Hyderabad",200.0,2140,9,1,17.48452,78.38904,BookMyShow,7.3,"Action, Crime, Drama",2022-04-14,Hombale Films,"Yash, Sanjay Dutt, Raveena Tandon",Prashanth Neel,1000000000,12500000000,KGF 2,Night,Sunny,Yes,297
Mumbai,"Metro INOX Cinemas, Marine Lines",198.1442727463636,1342,5,1,18.9430131,72.8288781,Internet Research,7.4,"Action, Crime, Drama",2021-12-17,Mythri Movie Makers,"Allu Arjun, Fahadh Faasil, Rashmika Mandanna",Sukumar,2500000000,3650000000,Pushpa,Evening,Cloudy,No,565
Mumbai,"Cinemax: R Odeon Mall, Ghatkopar (E)",158.3928571,1250,4,1,19.0796,72.90937,"BookMyShow, Internet Research",6.3,"Action, Adventure, Thriller",2023-01-25,Yash Raj Films,"Shah Rukh Khan, Deepika Padukone, John Abraham",Siddharth Anand,2500000000,10500000000,Pathaan,Morning,Humid,No,1059
Mumbai,"Carnival: IMAX, Wadala",196.5968254,1634,5,1,19.03122,72.881,"BookMyShow, MediaAnt",7.1,"Drama, Romance",2019-06-21,Cine1 Studios,"Shahid Kapoor, Kiara Advani, Soham Majumdar",Sandeep Reddy Vanga,600000000,3800000000,Kabir Singh,Afternoon,Humid,No,1223
Hyderabad,Sushma Cinema: Vanasthalipuram,100.0,1022,1,0,17.3358,78.57353,"BookMyShow, MediaAnt",8.0,"Action, Drama",2015-07-10,Arka Media Works,"Prabhas, Rana Daggubati, Anushka Shetty",S.S. Rajamouli,1800000000,6500000000,Baahubali,Morning,Stormy,Yes,53
Delhi,"Milan Cineplex, Karampura",301.8207102540476,1000,1,0,28.6626009,77.1462858,MediaAnt,7.7,"Action, Adventure, Drama",2022-09-30,Hombale Films,"Rishab Shetty, Kishore Kumar G., Achyuth Kumar",Rishab Shetty,160000000,4000000000,Kantara,Afternoon,Cloudy,No,868
Bangalore,Cinepolis: Binnypet Mall,220.537415,1580,8,1,12.96579,77.56202,"BookMyShow, MediaAnt",8.2,"Crime, Drama, Thriller",2022-11-18,Panorama Studios,"Ajay Devgn, Shriya Saran, Tabu",Abhishek Pathak,50000000,340000000,Drishyam 2,Evening,Stormy,No,1133
Mumbai,"Super Cinema, Bharat Nagar",198.1442727463636,822,1,0,18.9620626,72.8209921,MediaAnt,7.8,"Action, Drama",2022-03-25,DVV Entertainment,"N.T. Rama Rao Jr., Ram Charan, Alia Bhatt",S.S. Rajamouli,5500000000,12000000000,RRR,Morning,Cloudy,Yes,207
Mumbai,Gold Cinema: Dadar (E),155.0,245,1,0,19.00916,72.84208,BookMyShow,6.5,"Action, Crime, Thriller",2021-11-05,Reliance Entertainment,"Akshay Kumar, Katrina Kaif, Ajay Devgn",Rohit Shetty,1650000000,2900000000,Sooryavanshi,Night,Humid,No,42
Kolkata,"Bhabani Cinema, Indrani Park",187.80483726826088,665,1,0,22.5055091,88.3451152,MediaAnt,7.1,"Drama, Romance",2019-06-21,Cine1 Studios,"Shahid Kapoor, Kiara Advani, Soham Majumdar",Sandeep Reddy Vanga,600000000,3800000000,Kabir Singh,Night,Stormy,Yes,115
Mumbai,"PVR: Citi Mall, Andheri (W)",265.4938272,864,4,1,19.13854,72.83122,"BookMyShow, MediaAnt",7.4,"Action, Crime, Drama",2021-12-17,Mythri Movie Makers,"Allu Arjun, Fahadh Faasil, Rashmika Mandanna",Sukumar,2500000000,3650000000,Pushpa,Morning,Humid,Yes,726
Bangalore,Sri Krishna Theatre: KR Puram,100.0,979,1,0,13.00889,77.69893,"BookMyShow, MediaAnt",8.4,"Action, Biography, Drama",2021-08-12,Dharma Productions,"Sidharth Malhotra, Kiara Advani, Shiv Panditt",Vishnuvardhan,550000000,1360000000,Shershaah,Evening,Sunny,Yes,443
Bangalore,Sri Srinivasa Theatre: Padmanabanagara,110.0,725,1,0,12.90898,77.55804,"BookMyShow, Internet Research",7.3,"Action, Thriller",2022-06-03,Raaj Kamal Films International,"Kamal Haasan, Vijay Sethupathi, Fahadh Faasil",Lokesh Kanagaraj,1500000000,4000000000,Vikram,Afternoon,Hot,Yes,626
Delhi,M2K: Rohini,221.3333333,588,2,1,28.70094,77.1166,"BookMyShow, MediaAnt",8.4,"Comedy, Drama",2009-12-25,Vinod Chopra Films,"Aamir Khan, R. Madhavan, Sharman Joshi",Rajkumar Hirani,35000000,470000000,3 Idiots,Afternoon,Stormy,Yes,403
Bangalore,"7D Mastiii: Forum Value Mall, Whitefield",150.0,16,1,0,12.95972,77.74778,BookMyShow,6.5,"Action, Crime, Thriller",2021-11-05,Reliance Entertainment,"Akshay Kumar, Katrina Kaif, Ajay Devgn",Rohit Shetty,1650000000,2900000000,Sooryavanshi,Morning,Cloudy,No,4
Bangalore,Poornima Theatre: J.C. Road,115.0,934,1,0,12.96096,77.58742,"BookMyShow, MediaAnt",5.6,"Action, Adventure, Fantasy",2022-09-09,Dharma Productions,"Ranbir Kapoor, Alia Bhatt, Amitabh Bachchan",Ayan Mukerji,4100000000,4300000000,Brahmastra,Evening,Hot,Yes,871
Bangalore,Navrang Theatre: Rajaji Nagar,90.0,990,1,0,12.99784,77.5528,"BookMyShow, MediaAnt",7.7,"Action, Adventure, Drama",2022-09-30,Hombale Films,"Rishab Shetty, Kishore Kumar G., Achyuth Kumar",Rishab Shetty,160000000,4000000000,Kantara,Afternoon,Hot,No,464
Bangalore,"PVR: Market City, Bengaluru",306.2100122,1106,9,1,12.99725,77.69573,BookMyShow,8.0,"Action, Drama",2015-07-10,Arka Media Works,"Prabhas, Rana Daggubati, Anushka Shetty",S.S. Rajamouli,1800000000,6500000000,Baahubali,Night,Sunny,No,448
Mumbai,"Sheetal Cinema, Kurla North",198.1442727463636,993,1,0,19.0825802,72.8822279,MediaAnt,8.4,"Action, Biography, Drama",2021-08-12,Dharma Productions,"Sidharth Malhotra, Kiara Advani, Shiv Panditt",Vishnuvardhan,550000000,1360000000,Shershaah,Morning,Sunny,Yes,410
Bangalore,"PVR: Market City (4DX), Bengaluru",450.0,100,1,0,12.99725,77.69573,BookMyShow,7.4,"Action, Crime, Drama",2021-12-17,Mythri Movie Makers,"Allu Arjun, Fahadh Faasil, Rashmika Mandanna",Sukumar,2500000000,3650000000,Pushpa,Afternoon,Humid,Yes,36
Hyderabad,Lakshmi Kala Mandir: Alwal,70.0,277,1,0,17.49476,78.51121,BookMyShow,6.5,"Action, Crime, Thriller",2021-11-05,Reliance Entertainment,"Akshay Kumar, Katrina Kaif, Ajay Devgn",Rohit Shetty,1650000000,2900000000,Sooryavanshi,Afternoon,Humid,No,0
Bangalore,7D VR Voyage: Garuda Mall,190.0,8,1,0,12.97004,77.60999,BookMyShow,7.3,"Action, Thriller",2022-06-03,Raaj Kamal Films International,"Kamal Haasan, Vijay Sethupathi, Fahadh Faasil",Lokesh Kanagaraj,1500000000,4000000000,Vikram,Night,Rainy,No,2
Mumbai,Cinemax: Andheri (E),118.0,362,1,0,19.11633,72.85641,BookMyShow,7.4,"Action, Crime, Drama",2021-12-17,Mythri Movie Makers,"Allu Arjun, Fahadh Faasil, Rashmika Mandanna",Sukumar,2500000000,3650000000,Pushpa,Afternoon,Humid,Yes,97
Ahmedabad,City Gold Satellite: Ahmedabad,156.1458333,371,4,1,23.01568,72.52992,BookMyShow,8.4,"Comedy, Drama",2009-12-25,Vinod Chopra Films,"Aamir Khan, R. Madhavan, Sharman Joshi",Rajkumar Hirani,35000000,470000000,3 Idiots,Afternoon,Rainy,No,350
Delhi,"PVR: Sangam, Delhi",312.2321429,392,2,1,28.57239,77.1735,BookMyShow,7.1,"Drama, Romance",2019-06-21,Cine1 Studios,"Shahid Kapoor, Kiara Advani, Soham Majumdar",Sandeep Reddy Vanga,600000000,3800000000,Kabir Singh,Afternoon,Cloudy,Yes,304
Hyderabad,Asian CineSquare Multiplex: Uppal,125.0,1512,5,1,17.40215,78.57207,BookMyShow,8.4,"Action, Biography, Drama",2021-08-12,Dharma Productions,"Sidharth Malhotra, Kiara Advani, Shiv Panditt",Vishnuvardhan,550000000,1360000000,Shershaah,Night,Hot,No,704
Hyderabad,Sri Mayuri Theatre: RTC X Roads,86.66666667,941,1,0,17.40747,78.49604,"BookMyShow, MediaAnt",7.4,"Action, Crime, Drama",2021-12-17,Mythri Movie Makers,"Allu Arjun, Fahadh Faasil, Rashmika Mandanna",Sukumar,2500000000,3650000000,Pushpa,Afternoon,Rainy,No,710
Kolkata,"Talkie Show House, Sibdas Bhaduri St",187.80483726826088,994,1,0,22.5985914,88.373945,MediaAnt,8.4,"Comedy, Drama",2009-12-25,Vinod Chopra Films,"Aamir Khan, R. Madhavan, Sharman Joshi",Rajkumar Hirani,35000000,470000000,3 Idiots,Afternoon,Sunny,No,497
Hyderabad,Asian Lakshmikala Cinepride: Moosapet,88.81481481,2403,4,1,17.46753,78.42831,BookMyShow,7.4,"Action, Crime, Drama",2021-12-17,Mythri Movie Makers,"Allu Arjun, Fahadh Faasil, Rashmika Mandanna",Sukumar,2500000000,3650000000,Pushpa,Morning,Cloudy,No,1262
Hyderabad,Sudarshan 35mm 4k & Dolby Atmos: RTC X Roads,118.0,1216,1,0,17.40646,78.49503,"BookMyShow, MediaAnt",7.8,"Action, Drama",2022-03-25,DVV Entertainment,"N.T. Rama Rao Jr., Ram Charan, Alia Bhatt",S.S. Rajamouli,5500000000,12000000000,RRR,Night,Rainy,No,342
Bangalore,Parimala Digital 2K Cinema: K.R.Market,183.50891304903843,1112,1,0,12.963107,77.57705,Internet Research,8.4,"Comedy, Drama",2009-12-25,Vinod Chopra Films,"Aamir Khan, R. Madhavan, Sharman Joshi",Rajkumar Hirani,35000000,470000000,3 Idiots,Afternoon,Rainy,No,246
Delhi,Satyam Patel Nagar-NCR,301.8207102540476,1207,4,1,28.6504,77.1576999,Internet Research,7.3,"Action, Thriller",2022-06-03,Raaj Kamal Films International,"Kamal Haasan, Vijay Sethupathi, Fahadh Faasil",Lokesh Kanagaraj,1500000000,4000000000,Vikram,Night,Sunny,Yes,455
Ahmedabad,"Time Cinema: CG Road, Ahmedabad",176.4583333,372,4,1,23.02435,72.55651,BookMyShow,5.6,"Action, Adventure, Fantasy",2022-09-09,Dharma Productions,"Ranbir Kapoor, Alia Bhatt, Amitabh Bachchan",Ayan Mukerji,4100000000,4300000000,Brahmastra,Morning,Stormy,Yes,370
Hyderabad,"Mallikarjuna 70 Mm, Hyder nagar",95.06145388259615,861,1,0,17.5000892,78.38697,MediaAnt,8.4,"Comedy, Drama",2009-12-25,Vinod Chopra Films,"Aamir Khan, R. Madhavan, Sharman Joshi",Rajkumar Hirani,35000000,470000000,3 Idiots,Evening,Rainy,No,505
Ahmedabad,"Galaxy, Station Road",149.09491512148148,909,1,0,23.0748037,72.6554437,MediaAnt,8.4,"Comedy, Drama",2009-12-25,Vinod Chopra Films,"Aamir Khan, R. Madhavan, Sharman Joshi",Rajkumar Hirani,35000000,470000000,3 Idiots,Night,Rainy,Yes,643
Kochi,"Ajantha Theatre, Mattancherry Jetty",119.55509767142858,620,1,0,9.9538634,76.2475442,MediaAnt,7.3,"Action, Thriller",2022-06-03,Raaj Kamal Films International,"Kamal Haasan, Vijay Sethupathi, Fahadh Faasil",Lokesh Kanagaraj,1500000000,4000000000,Vikram,Afternoon,Rainy,Yes,364
Mumbai,"Royal Talkies, Falkland Road",198.1442727463636,708,1,0,18.9614956,72.8238455,MediaAnt,8.4,"Action, Biography, Drama",2021-08-12,Dharma Productions,"Sidharth Malhotra, Kiara Advani, Shiv Panditt",Vishnuvardhan,550000000,1360000000,Shershaah,Morning,Stormy,Yes,173
Bangalore,"Anand Theatre, No-268",183.50891304903843,947,1,0,13.011335,77.609965,MediaAnt,7.3,"Action, Thriller",2022-06-03,Raaj Kamal Films International,"Kamal Haasan, Vijay Sethupathi, Fahadh Faasil",Lokesh Kanagaraj,1500000000,4000000000,Vikram,Night,Humid,Yes,887
Hyderabad,Anjali Theatre: Secunderabad,70.0,690,1,0,17.43751,78.49338,"BookMyShow, MediaAnt",8.3,"Biography, Drama, Sport",2016-12-23,Walt Disney Pictures India,"Aamir Khan, Sakshi Tanwar, Fatima Sana Shaikh",Nitesh Tiwari,70000000,2100000000,Dangal,Morning,Stormy,No,125
Hyderabad,Sapna Cinemas: Abids,80.0,552,1,0,17.39103,78.47569,"BookMyShow, Internet Research",7.3,"Action, Crime, Drama",2022-04-14,Hombale Films,"Yash, Sanjay Dutt, Raveena Tandon",Prashanth Neel,1000000000,12500000000,KGF 2,Night,Hot,No,281
Hyderabad,Asian M Cube Mall: Attapur,140.0,1014,4,1,17.37169,78.43027,BookMyShow,7.3,"Action, Thriller",2022-06-03,Raaj Kamal Films International,"Kamal Haasan, Vijay Sethupathi, Fahadh Faasil",Lokesh Kanagaraj,1500000000,4000000000,Vikram,Evening,Sunny,No,775
Bangalore,Goverdhan Theatre: Yeshwantpur,90.0,1064,1,0,13.02163,77.55132,"BookMyShow, MediaAnt",8.4,"Comedy, Drama",2009-12-25,Vinod Chopra Films,"Aamir Khan, R. Madhavan, Sharman Joshi",Rajkumar Hirani,35000000,470000000,3 Idiots,Morning,Humid,Yes,48
Mumbai,Gold Cinema: Dadar (E),155.0,245,1,0,19.00916,72.84208,BookMyShow,8.0,"Action, Drama",2015-07-10,Arka Media Works,"Prabhas, Rana Daggubati, Anushka Shetty",S.S. Rajamouli,1800000000,6500000000,Baahubali,Afternoon,Rainy,Yes,77
Bangalore,"7D Mastiii: Forum Value Mall, Whitefield",150.0,16,1,0,12.95972,77.74778,BookMyShow,8.4,"Action, Biography, Drama",2021-08-12,Dharma Productions,"Sidharth Malhotra, Kiara Advani, Shiv Panditt",Vishnuvardhan,550000000,1360000000,Shershaah,Night,Rainy,Yes,12
Bangalore,"PVR: MSR Elements Mall, Bengaluru",288.0883838,1383,7,1,13.04516,77.62658,"BookMyShow, MediaAnt",8.3,"Biography, Drama, Sport",2016-12-23,Walt Disney Pictures India,"Aamir Khan, Sakshi Tanwar, Fatima Sana Shaikh",Nitesh Tiwari,70000000,2100000000,Dangal,Afternoon,Humid,Yes,431
Delhi,"PVR: Prashant Vihar, Delhi",283.3134921,426,4,1,28.71251,77.13594,BookMyShow,8.0,"Action, Drama",2015-07-10,Arka Media Works,"Prabhas, Rana Daggubati, Anushka Shetty",S.S. Rajamouli,1800000000,6500000000,Baahubali,Morning,Cloudy,No,323
Bangalore,"Sri Siddalingeswara Chitra Mandira, Bangalore",183.50891304903843,940,1,0,12.9037028,77.5804877,MediaAnt,7.7,"Action, Adventure, Drama",2022-09-30,Hombale Films,"Rishab Shetty, Kishore Kumar G., Achyuth Kumar",Rishab Shetty,160000000,4000000000,Kantara,Night,Hot,No,564
Hyderabad,Sridevi Cinema: Chilakalguda,80.0,903,1,0,17.43143,78.51297,"BookMyShow, MediaAnt",7.7,"Action, Adventure, Drama",2022-09-30,Hombale Films,"Rishab Shetty, Kishore Kumar G., Achyuth Kumar",Rishab Shetty,160000000,4000000000,Kantara,Night,Sunny,No,767
Chennai,Woodlands Complex: Chennai,69.5,1713,2,1,13.05656,80.26497,"BookMyShow, MediaAnt",7.7,"Action, Adventure, Drama",2022-09-30,Hombale Films,"Rishab Shetty, Kishore Kumar G., Achyuth Kumar",Rishab Shetty,160000000,4000000000,Kantara,Night,Humid,No,258
Chennai,AGS Cinemas: Villivakkam,82.7,1473,5,1,13.10471,80.209,BookMyShow,6.5,"Action, Crime, Thriller",2021-11-05,Reliance Entertainment,"Akshay Kumar, Katrina Kaif, Ajay Devgn",Rohit Shetty,1650000000,2900000000,Sooryavanshi,Morning,Humid,No,855
Hyderabad,Metro Cinema: Bahadurpura,70.0,100,1,0,17.35587,78.45374,BookMyShow,8.3,"Biography, Drama, Sport",2016-12-23,Walt Disney Pictures India,"Aamir Khan, Sakshi Tanwar, Fatima Sana Shaikh",Nitesh Tiwari,70000000,2100000000,Dangal,Morning,Cloudy,No,14
Hyderabad,Asian M Cube Mall: Attapur,140.0,1014,4,1,17.37169,78.43027,BookMyShow,7.1,"Drama, Romance",2019-06-21,Cine1 Studios,"Shahid Kapoor, Kiara Advani, Soham Majumdar",Sandeep Reddy Vanga,600000000,3800000000,Kabir Singh,Night,Humid,No,531
Mumbai,"Carnival: Huma, Kanjurmarg",136.6916667,1263,4,1,19.12873,72.92615,BookMyShow,8.2,"Crime, Drama, Thriller",2022-11-18,Panorama Studios,"Ajay Devgn, Shriya Saran, Tabu",Abhishek Pathak,50000000,340000000,Drishyam 2,Morning,Hot,Yes,380
Chennai,Kasi4K Dolby Atmos,97.97240740555556,733,1,0,13.0294637,80.2084348,Internet Research,8.3,"Biography, Drama, Sport",2016-12-23,Walt Disney Pictures India,"Aamir Khan, Sakshi Tanwar, Fatima Sana Shaikh",Nitesh Tiwari,70000000,2100000000,Dangal,Afternoon,Stormy,No,191
Mumbai,Movietime Suburbia: Bandra (W),458.9,189,1,0,19.06099,72.83685,"BookMyShow, MediaAnt",8.4,"Comedy, Drama",2009-12-25,Vinod Chopra Films,"Aamir Khan, R. Madhavan, Sharman Joshi",Rajkumar Hirani,35000000,470000000,3 Idiots,Evening,Cloudy,Yes,131
Hyderabad,"Sapthagiri 70Mm, Ashoknagar",95.06145388259615,1150,1,0,17.40743,78.496222,MediaAnt,8.4,"Comedy, Drama",2009-12-25,Vinod Chopra Films,"Aamir Khan, R. Madhavan, Sharman Joshi",Rajkumar Hirani,35000000,470000000,3 Idiots,Morning,Stormy,No,802
Bangalore,"Lakshmi Theatre, Dharmaram College",183.50891304903843,900,1,0,12.9362,77.6028377,MediaAnt,5.6,"Action, Adventure, Fantasy",2022-09-09,Dharma Productions,"Ranbir Kapoor, Alia Bhatt, Amitabh Bachchan",Ayan Mukerji,4100000000,4300000000,Brahmastra,Evening,Hot,No,780
Hyderabad,Asian Radhika Multiplex: ECIL,130.0,894,3,1,17.47656,78.56309,BookMyShow,5.6,"Action, Adventure, Fantasy",2022-09-09,Dharma Productions,"Ranbir Kapoor, Alia Bhatt, Amitabh Bachchan",Ayan Mukerji,4100000000,4300000000,Brahmastra,Afternoon,Stormy,Yes,548
Bangalore,Cauvery Theatre: Sankey Road,123.3333333,1210,1,0,13.00256,77.58328,"BookMyShow, MediaAnt",7.8,"Action, Drama",2022-03-25,DVV Entertainment,"N.T. Rama Rao Jr., Ram Charan, Alia Bhatt",S.S. Rajamouli,5500000000,12000000000,RRR,Afternoon,Cloudy,No,224
Chennai,"Baby Albert Theatre, Whannels Road",97.97240740555556,242,1,0,13.0761555,80.263841,MediaAnt,7.3,"Action, Crime, Drama",2022-04-14,Hombale Films,"Yash, Sanjay Dutt, Raveena Tandon",Prashanth Neel,1000000000,12500000000,KGF 2,Afternoon,Hot,Yes,117
Mumbai,Bharat Cineplex: Kurla (W),175.0,398,2,1,19.06685,72.87733,"BookMyShow, MediaAnt",7.0,"Action, Thriller",2023-06-02,Red Chillies Entertainment,"Shah Rukh Khan, Nayanthara, Vijay Sethupathi",Atlee Kumar,2200000000,8000000000,Jawan,Afternoon,Hot,No,381
Kolkata,"Jagat, Sealdah",187.80483726826088,377,1,0,22.5714426,88.371308,MediaAnt,8.2,"Crime, Drama, Thriller",2022-11-18,Panorama Studios,"Ajay Devgn, Shriya Saran, Tabu",Abhishek Pathak,50000000,340000000,Drishyam 2,Night,Hot,Yes,30
Bangalore,"PVR: Pepsi IMAX, Koramangala",365.0,346,1,0,12.93455,77.61109,BookMyShow,7.7,"Action, Adventure, Drama",2022-09-30,Hombale Films,"Rishab Shetty, Kishore Kumar G., Achyuth Kumar",Rishab Shetty,160000000,4000000000,Kantara,Night,Humid,Yes,256
Kolkata,"INOX: Forum Mall, Elgin Road",231.1720833,1015,4,1,22.53844,88.3513,"BookMyShow, Internet Research",8.3,"Biography, Drama, Sport",2016-12-23,Walt Disney Pictures India,"Aamir Khan, Sakshi Tanwar, Fatima Sana Shaikh",Nitesh Tiwari,70000000,2100000000,Dangal,Afternoon,Sunny,Yes,305
Hyderabad,Devi 70mm 4K & Dolby Atmos: RTC X Roads,118.0,1200,1,0,17.40627,78.49504,"BookMyShow, Internet Research",7.0,"Action, Thriller",2023-06-02,Red Chillies Entertainment,"Shah Rukh Khan, Nayanthara, Vijay Sethupathi",Atlee Kumar,2200000000,8000000000,Jawan,Morning,Humid,Yes,416
Kochi,EVM Kavitha Theatre 2K UFO: Ernakulam,110.0,1220,4,1,9.978573,76.28262,"BookMyShow, MediaAnt",7.3,"Action, Thriller",2022-06-03,Raaj Kamal Films International,"Kamal Haasan, Vijay Sethupathi, Fahadh Faasil",Lokesh Kanagaraj,1500000000,4000000000,Vikram,Night,Sunny,Yes,114
