city,theatre_name,average_ticket_price,total_seats,no_screens,type,lat,lon,source_of_information,Indian Movie Name,Showtime,IMDB Rating,Weather,Holiday/Event Impact,ticket_sold
Delhi,"Batra Cinema, Dr.Mukerjee Nagar",301.8207102540476,1000,1,0,28.7113494,77.2150536,MediaAnt,Shershaah,Morning,8.9,Cloudy,No,904
Bangalore,Ravi Digital 2K Cinema: Ejipura,109.0,820,1,0,12.95124,77.62217,"BookMyShow, Internet Research",Shershaah,Afternoon,7.2,Cloudy,No,203
Mumbai,G7 Multiplex: Bandra (W),98.66666667,2266,7,1,19.06148,72.83872,BookMyShow,Pushpa,Afternoon,9.9,Stormy,No,917
Mumbai,"Imperial Cinema Pvt Ltd., Ambewadi",198.1442727463636,816,1,0,18.9585704,72.8174214,MediaAnt,3 Idiots,Afternoon,4.8,Hot,Yes,55
Bangalore,"Fun Cinemas: Sigma Mall, Bengaluru",180.3571429,985,3,1,12.9882,77.59477,"BookMyShow, MediaAnt",Shershaah,Night,2.4,Hot,No,429
Hyderabad,"Suresh, Sitaphalmandi",95.06145388259615,956,1,0,17.4269211,78.5161231,MediaAnt,RRR,Night,8.0,Hot,No,900
Mumbai,"Cinepolis: Fun Republic Mall, Andheri (W)",260.0092593,1271,4,1,19.13469,72.83279,"BookMyShow, MediaAnt",Vikram,Evening,4.5,Sunny,No,828
Hyderabad,Vimal 70mm: Balanagar,80.0,1010,1,0,17.46361,78.45124,"BookMyShow, MediaAnt",Drishyam 2,Evening,5.3,Rainy,No,715
Hyderabad,"Srinivas Theatre, Allapur",95.06145388259615,461,1,0,17.4345092,78.4467967,MediaAnt,Shershaah,Afternoon,5.4,Cloudy,No,417
Delhi,"PVR: Select City Walk, Delhi",523.1349206,677,5,1,28.52857,77.21973,BookMyShow,3 Idiots,Night,2.2,Rainy,Yes,212
Bangalore,"Robin Theatre, Chudenapura",183.50891304903843,850,1,0,12.9160026,77.479051,MediaAnt,KGF 2,Evening,9.3,Stormy,No,577
Bangalore,Galaxy Paradise Screen 1: Bommanahalli Hosur Rd,160.0,100,1,0,12.89108,77.62648,"BookMyShow, Internet Research",3 Idiots,Evening,8.5,Rainy,Yes,67
Chennai,Jothi Theatre 4K A/c DTS: ST Thomas Mount,0.0,805,1,0,13.00611,80.20134,"BookMyShow, Internet Research",Kabir Singh,Morning,7.1,Sunny,Yes,794
Hyderabad,Asian Sha: Chintal,85.0,716,1,0,17.4922,78.45173,BookMyShow,Drishyam 2,Night,3.2,Stormy,No,267
Delhi,"Cinepolis: V3S Mall, Laxmi Nagar",236.7857143,836,3,1,28.63711,77.28606,"BookMyShow, MediaAnt",KGF 2,Night,5.9,Rainy,Yes,12
Ahmedabad,"Galaxy, Station Road",149.09491512148148,909,1,0,23.0748037,72.6554437,MediaAnt,3 Idiots,Afternoon,2.4,Cloudy,Yes,314
Mumbai,Bahar Cinema: Vile Parle (E),190.0,299,1,0,19.10867,72.85335,BookMyShow,Jawan,Afternoon,2.5,Rainy,No,275
Chennai,"Chandran Theatre, Ashoknagar",97.97240740555556,515,1,0,13.0347676,80.2104299,MediaAnt,Sooryavanshi,Afternoon,2.7,Cloudy,No,269
Delhi,Satyam Janak Place-NCR,301.8207102540476,1262,4,1,28.629686,77.081896,Internet Research,Baahubali,Evening,2.8,Rainy,No,65
Kochi,Q Cinemas: Gold Souk Grande,159.5384615,1236,4,1,9.977553,76.31627,"BookMyShow, MediaAnt",Kantara,Morning,5.1,Sunny,No,1038
Bangalore,"PVR: Orion Gold, Rajajinagar",806.2962963,144,3,0,13.011,77.55509,BookMyShow,Sooryavanshi,Afternoon,4.7,Sunny,Yes,63
Bangalore,Veeresh Cinemas Screen 2: Magadi Rd,100.0,214,1,0,12.97707,77.54595,BookMyShow,Jawan,Afternoon,2.0,Cloudy,Yes,98
Delhi,"PVR: 3CS, Delhi",247.7777778,315,1,0,28.56778,77.24099,BookMyShow,Sooryavanshi,Afternoon,1.0,Hot,Yes,313
Kolkata,"Aleya Cinema, Ballygunge RS",187.80483726826088,447,1,0,22.52022,88.367129,MediaAnt,Brahmastra,Night,5.7,Sunny,Yes,145
Chennai,"Agasthiya, T.H Road",97.97240740555556,1004,1,0,13.1239102,80.2878637,MediaAnt,Drishyam 2,Morning,6.3,Hot,Yes,694
Bangalore,"INOX: Forum Neighbourhood Mall, Whitefield",301.3636364,725,5,1,12.9595,77.74789,BookMyShow,Brahmastra,Night,9.7,Stormy,No,652
Ahmedabad,"Hanjar Cinema, Gandhi Ashram",149.09491512148148,995,1,0,23.0263983,72.6040875,MediaAnt,Kabir Singh,Afternoon,5.3,Stormy,No,768
Delhi,PVR Promenade: Vasant Kunj,431.7234848,1139,7,1,28.54262,77.15575,"BookMyShow, Internet Research",KGF 2,Evening,5.9,Rainy,No,390
Delhi,"PVR: Anupam, Delhi",170.6018519,1000,4,1,28.52374,77.20716,"BookMyShow, Internet Research",3 Idiots,Evening,2.4,Stormy,No,31
Mumbai,"Amar Theatre, Chembur",198.1442727463636,1155,1,0,19.0523111,72.9101544,MediaAnt,Pushpa,Morning,9.9,Cloudy,Yes,947
Delhi,DT Cinemas: Savitri Complex GK2,238.8888889,300,1,0,28.54135,77.24011,BookMyShow,Shershaah,Evening,4.5,Hot,No,223
Hyderabad,Nagendra: Karmanghat,80.0,711,1,0,17.34507,78.53179,"BookMyShow, MediaAnt",Vikram,Afternoon,6.5,Stormy,Yes,597
Mumbai,"Mayur Cinema, Subhash Lane",198.1442727463636,645,1,0,19.2020115,72.8450572,MediaAnt,Vikram,Afternoon,4.7,Cloudy,Yes,453
Hyderabad,"INOX: GVK One, Banjara Hills",200.0,1257,6,1,17.4195,78.44861,"BookMyShow, MediaAnt",Pushpa,Afternoon,5.4,Rainy,No,412
Delhi,"Ritz Cinema: Kashmere Gate, Delhi",113.3333333,576,1,0,28.66669,77.22984,"BookMyShow, MediaAnt",RRR,Evening,3.2,Hot,Yes,237
Mumbai,Plaza Cinema: Dadar,227.5,691,1,0,19.02185,72.84276,BookMyShow,RRR,Night,9.5,Cloudy,Yes,680
Mumbai,"Sheetal Cinema, Kurla North",198.1442727463636,993,1,0,19.0825802,72.8822279,MediaAnt,Dangal,Evening,10.0,Rainy,No,510
Chennai,Casino Theatre: Chennai,59.0,83,1,0,13.06868,80.27017,BookMyShow,Kantara,Night,7.2,Rainy,No,3
Delhi,INOX Eros One: Jangpura Extn,465.4166667,317,1,0,28.58122,77.24199,BookMyShow,Sooryavanshi,Afternoon,3.0,Hot,Yes,96
Delhi,G3S Cinema: Rohini,228.5714286,809,3,1,28.73469,77.11376,BookMyShow,Shershaah,Afternoon,3.1,Cloudy,No,73
Mumbai,"Carnival: IMAX, Wadala",196.5968254,1634,5,1,19.03122,72.881,"BookMyShow, MediaAnt",Drishyam 2,Night,8.8,Sunny,Yes,1149
Kolkata,"Cinepolis: Lake Mall, Kolkata",214.2045455,947,4,1,22.51652,88.34876,BookMyShow,RRR,Night,3.5,Cloudy,Yes,535
Bangalore,Sri Krishna Theatre: KR Puram,100.0,979,1,0,13.00889,77.69893,"BookMyShow, MediaAnt",Shershaah,Night,9.3,Hot,Yes,313
Mumbai,Paradise E-Square Cinema: Mahim,102.2916667,502,1,0,19.0372,72.84256,BookMyShow,Jawan,Evening,8.3,Rainy,No,154
Mumbai,Paradise E-Square Cinema: Mahim,102.2916667,502,1,0,19.0372,72.84256,BookMyShow,Pathaan,Afternoon,9.7,Sunny,Yes,28
Ahmedabad,"Hanjar Cinema, Gandhi Ashram",149.09491512148148,995,1,0,23.0263983,72.6040875,MediaAnt,Drishyam 2,Afternoon,4.3,Sunny,No,100
Delhi,INOX Eros One: Jangpura Extn,465.4166667,317,1,0,28.58122,77.24199,BookMyShow,Dangal,Night,2.5,Stormy,No,132
Mumbai,"Alankar Cinema, Ambewadi",198.1442727463636,942,1,0,18.9579554,72.8254315,MediaAnt,Drishyam 2,Evening,3.6,Sunny,Yes,107
Bangalore,Poornima Theatre: J.C. Road,115.0,934,1,0,12.96096,77.58742,"BookMyShow, MediaAnt",3 Idiots,Morning,9.9,Rainy,Yes,106
Mumbai,Sun City: Vile Parle,180.2083333,615,2,1,19.10541,72.84651,BookMyShow,Drishyam 2,Night,1.6,Hot,No,79
Hyderabad,BR Hitech 70mm: Madhapur,80.0,528,1,0,17.44442,78.38823,"BookMyShow, Internet Research",Jawan,Morning,8.6,Sunny,No,30
Hyderabad,"Sapthagiri 70Mm, Ashoknagar",95.06145388259615,1150,1,0,17.40743,78.496222,MediaAnt,Vikram,Afternoon,3.7,Cloudy,Yes,640
Ahmedabad,"Cinemax: Shiv, Ahmedabad",176.2777778,637,3,1,23.03188,72.57103,BookMyShow,Drishyam 2,Afternoon,2.2,Hot,No,167
Hyderabad,SVC Mahalakshmi Screen 1: Kothapet,100.0,659,1,0,17.36944,78.53973,"BookMyShow, Internet Research",Jawan,Afternoon,6.8,Rainy,No,420
Hyderabad,Konark: Dilsukhnagar,80.0,1026,1,0,17.3686,78.51865,"BookMyShow, MediaAnt",Shershaah,Night,7.0,Rainy,Yes,123
Ahmedabad,City Gold: Ashram Road,159.9814815,1313,5,1,23.0319,72.56999,"BookMyShow, MediaAnt",Vikram,Night,2.5,Humid,Yes,739
Mumbai,"Cinemax: R Odeon Mall, Ghatkopar (E)",158.3928571,1250,4,1,19.0796,72.90937,"BookMyShow, Internet Research",Kantara,Night,8.6,Humid,No,591
Bangalore,Menaka Talkies: Gandhi Nagar,130.0,971,1,0,12.97314,77.57934,"BookMyShow, MediaAnt",Pushpa,Evening,2.1,Stormy,No,702
Chennai,INOX National: Arcot Road,153.6,1182,5,1,13.04689,80.19036,BookMyShow,Pathaan,Night,5.1,Cloudy,No,46
Chennai,"Mayura, Arakonam Road",97.97240740555556,474,1,0,13.0997993,80.1698389,MediaAnt,Pathaan,Morning,7.8,Sunny,No,41
Chennai,Vetrrivel Theatre 2K - Nanganallur,97.97240740555556,600,1,0,12.9801087,80.1821216,Internet Research,Baahubali,Morning,6.0,Rainy,No,560
Chennai,"Agasthiya, T.H Road",97.97240740555556,1004,1,0,13.1239102,80.2878637,MediaAnt,Drishyam 2,Evening,9.1,Stormy,No,370
Delhi,M Cinemas: East of Kailash (Gold Class),493.75,780,2,1,28.55923,77.24623,BookMyShow,3 Idiots,Night,6.4,Sunny,No,502
Chennai,"Chandran Theatre, Ashoknagar",97.97240740555556,515,1,0,13.0347676,80.2104299,MediaAnt,Pathaan,Morning,5.9,Sunny,No,212
Chennai,Bharath Theatre Dolby AtmosDolby Atmos,97.97240740555556,963,1,0,13.1102599,80.2797875,Internet Research,Drishyam 2,Evening,4.0,Hot,Yes,356
Bangalore,Sri Renuka Prasanna Theatre: J P Nagar,104.0,1078,1,0,12.91506,77.58783,"BookMyShow, Internet Research",Pathaan,Night,9.6,Stormy,No,535
Chennai,Jothi Theatre 4K A/c DTS: ST Thomas Mount,0.0,805,1,0,13.00611,80.20134,"BookMyShow, Internet Research",Pushpa,Morning,2.5,Sunny,Yes,216
Hyderabad,"Manikanta, Reddy Colony",95.06145388259615,394,1,0,17.337529,78.549634,MediaAnt,Pushpa,Night,1.2,Humid,Yes,18
Mumbai,"Super Cinema, Bharat Nagar",198.1442727463636,822,1,0,18.9620626,72.8209921,MediaAnt,Brahmastra,Afternoon,7.7,Hot,Yes,374
Mumbai,Gold Cinema: Sona Borivali (E),151.6666667,259,1,0,19.23479,72.86494,BookMyShow,KGF 2,Afternoon,9.7,Hot,No,172
Chennai,Luxe Cinemas: Chennai,153.6,1844,9,1,12.99154,80.21681,BookMyShow,Sooryavanshi,Afternoon,9.1,Stormy,No,1324
Hyderabad,Asian Radhika Multiplex: ECIL,130.0,894,3,1,17.47656,78.56309,BookMyShow,Pushpa,Morning,8.7,Cloudy,Yes,704
Hyderabad,Lakshmi Kala Mandir: Alwal,70.0,277,1,0,17.49476,78.51121,BookMyShow,Kantara,Morning,7.5,Humid,No,99
Hyderabad,Alankar (Pratap Theatre): Langer House,100.0,774,1,0,17.37651,78.4196,"BookMyShow, Internet Research",Brahmastra,Evening,2.5,Cloudy,Yes,438
Mumbai,Gold Cinema: Santacruz (W),205.3333333,420,1,0,19.08958,72.83912,BookMyShow,Jawan,Night,7.8,Sunny,No,379
Mumbai,"Cinepolis: Magnet Mall, Bhandup (W)",210.2347222,956,6,1,19.14114,72.93097,"BookMyShow, MediaAnt",Pushpa,Afternoon,6.9,Hot,No,57
Bangalore,"Fun Cinemas: Sigma Mall, Bengaluru",180.3571429,985,3,1,12.9882,77.59477,"BookMyShow, MediaAnt",Sooryavanshi,Night,9.0,Sunny,No,231
Kochi,Sarita Cinema: Kochi,110.0,2141,3,1,9.984626,76.27759,"BookMyShow, Internet Research",3 Idiots,Afternoon,2.8,Sunny,No,1412
Hyderabad,Amba Theatre: Mehdipatnam,100.0,64,1,0,17.39167,78.44133,BookMyShow,3 Idiots,Night,5.7,Stormy,Yes,48
Mumbai,"Nishat Talkies, Falkland Road",198.1442727463636,691,1,0,18.9620811,72.8237374,MediaAnt,Brahmastra,Afternoon,1.2,Cloudy,Yes,336
Delhi,"Cinepolis: Unity One Mall Rohini, Delhi",350.1319444,659,4,1,28.71513,77.11631,"BookMyShow, MediaAnt",Pushpa,Afternoon,3.9,Humid,No,108
Hyderabad,"Srinivas Theatre, Allapur",95.06145388259615,461,1,0,17.4345092,78.4467967,MediaAnt,RRR,Night,6.8,Sunny,Yes,160
Bangalore,"Gopalan Miniplex: Signature Mall, Old Madras Road",260.3846154,157,3,1,12.99299,77.66188,BookMyShow,Vikram,Night,2.6,Sunny,No,149
Hyderabad,Galaxy Cinema: Toli Chowki,70.0,704,1,0,17.40324,78.41086,"BookMyShow, Internet Research",Kabir Singh,Morning,7.4,Stormy,No,581
Delhi,"DT Cinemas: DLF Place, Saket",286.0795455,953,6,1,28.5274,77.21713,BookMyShow,KGF 2,Morning,3.5,Rainy,Yes,941
Chennai,Vetrrivel Theatre 2K - Nanganallur,97.97240740555556,600,1,0,12.9801087,80.1821216,Internet Research,RRR,Afternoon,5.7,Rainy,No,313
Hyderabad,Sapna Cinemas: Abids,80.0,552,1,0,17.39103,78.47569,"BookMyShow, Internet Research",Vikram,Morning,5.8,Humid,Yes,510
Bangalore,"Prasanna Theatre, Magadi Road",183.50891304903843,1100,1,0,12.9740859,77.5520529,MediaAnt,Kantara,Morning,5.9,Humid,Yes,619
Hyderabad,Padmavati Cinema: Kachiguda,60.0,490,1,0,17.39063,78.4916,"BookMyShow, MediaAnt",Kabir Singh,Night,5.2,Stormy,No,429
Mumbai,"PVR: Market City, Kurla (Gold)",530.0,137,2,1,19.08571,72.88842,BookMyShow,Pathaan,Night,3.0,Sunny,No,74
Bangalore,Venkateshwara Digital 2K Cinema: Avalahalli Girina,100.0,363,1,0,12.94351,77.54797,BookMyShow,3 Idiots,Morning,8.7,Hot,No,286
Hyderabad,Sree Ramulu 70mm: Moosapet,70.0,849,1,0,17.46784,78.42939,"BookMyShow, MediaAnt",Shershaah,Night,5.9,Hot,Yes,257
Bangalore,Radhakrishna Theatre: R.T. Nagar,125.0,921,1,0,13.01337,77.59387,BookMyShow,3 Idiots,Afternoon,9.7,Humid,Yes,34
Mumbai,"Bharat Chitra Mandir, Kurla North",198.1442727463636,398,2,1,19.071989,72.884082,MediaAnt,Sooryavanshi,Evening,3.0,Sunny,No,236
Hyderabad,Raghavendra 70mm: Malkajgiri,70.0,691,1,0,17.4513,78.53616,"BookMyShow, MediaAnt",Jawan,Morning,1.5,Hot,No,186
Bangalore,"Sri Maruthi Theatre, Rajagopal Nagar",183.50891304903843,1119,1,0,13.0122659,77.5098421,MediaAnt,Pathaan,Evening,2.1,Rainy,No,320
Hyderabad,Venkataramana Cinema: Kachiguda,60.0,697,1,0,17.39069,78.49141,"BookMyShow, Internet Research",RRR,Afternoon,6.7,Humid,Yes,252
Hyderabad,Tarakarama Cineplex: Kachiguda,90.0,980,1,0,17.39065,78.48796,"BookMyShow, MediaAnt",KGF 2,Morning,3.2,Humid,No,594
Bangalore,Vishal A/C Theatre: Kamakshipalya,80.0,875,1,0,12.98318,77.53018,"BookMyShow, MediaAnt",Baahubali,Evening,4.7,Sunny,No,529
Ahmedabad,Anupam Cinema: Ahmedabad,125.8333333,781,1,0,23.00656,72.61333,BookMyShow,3 Idiots,Afternoon,6.6,Sunny,Yes,149
Hyderabad,Sree Sai Puja: Suraram,100.0,864,1,0,17.54458,78.43474,"BookMyShow, MediaAnt",Shershaah,Morning,7.4,Hot,No,752
Bangalore,Vainidhi Digital 2K Cinemas (Chandan): Singapura,110.0,725,1,0,13.07427,77.5405,"BookMyShow, MediaAnt",Jawan,Morning,8.0,Rainy,Yes,287
Kochi,"Ajantha Theatre, Mattancherry Jetty",119.55509767142858,620,1,0,9.9538634,76.2475442,MediaAnt,Vikram,Afternoon,4.5,Humid,No,212
Ahmedabad,City Gold Satellite: Ahmedabad,156.1458333,371,4,1,23.01568,72.52992,BookMyShow,Vikram,Evening,9.3,Humid,Yes,356
Chennai,Devicineplex,97.97240740555556,2462,1,0,13.0662224,80.2707235,Internet Research,KGF 2,Afternoon,5.2,Sunny,Yes,1556
Hyderabad,SVC Mahalakshmi Screen 1: Kothapet,100.0,659,1,0,17.36944,78.53973,"BookMyShow, Internet Research",Dangal,Afternoon,5.1,Hot,No,638
Chennai,INOX National: Arcot Road,153.6,1182,5,1,13.04689,80.19036,BookMyShow,Dangal,Night,7.3,Stormy,Yes,1091
Mumbai,Paradise E-Square Cinema: Mahim,102.2916667,502,1,0,19.0372,72.84256,BookMyShow,Brahmastra,Evening,6.5,Hot,No,187
Bangalore,Movie Land,183.50891304903843,648,1,0,12.9788182,77.5755948,Internet Research,Sooryavanshi,Morning,3.5,Sunny,Yes,217
Mumbai,Carnival: R Mall Mulund,150.9619048,1353,4,1,19.18385,72.95173,BookMyShow,3 Idiots,Night,1.1,Hot,Yes,702
Delhi,Liberty Cinema: Karol Bagh,110.0,959,1,0,28.65941,77.18973,BookMyShow,KGF 2,Morning,7.3,Stormy,Yes,7
Chennai,Maharani Theatre 2K dts,97.97240740555556,910,1,0,13.1175008,80.2842433,Internet Research,Kabir Singh,Night,6.0,Humid,No,470
Mumbai,Movietime: Malad,161.4444444,403,3,1,19.18909,72.83519,BookMyShow,Kabir Singh,Morning,1.3,Stormy,Yes,287
Hyderabad,Tivoli Cinema: Hyderabad,118.0,453,3,1,17.44833,78.49304,BookMyShow,Kantara,Night,9.4,Humid,No,336
Mumbai,"Mukta A2 Cinemas: Topiwala, Goregaon",129.5462963,453,2,1,19.16381,72.84758,BookMyShow,Jawan,Afternoon,6.6,Sunny,Yes,122
Kolkata,"Ragini Cinema, Beliaghata",187.80483726826088,999,1,0,22.5616213,88.4063598,MediaAnt,Brahmastra,Night,2.5,Stormy,No,716
Kochi,Sridar Cinemas: Ernakulam,114.0,530,1,0,9.979525,76.27683,"BookMyShow, Internet Research",Vikram,Evening,6.5,Hot,No,160
Bangalore,"Tulsi Chitra Mandira, Marathalli",183.50891304903843,800,1,0,12.956319,77.6981967,MediaAnt,Shershaah,Evening,6.1,Stormy,Yes,177
Hyderabad,Asian Shiva: Dilsukhnagar,85.0,554,1,0,17.36117,78.5231,BookMyShow,3 Idiots,Night,8.4,Sunny,No,379
Bangalore,"Robin Theatre, Chudenapura",183.50891304903843,850,1,0,12.9160026,77.479051,MediaAnt,Sooryavanshi,Evening,2.9,Hot,Yes,531
Kolkata,"Park Show House, Shakespeare Sarani",187.80483726826088,588,1,0,22.5462997,88.3622103,MediaAnt,KGF 2,Night,4.7,Cloudy,No,339
Bangalore,"INOX: Garuda Swagath Mall, Jayanagar",285.5555556,793,3,1,12.92906,77.59123,"BookMyShow, MediaAnt",3 Idiots,Afternoon,8.6,Hot,No,529
Bangalore,INOX: Brookefield Mall,270.9259259,338,3,1,12.96623,77.71794,"BookMyShow, MediaAnt",Sooryavanshi,Morning,8.2,Rainy,Yes,175
Bangalore,Sri Vinayaka Digital 2K Cinema (D.J.Halli),109.0,850,1,0,13.0144,77.60564,"BookMyShow, MediaAnt",Jawan,Morning,8.2,Rainy,Yes,619
Hyderabad,"Mallikarjuna 70 Mm, Hyder nagar",95.06145388259615,861,1,0,17.5000892,78.38697,MediaAnt,Jawan,Night,2.8,Humid,Yes,284
Ahmedabad,Rajhans Cinemas: Satadhar,124.2296296,1080,4,1,23.06663,72.53127,"BookMyShow, Internet Research",Shershaah,Morning,1.3,Sunny,Yes,951
Mumbai,G7 Multiplex: Bandra (W),98.66666667,2266,7,1,19.06148,72.83872,BookMyShow,Shershaah,Night,8.6,Rainy,Yes,62
Ahmedabad,City Gold: Motera,111.5,728,2,1,23.09203,72.59319,BookMyShow,Kantara,Evening,9.9,Rainy,Yes,588
Delhi,"Cinepolis: Cross River Mall, Mall, Shahdara",249.375,1191,4,1,28.65681,77.30189,BookMyShow,Sooryavanshi,Afternoon,6.1,Rainy,Yes,99
Chennai,Nadhamuni Cinema,97.97240740555556,650,1,0,13.1034052,80.2022335,Internet Research,Jawan,Morning,2.0,Stormy,No,554
Mumbai,"Bharat Chitra Mandir, Kurla North",198.1442727463636,398,2,1,19.071989,72.884082,MediaAnt,Dangal,Morning,6.5,Humid,Yes,256
Chennai,Anna Theatre: Chennai,94.6,364,1,0,13.06717,80.27129,"BookMyShow, Internet Research",Jawan,Morning,2.3,Cloudy,Yes,24
Ahmedabad,"Sapna Cinema, Juhapura",149.09491512148148,1401,1,0,22.9855719,72.500771,MediaAnt,Sooryavanshi,Morning,6.7,Humid,No,699
Mumbai,Bahar Cinema: Vile Parle (E),190.0,299,1,0,19.10867,72.85335,BookMyShow,Kantara,Night,6.3,Rainy,Yes,272
Hyderabad,Sandhya 70mm: RTC X Roads,100.0,1323,1,0,17.40691,78.49726,"BookMyShow, MediaAnt",Baahubali,Night,2.7,Humid,Yes,1308
Hyderabad,Lakshmi Kala Mandir: Alwal,70.0,277,1,0,17.49476,78.51121,BookMyShow,Pushpa,Afternoon,2.6,Stormy,No,248
Hyderabad,BVK Multiplex Vijayalakshmi: LB Nagar,105.5555556,1211,3,1,17.34365,78.55422,BookMyShow,Pushpa,Morning,4.7,Cloudy,No,299
Mumbai,"Kings Cinema, Kurla North",198.1442727463636,191,1,0,19.0774291,72.8789924,MediaAnt,Dangal,Morning,2.0,Stormy,Yes,110
Bangalore,Eshwari Digital 2K Cinema: Banashankari,108.3333333,918,1,0,12.92359,77.55344,"BookMyShow, MediaAnt",Kantara,Morning,1.2,Stormy,Yes,237
Delhi,"Batra Cinema, Dr.Mukerjee Nagar",301.8207102540476,1000,1,0,28.7113494,77.2150536,MediaAnt,RRR,Morning,7.9,Sunny,No,523
Hyderabad,"PVR: Panjagutta, Hyderabad",150.0,1322,5,1,17.42675,78.45295,BookMyShow,Brahmastra,Morning,8.2,Sunny,No,451
Mumbai,"Mayur Cinema, Subhash Lane",198.1442727463636,645,1,0,19.2020115,72.8450572,MediaAnt,RRR,Afternoon,3.1,Hot,No,552
Chennai,Raj Theatre - A/C DTS: Chennai,175.0,950,1,0,13.0196,80.22324,BookMyShow,Kabir Singh,Evening,1.2,Humid,No,387
Delhi,"Vishal Cinema, Janta Market",301.8207102540476,1401,1,0,28.6555642,77.118129,MediaAnt,Jawan,Morning,7.6,Hot,Yes,303
Mumbai,Bharat Cineplex: Kurla (W),175.0,398,2,1,19.06685,72.87733,"BookMyShow, MediaAnt",Pathaan,Morning,1.3,Cloudy,Yes,353
Bangalore,Balaji Digital 2K Cinema: Tavarekere,120.0,880,1,0,12.92554,77.60781,"BookMyShow, MediaAnt",RRR,Night,4.1,Stormy,Yes,769
Mumbai,"PVR: Market City, Kurla (4DX)",398.2142857,288,2,1,19.08571,72.88842,BookMyShow,Jawan,Evening,4.1,Sunny,Yes,160
Bangalore,"Prasanna Theatre, Magadi Road",183.50891304903843,1100,1,0,12.9740859,77.5520529,MediaAnt,RRR,Morning,6.1,Hot,No,588
Hyderabad,Shama Cinema: Hyderabad,46.66666667,712,1,0,17.34158,78.46565,"BookMyShow, MediaAnt",RRR,Evening,3.1,Hot,Yes,326
Bangalore,Cinepolis: Binnypet Mall,220.537415,1580,8,1,12.96579,77.56202,"BookMyShow, MediaAnt",RRR,Morning,7.5,Sunny,No,1381
Chennai,Anna Theatre: Chennai,94.6,364,1,0,13.06717,80.27129,"BookMyShow, Internet Research",Pathaan,Evening,8.0,Cloudy,No,325
Kolkata,"INOX: Swabhumi, Maulana Azad Sarani",166.7109259,1022,4,1,22.57114,88.40126,"BookMyShow, MediaAnt",Kantara,Morning,2.9,Cloudy,Yes,606
Hyderabad,Asian Radhika Multiplex: ECIL,130.0,894,3,1,17.47656,78.56309,BookMyShow,Dangal,Afternoon,6.9,Rainy,No,131
Mumbai,"PVR: Nirmal Lifestyle, Mulund (W)",172.7777778,1815,6,1,19.16732,72.93695,"BookMyShow, MediaAnt",Baahubali,Afternoon,2.9,Hot,No,1709
Delhi,"PVR: Rivoli, Delhi",320.8333333,329,1,0,28.63101,77.21636,BookMyShow,Dangal,Evening,4.1,Humid,No,238
Bangalore,Maheshwari Digital 4K Cinema: Bannerghatta Road,183.50891304903843,0,0,1,12.92339,77.59894,BookMyShow,Brahmastra,Night,5.2,Sunny,No,0
Delhi,"Batra Cinema, Dr.Mukerjee Nagar",301.8207102540476,1000,1,0,28.7113494,77.2150536,MediaAnt,Kabir Singh,Afternoon,7.2,Humid,Yes,632
Hyderabad,Vyjayanthi Cinema: Nacharam,100.0,711,1,0,17.42889,78.55238,"BookMyShow, MediaAnt",Brahmastra,Afternoon,5.8,Cloudy,Yes,233
Mumbai,"Royal Talkies, Falkland Road",198.1442727463636,708,1,0,18.9614956,72.8238455,MediaAnt,Pathaan,Morning,3.0,Humid,No,569
Hyderabad,SSV Cine Park: Patancheru,95.06145388259615,0,0,1,17.53196,78.27094,BookMyShow,Dangal,Night,1.5,Rainy,Yes,0
Chennai,Devi Karumari A/C,97.97240740555556,850,1,0,13.0499059,80.1934024,Internet Research,Vikram,Night,8.0,Cloudy,No,338
Bangalore,Parimala Digital 2K Cinema: K.R.Market,183.50891304903843,1112,1,0,12.963107,77.57705,Internet Research,Sooryavanshi,Night,2.4,Cloudy,No,591
Hyderabad,"Suresh, Sitaphalmandi",95.06145388259615,956,1,0,17.4269211,78.5161231,MediaAnt,Pathaan,Night,7.0,Hot,No,86
Chennai,Abirami Cinemas: Chennai,113.5833333,1656,4,1,13.086,80.24809,BookMyShow,Sooryavanshi,Night,2.7,Humid,Yes,1150
Bangalore,Keshava Theatre -,183.50891304903843,809,1,0,13.0282203,77.5538235,Internet Research,Sooryavanshi,Evening,8.1,Cloudy,No,98
Mumbai,Plaza Cinema: Dadar,227.5,691,1,0,19.02185,72.84276,BookMyShow,Vikram,Night,4.0,Cloudy,No,258
Hyderabad,"Srinivas Theatre, Allapur",95.06145388259615,461,1,0,17.4345092,78.4467967,MediaAnt,Vikram,Morning,4.7,Cloudy,No,225
Hyderabad,Vijetha 70MM: Borabanda,80.0,786,1,0,17.45421,78.41913,"BookMyShow, MediaAnt",Brahmastra,Morning,8.4,Sunny,No,670
Mumbai,Miraj Anupam Cinemas: Goregaon (E),146.1666667,490,2,1,19.16545,72.85126,BookMyShow,Dangal,Night,2.7,Rainy,No,222
Bangalore,Cinepolis: Royal Meenakshi Mall,271.0,1344,7,1,12.876,77.59582,"BookMyShow, MediaAnt",Sooryavanshi,Night,8.1,Sunny,No,139
Hyderabad,Shanti Theatre: Narayanaguda,86.66666667,1035,1,0,17.39622,78.48986,"BookMyShow, MediaAnt",KGF 2,Evening,6.4,Sunny,Yes,970
Mumbai,24 Karat: Jogeshwari,219.5555556,1527,4,1,19.14108,72.84372,BookMyShow,RRR,Afternoon,4.1,Rainy,Yes,498
Mumbai,"INOX: Nakshatra Mall, Dadar (W)",167.3333333,272,1,0,19.0199,72.84133,BookMyShow,Brahmastra,Afternoon,6.8,Sunny,Yes,244
Mumbai,"Carnival: Huma, Kanjurmarg",136.6916667,1263,4,1,19.12873,72.92615,BookMyShow,Shershaah,Morning,9.3,Cloudy,Yes,1181
Ahmedabad,"AB Miniplex: Shivranjini Cross Road, Satellite",125.6190476,302,3,1,23.02494,72.52938,BookMyShow,3 Idiots,Night,8.7,Sunny,Yes,33
Delhi,M2K: Rohini,221.3333333,588,2,1,28.70094,77.1166,"BookMyShow, MediaAnt",Pathaan,Night,2.8,Cloudy,No,173
Delhi,"Vishal Cinema, Janta Market",301.8207102540476,1401,1,0,28.6555642,77.118129,MediaAnt,Brahmastra,Evening,1.1,Hot,No,1132
Hyderabad,Padmavati Cinema: Kachiguda,60.0,490,1,0,17.39063,78.4916,"BookMyShow, MediaAnt",Kantara,Afternoon,7.2,Humid,Yes,51
Mumbai,PVR: Sion,172.8125,730,3,1,19.04175,72.86422,"BookMyShow, MediaAnt",Shershaah,Night,2.5,Cloudy,No,483
Bangalore,Lakshmi Digital 4K Cinema: Tavarekere,132.5,900,1,0,12.92524,77.60775,"BookMyShow, MediaAnt",Kantara,Afternoon,9.6,Sunny,Yes,607
Kolkata,"Chabighar, Parsibagan",187.80483726826088,646,1,0,22.5795878,88.3724625,MediaAnt,Pushpa,Night,5.5,Stormy,Yes,279
Hyderabad,Alankar (Pratap Theatre): Langer House,100.0,774,1,0,17.37651,78.4196,"BookMyShow, Internet Research",Shershaah,Night,1.9,Hot,No,268
Hyderabad,Sudarshan 35mm 4k & Dolby Atmos: RTC X Roads,118.0,1216,1,0,17.40646,78.49503,"BookMyShow, MediaAnt",Drishyam 2,Afternoon,2.9,Hot,No,721
Kochi,"Jyothy, PP Road",119.55509767142858,713,1,0,9.9579586,76.2902266,MediaAnt,Kantara,Morning,5.9,Cloudy,No,642
Mumbai,"Palace Talkies, V J B Udyan",198.1442727463636,724,1,0,18.9759324,72.8331947,MediaAnt,Shershaah,Afternoon,6.6,Cloudy,No,627
Bangalore,Sri Balaji Digital 2K Cinema: Viveknagar,175.0,415,1,0,12.95686,77.61944,"BookMyShow, MediaAnt",Sooryavanshi,Afternoon,1.6,Humid,Yes,214
Chennai,Devicineplex,97.97240740555556,2462,1,0,13.0662224,80.2707235,Internet Research,3 Idiots,Evening,8.2,Sunny,Yes,2181
Chennai,AVM Rajeswari A/C dts,97.97240740555556,603,1,0,13.0475424,80.2046086,Internet Research,Vikram,Afternoon,7.3,Sunny,No,410
Mumbai,"Movietime: The Hub, Goregaon",178.6022487,1320,7,1,19.1548,72.85626,"BookMyShow, MediaAnt",RRR,Morning,5.3,Stormy,Yes,1141
Mumbai,"PVR: Sona Shopping Centre, Kandivali (W)",125.4166667,287,1,0,19.20243,72.8511,BookMyShow,3 Idiots,Morning,2.1,Stormy,Yes,111
Ahmedabad,"Sapna Cinema, Juhapura",149.09491512148148,1401,1,0,22.9855719,72.500771,MediaAnt,Sooryavanshi,Morning,7.8,Hot,No,1248
Kolkata,"Liberty Cinema, Beadon Street",187.80483726826088,724,1,0,22.5887838,88.3632207,MediaAnt,Baahubali,Evening,6.1,Hot,No,126
Bangalore,Sri Venkateshwara Theatre: Kengeri,100.0,500,1,0,12.90644,77.48277,"BookMyShow, MediaAnt",Vikram,Morning,6.7,Cloudy,No,29
Mumbai,Bahar Cinema: Vile Parle (E),190.0,299,1,0,19.10867,72.85335,BookMyShow,Vikram,Morning,8.1,Cloudy,Yes,148
Ahmedabad,City Gold: Motera,111.5,728,2,1,23.09203,72.59319,BookMyShow,Vikram,Morning,3.4,Stormy,Yes,277
Mumbai,"Carnival: Huma, Kanjurmarg",136.6916667,1263,4,1,19.12873,72.92615,BookMyShow,3 Idiots,Morning,3.9,Cloudy,Yes,151
Bangalore,"Soundarya Mahal, Antharahalli",183.50891304903843,726,1,0,12.9032569,77.5861215,MediaAnt,Sooryavanshi,Morning,9.0,Sunny,No,95
Mumbai,EROS Theatre,198.1442727463636,1204,1,0,18.932265,72.8279021,Internet Research,Shershaah,Afternoon,5.2,Rainy,Yes,1016
Mumbai,"New Shirin Talkies, Agripada",198.1442727463636,801,1,0,18.9811379,72.8260349,MediaAnt,Baahubali,Evening,6.0,Cloudy,No,56
Hyderabad,"PVR: Panjagutta, Hyderabad",150.0,1322,5,1,17.42675,78.45295,BookMyShow,Sooryavanshi,Morning,3.8,Hot,No,384
Bangalore,Vijay Theatre: Byatarayanapura,118.0,912,1,0,12.94846,77.53969,"BookMyShow, MediaAnt",3 Idiots,Evening,8.8,Hot,Yes,822
Delhi,Q Cinemas: Shahdara,185.4166667,601,3,1,28.67512,77.28808,BookMyShow,Dangal,Night,5.6,Humid,No,486
Chennai,"Thirumurugan, Ambattur",97.97240740555556,510,1,0,13.1212603,80.1513583,MediaAnt,Jawan,Night,3.4,Humid,No,34
Mumbai,"Cinepolis: Fun Republic Mall, Andheri (W)",260.0092593,1271,4,1,19.13469,72.83279,"BookMyShow, MediaAnt",3 Idiots,Night,9.8,Cloudy,Yes,740
Mumbai,Sterling Cineplex: Fort,167.5416667,900,3,1,18.93838,72.83307,BookMyShow,Brahmastra,Evening,6.7,Sunny,No,196
Ahmedabad,"PVR: Acropolis, Ahmedabad",232.1338384,1343,6,1,23.04884,72.51621,BookMyShow,Kabir Singh,Night,6.2,Cloudy,Yes,1119
Bangalore,Sri Krishna Digital 2K Cinema: Bommanahalli,100.0,800,1,0,12.90535,77.62936,"BookMyShow, MediaAnt",Kantara,Afternoon,6.5,Cloudy,No,34
Ahmedabad,"Mukta A2 Cinemas: Gulmohar Park Mall, Satellite Rd",151.2708333,404,4,1,23.02655,72.50996,"BookMyShow, MediaAnt",Pushpa,Night,6.2,Hot,Yes,248
Hyderabad,Vimal 70mm: Balanagar,80.0,1010,1,0,17.46361,78.45124,"BookMyShow, MediaAnt",Vikram,Evening,7.7,Stormy,No,593
Mumbai,New Excelsior Mukta A2 Cinemas: Fort,160.25,596,1,0,18.93768,72.83344,BookMyShow,Drishyam 2,Morning,9.5,Sunny,No,208
Hyderabad,Kumar Theatre: Kachiguda,90.0,74,1,0,17.38886,78.49632,BookMyShow,Kabir Singh,Night,7.6,Sunny,No,3
Kochi,Q Cinemas: Gold Souk Grande,159.5384615,1236,4,1,9.977553,76.31627,"BookMyShow, MediaAnt",Pushpa,Morning,2.5,Hot,No,1128
Mumbai,Gold Cinema: Sona Borivali (E),151.6666667,259,1,0,19.23479,72.86494,BookMyShow,Kabir Singh,Afternoon,7.7,Humid,No,54
Chennai,Ega Cinema,97.97240740555556,1168,2,1,13.0778725,80.2404635,Internet Research,Pushpa,Evening,3.7,Sunny,No,404
Bangalore,Nataraj Theatre: Sheshadripuram,183.50891304903843,1150,1,0,12.9897863,77.5729823,Internet Research,Vikram,Evening,9.0,Hot,No,408
Hyderabad,Shama Cinema: Hyderabad,46.66666667,712,1,0,17.34158,78.46565,"BookMyShow, MediaAnt",Kabir Singh,Night,8.9,Humid,No,575
Mumbai,"PVR: Nirmal Lifestyle, Mulund (W)",172.7777778,1815,6,1,19.16732,72.93695,"BookMyShow, MediaAnt",KGF 2,Afternoon,1.9,Sunny,No,1491
Mumbai,"Ashish Theatre, Chembur Extension",198.1442727463636,1000,1,0,19.039534,72.89525,MediaAnt,Vikram,Afternoon,5.3,Sunny,Yes,400
Ahmedabad,Amber Cinema: Ahmedabad,100.8333333,763,1,0,23.03431,72.62002,BookMyShow,Pushpa,Night,1.2,Stormy,No,715
Mumbai,Movietime: Malad,161.4444444,403,3,1,19.18909,72.83519,BookMyShow,KGF 2,Morning,8.7,Sunny,No,146
Bangalore,Santosh Theatre: Gandhinagar,106.0,680,1,0,12.97484,77.57638,"BookMyShow, MediaAnt",Pushpa,Afternoon,4.5,Stormy,Yes,268
Bangalore,Galaxy Paradise Screen 1: Bommanahalli Hosur Rd,160.0,100,1,0,12.89108,77.62648,"BookMyShow, Internet Research",3 Idiots,Evening,4.2,Sunny,No,14
Mumbai,Le Reve (Globus): Bandra (W),195.5,259,1,0,19.05605,72.83383,BookMyShow,Kantara,Night,7.3,Humid,Yes,80
Delhi,"Milan Cineplex, Karampura",301.8207102540476,1000,1,0,28.6626009,77.1462858,MediaAnt,Baahubali,Morning,7.6,Sunny,No,816
Mumbai,Nandi Cinema: National Library Road,65.0,762,1,0,19.05546,72.83874,BookMyShow,Pushpa,Evening,5.7,Humid,Yes,213
Hyderabad,Amba Theatre: Mehdipatnam,100.0,64,1,0,17.39167,78.44133,BookMyShow,Dangal,Afternoon,6.0,Cloudy,No,3
Kolkata,Bina Cinema - Kolkatta,187.80483726826088,775,1,0,22.5814515,88.3658105,Internet Research,Jawan,Night,9.2,Rainy,Yes,369
Kolkata,INOX: Quest Mall,313.0919697,511,4,1,22.53914,88.36565,BookMyShow,Baahubali,Afternoon,5.0,Hot,No,280
Mumbai,"Cinemax: Infiniti Mall, Malad (W)",252.310119,904,5,1,19.18512,72.83401,"BookMyShow, Internet Research",Pathaan,Morning,5.7,Rainy,Yes,738
Chennai,"SK-Marlen Cinemas 2K, Guindy: Alandur",150.0,229,1,0,13.00176,80.20358,"BookMyShow, Internet Research",Dangal,Night,8.7,Stormy,No,0
Bangalore,"Shobha Talkies, Bhabuji Nagar",183.50891304903843,1000,1,0,12.9574781,77.543303,MediaAnt,RRR,Night,1.1,Hot,Yes,496
Delhi,"PVR: Director's Cut, Ambience Delhi",1458.333333,282,4,1,28.5408,77.15479,"BookMyShow, MediaAnt",3 Idiots,Night,6.6,Hot,No,260
Hyderabad,Viswanath 70MM Theater: Kukatpally,80.0,1204,1,0,17.49677,78.39703,"BookMyShow, MediaAnt",KGF 2,Night,6.7,Cloudy,No,225
Chennai,Ganapathy Ram Theatre: Chennai,90.0,852,1,0,13.00397,80.25632,"BookMyShow, MediaAnt",3 Idiots,Afternoon,4.8,Cloudy,Yes,591
Kolkata,"Mayur Cinema, Chittaranjan Avenue",187.80483726826088,853,1,0,22.5751236,88.3538911,MediaAnt,Kantara,Evening,5.6,Sunny,Yes,307
Chennai,Murugan Cinemas - AmbatturDolby Atmos,97.97240740555556,960,1,0,13.1135444,80.1572574,Internet Research,Kantara,Afternoon,2.3,Stormy,Yes,835
Chennai,Sangam Cinemas,97.97240740555556,1662,3,1,13.0794633,80.2492933,Internet Research,Kantara,Evening,7.3,Humid,No,950
Mumbai,PVR ICON: Versova (Gold),616.6666667,86,2,1,19.14147,72.83059,BookMyShow,Shershaah,Evening,3.9,Humid,No,43
Bangalore,Sri Krishna Theatre: KR Puram,100.0,979,1,0,13.00889,77.69893,"BookMyShow, MediaAnt",Drishyam 2,Afternoon,1.2,Rainy,No,23
Mumbai,"Fun Cinemas: K Star Mall, Chembur",149.7530864,1253,5,1,19.05235,72.90172,"BookMyShow, MediaAnt",Jawan,Evening,8.8,Sunny,Yes,156
Hyderabad,"Sapthagiri 70Mm, Ashoknagar",95.06145388259615,1150,1,0,17.40743,78.496222,MediaAnt,Brahmastra,Morning,8.9,Rainy,Yes,824
Mumbai,"Carnival: Huma, Kanjurmarg",136.6916667,1263,4,1,19.12873,72.92615,BookMyShow,Jawan,Evening,9.9,Hot,Yes,321
Mumbai,"INOX: Inorbit Mall, Malad (W)",279.2494444,1212,7,1,19.17238,72.83547,BookMyShow,Sooryavanshi,Night,9.5,Rainy,No,595
Hyderabad,"PVR: Panjagutta, Hyderabad",150.0,1322,5,1,17.42675,78.45295,BookMyShow,Dangal,Evening,7.6,Sunny,Yes,1042
Kochi,"Cinepolis: VIP Centre Square Mall, Kochi",119.55509767142858,235,3,1,9.9778687,76.2831729,Internet Research,Kantara,Night,8.0,Cloudy,Yes,28
Kolkata,"Basusree, SP Mukherjee Road",187.80483726826088,1020,1,0,22.5226283,88.3462934,MediaAnt,Brahmastra,Afternoon,4.9,Rainy,No,35
Bangalore,Sri Lakshmi Theatre: Ramamurthy Nagar,100.0,618,1,0,13.0103,77.67387,"BookMyShow, MediaAnt",3 Idiots,Night,6.3,Humid,No,333
Mumbai,"INOX Laserplex: CR2, Nariman Point",496.005291,868,5,1,18.92648,72.82293,BookMyShow,Dangal,Morning,9.3,Sunny,No,624
Delhi,Amba Cinema: Delhi,128.0,486,1,0,28.67724,77.20104,BookMyShow,Pathaan,Afternoon,8.2,Humid,Yes,413
Hyderabad,Raghavendra 35mm: Malkajgiri,70.0,580,1,0,17.4513,78.53616,"BookMyShow, MediaAnt",Kabir Singh,Evening,3.8,Humid,No,211
Bangalore,"Super Talkies, Chickpet",183.50891304903843,619,1,0,12.9678583,77.5699123,MediaAnt,Sooryavanshi,Morning,5.3,Hot,Yes,556
Chennai,AGS Cinemas: T. Nagar,82.7,884,4,1,13.04745,80.24485,BookMyShow,Kantara,Evening,2.9,Cloudy,No,692
Bangalore,"PVR: Orion, Rajajinagar",285.3444444,2714,8,1,13.011,77.55509,"BookMyShow, MediaAnt",Kantara,Night,6.7,Humid,Yes,36
Mumbai,Movietime Star City: Matunga (W),172.375,366,1,0,19.0286,72.8436,BookMyShow,Pushpa,Morning,8.1,Hot,No,59
Mumbai,Nandi Cinema: National Library Road,65.0,762,1,0,19.05546,72.83874,BookMyShow,3 Idiots,Night,8.2,Rainy,Yes,512
Kolkata,"Mayur Cinema, Chittaranjan Avenue",187.80483726826088,853,1,0,22.5751236,88.3538911,MediaAnt,Jawan,Afternoon,5.9,Sunny,No,363
Chennai,"The Forum Vijaya Mall, Vadapalani",97.97240740555556,3010,9,1,13.0497383,80.2095368,MediaAnt,Kantara,Morning,5.9,Hot,Yes,1420
Bangalore,Pradeep Theatre: K.R.Market,183.50891304903843,305,1,0,12.963106,77.577049,Internet Research,Kantara,Night,9.8,Cloudy,No,299
Ahmedabad,City Gold: Ashram Road,159.9814815,1313,5,1,23.0319,72.56999,"BookMyShow, MediaAnt",RRR,Night,5.8,Sunny,Yes,1003
Mumbai,"KSS Miniplex, Kurla North",198.1442727463636,182,3,1,19.0819265,72.8861376,MediaAnt,Pushpa,Morning,8.1,Humid,No,138
Mumbai,Gold Cinema: Sona Borivali (E),151.6666667,259,1,0,19.23479,72.86494,BookMyShow,Brahmastra,Morning,9.8,Cloudy,No,113
Mumbai,"INOX: Raghuleela Mall, Kandivali (W)",194.4583333,1236,5,1,19.21345,72.84918,BookMyShow,Pathaan,Evening,2.9,Cloudy,No,564
Mumbai,"Royal Talkies, Falkland Road",198.1442727463636,708,1,0,18.9614956,72.8238455,MediaAnt,Jawan,Evening,5.4,Rainy,Yes,476
Bangalore,Innovative Multiplex: Marathahalli,180.0,1406,4,1,12.9519,77.69905,BookMyShow,Vikram,Evening,6.7,Humid,Yes,1089
Bangalore,Sharada Cinemas A/C: S.P Road,109.0,680,1,0,12.96528,77.58471,"BookMyShow, MediaAnt",Pathaan,Night,5.4,Stormy,No,163
Mumbai,Regal Cinema: Colaba,166.0,1178,1,0,18.92472,72.83243,BookMyShow,3 Idiots,Afternoon,5.4,Humid,No,677
Ahmedabad,Wide Angle: Ahmedabad,166.1531987,1400,5,1,23.02457,72.50745,"BookMyShow, Internet Research",Drishyam 2,Morning,6.7,Hot,No,1116
Bangalore,Thirumala Digital 2K Cinema: Agara,108.5,904,1,0,12.91991,77.64969,"BookMyShow, MediaAnt",3 Idiots,Night,5.1,Humid,No,529
Mumbai,Movietime: Malad,161.4444444,403,3,1,19.18909,72.83519,BookMyShow,RRR,Morning,7.6,Rainy,No,158
Chennai,Rakki Cinemas - Ambattur,97.97240740555556,361,1,0,13.1227657,80.1476317,Internet Research,Pushpa,Afternoon,5.4,Rainy,Yes,280
Mumbai,"KSS Miniplex, Kurla North",198.1442727463636,182,3,1,19.0819265,72.8861376,MediaAnt,Pathaan,Evening,1.0,Stormy,No,164
Bangalore,Sampige Digital 2k Cinema: Malleshwaram,150.0,1129,1,0,12.99307,77.5711,"BookMyShow, MediaAnt",Brahmastra,Night,3.6,Stormy,No,1086
Hyderabad,Manju Cinema: Kalasiguda,70.0,289,1,0,17.44048,78.4936,BookMyShow,KGF 2,Night,1.4,Stormy,Yes,270
Mumbai,Natraj Cinema: Chembur,65.0,746,1,0,19.06247,72.89922,BookMyShow,Vikram,Night,7.7,Humid,Yes,250
Mumbai,Sterling Cineplex: Fort,167.5416667,900,3,1,18.93838,72.83307,BookMyShow,Shershaah,Evening,7.1,Rainy,No,289
Kolkata,"Basusree, SP Mukherjee Road",187.80483726826088,1020,1,0,22.5226283,88.3462934,MediaAnt,Vikram,Morning,7.6,Humid,Yes,212
Mumbai,"PVR: Phoenix, Kotak IMAX, Lower Parel",267.3333333,444,1,0,18.9952,72.82407,BookMyShow,Brahmastra,Morning,3.3,Sunny,No,76
Hyderabad,"Srinivas Theatre, Allapur",95.06145388259615,461,1,0,17.4345092,78.4467967,MediaAnt,Kabir Singh,Evening,6.5,Humid,No,307
Mumbai,"Carnival: Harmony Mall, Oshiwara",160.06,433,2,1,19.15756,72.83473,BookMyShow,Pushpa,Evening,4.8,Hot,Yes,30
Kolkata,"INOX: Forum Mall, Elgin Road",231.1720833,1015,4,1,22.53844,88.3513,"BookMyShow, Internet Research",Pushpa,Afternoon,1.7,Hot,Yes,482
Bangalore,"Soundarya Mahal, Antharahalli",183.50891304903843,726,1,0,12.9032569,77.5861215,MediaAnt,Baahubali,Afternoon,1.7,Cloudy,Yes,389
Delhi,"PVR: Pacific, Delhi",446.3415179,1116,6,1,28.64269,77.10595,"BookMyShow, Internet Research",KGF 2,Evening,1.6,Humid,Yes,1080
Ahmedabad,"Sapna Cinema, Juhapura",149.09491512148148,1401,1,0,22.9855719,72.500771,MediaAnt,KGF 2,Evening,9.1,Sunny,No,1304
Mumbai,"Metro INOX Cinemas, Marine Lines",198.1442727463636,1342,5,1,18.9430131,72.8288781,Internet Research,Kabir Singh,Evening,4.4,Sunny,No,659
Bangalore,"Fame Shankarnag Chitramandira, Mahatma Gandhi Road",183.50891304903843,615,1,0,12.9743036,77.6098151,MediaAnt,Jawan,Morning,6.7,Rainy,No,288
Chennai,Albert Complex,97.97240740555556,1200,1,0,13.0761554,80.2638409,Internet Research,3 Idiots,Evening,5.3,Cloudy,No,1095
Bangalore,Sri Balaji Digital 2K Cinema: Viveknagar,175.0,415,1,0,12.95686,77.61944,"BookMyShow, MediaAnt",Vikram,Afternoon,6.3,Hot,No,49
Delhi,Miraj Cinemas: Subhash Nagar,231.8333333,470,2,1,28.63874,77.1069,BookMyShow,Pushpa,Night,7.8,Humid,Yes,57
Bangalore,"Srinivasa Chitra Mandira, Kadugodi",183.50891304903843,625,1,0,12.9885232,77.7660591,MediaAnt,3 Idiots,Evening,3.3,Rainy,Yes,475
Hyderabad,Asian Jyothi: RC Puram,90.0,520,1,0,17.50277,78.31221,BookMyShow,Brahmastra,Night,9.7,Sunny,Yes,300
Mumbai,New Excelsior Mukta A2 Cinemas: Fort,160.25,596,1,0,18.93768,72.83344,BookMyShow,Kantara,Night,3.2,Stormy,No,521
Bangalore,"PVR: VR, Bengaluru",257.2,932,5,1,12.99651,77.69526,BookMyShow,Jawan,Evening,7.3,Stormy,Yes,781
Bangalore,"Gopalan Miniplex: Signature Mall, Old Madras Road",260.3846154,157,3,1,12.99299,77.66188,BookMyShow,Pathaan,Night,5.4,Rainy,Yes,9
Delhi,Miraj Cinemas: Subhash Nagar,231.8333333,470,2,1,28.63874,77.1069,BookMyShow,Pushpa,Evening,9.6,Humid,No,156
Kolkata,INOX: Quest Mall,313.0919697,511,4,1,22.53914,88.36565,BookMyShow,Pathaan,Afternoon,6.9,Stormy,Yes,193
Bangalore,Gopalan Cinemas: Bannerghatta Road,261.1805556,852,3,1,12.91444,77.5994,"BookMyShow, MediaAnt",Sooryavanshi,Morning,5.8,Hot,No,476
Bangalore,Amruth Theatre: Lingarajapuram,127.5,926,1,0,13.01244,77.62621,"BookMyShow, MediaAnt",Pushpa,Night,4.9,Hot,No,78
Bangalore,"PVR: VR Gold, Bengaluru",697.025,1,4,1,12.99651,77.69526,BookMyShow,Shershaah,Afternoon,5.8,Cloudy,Yes,0
Chennai,"Pandian, Moolakadai",97.97240740555556,1002,1,0,13.1322548,80.2424585,MediaAnt,Shershaah,Night,1.5,Rainy,Yes,801
Bangalore,Rex Theatre: Brigade Road,185.0,707,1,0,12.97262,77.60663,BookMyShow,Vikram,Evening,4.0,Hot,No,116
Hyderabad,Asian M Cube Mall: Attapur,140.0,1014,4,1,17.37169,78.43027,BookMyShow,Kantara,Afternoon,8.9,Stormy,Yes,290
Bangalore,"PVR: Forum, Bengaluru",286.9333333,1590,10,1,12.93463,77.6113,"BookMyShow, MediaAnt",Pathaan,Afternoon,5.5,Cloudy,No,1313
Hyderabad,Asian Radhika Multiplex: ECIL,130.0,894,3,1,17.47656,78.56309,BookMyShow,3 Idiots,Afternoon,3.3,Cloudy,No,53
Bangalore,Sri Renuka Prasanna Theatre: J P Nagar,104.0,1078,1,0,12.91506,77.58783,"BookMyShow, Internet Research",Jawan,Evening,4.7,Stormy,No,168
Mumbai,Movietime Star City: Matunga (W),172.375,366,1,0,19.0286,72.8436,BookMyShow,Baahubali,Morning,7.7,Cloudy,No,294
Bangalore,"PVR: VR, Bengaluru",257.2,932,5,1,12.99651,77.69526,BookMyShow,Sooryavanshi,Afternoon,6.6,Cloudy,No,454
Bangalore,"7D Mastiii: Forum Value Mall, Whitefield",150.0,16,1,0,12.95972,77.74778,BookMyShow,Kabir Singh,Night,6.8,Hot,Yes,10
Delhi,Suraj Cinema - Najafgarh-NCR,301.8207102540476,519,1,0,28.6111587,76.9764621,Internet Research,Pushpa,Evening,4.6,Humid,No,73
Bangalore,"Lavanya, Sivan Chetty Gardens",183.50891304903843,786,1,0,12.9848012,77.6148355,MediaAnt,Vikram,Evening,7.9,Rainy,Yes,6
Mumbai,"Sheetal Cinema, Kurla North",198.1442727463636,993,1,0,19.0825802,72.8822279,MediaAnt,Vikram,Night,5.6,Rainy,Yes,148
Hyderabad,Ramakrishna 70MM - Indra Cinemas: Abids,87.5,724,1,0,17.38591,78.47678,BookMyShow,Baahubali,Morning,6.9,Rainy,Yes,543
Hyderabad,Rajdhani Deluxe Theatre: Dilsukhnagar,90.0,628,1,0,17.36897,78.52737,"BookMyShow, MediaAnt",Pathaan,Morning,2.1,Hot,No,506
Bangalore,"Shobha Talkies, Bhabuji Nagar",183.50891304903843,1000,1,0,12.9574781,77.543303,MediaAnt,Kabir Singh,Morning,4.5,Rainy,Yes,970
Kolkata,Mitra Cinema Hall: Kolkata,80.0,1146,1,0,22.59727,88.37205,"BookMyShow, Internet Research",Baahubali,Night,4.2,Stormy,No,637
Bangalore,"PVR: Forum, Bengaluru",286.9333333,1590,10,1,12.93463,77.6113,"BookMyShow, MediaAnt",Dangal,Night,1.9,Stormy,Yes,53
Mumbai,"Cinemax: Infiniti Mall, Malad (W)",252.310119,904,5,1,19.18512,72.83401,"BookMyShow, Internet Research",Sooryavanshi,Night,3.6,Hot,No,710
Hyderabad,"INOX: Maheshwari Parmeshwari Mall, Kachiguda",150.0,1021,5,1,17.39052,78.48862,BookMyShow,KGF 2,Afternoon,8.0,Hot,Yes,380
Bangalore,Thirumala Digital 2K Cinema: Agara,108.5,904,1,0,12.91991,77.64969,"BookMyShow, MediaAnt",Pushpa,Afternoon,4.0,Cloudy,Yes,788
Bangalore,Triveni Theatre: Gandhinagar,109.0,800,1,0,12.97628,77.57538,"BookMyShow, MediaAnt",Dangal,Morning,7.7,Rainy,No,592
Bangalore,"Manasa Theatre, Doddakallasandra",183.50891304903843,640,1,0,12.8906129,77.5622187,MediaAnt,Pathaan,Evening,2.0,Cloudy,No,40
Kolkata,Regal Cinema: Kolkata,80.0,500,1,0,22.56284,88.35266,"BookMyShow, MediaAnt",Dangal,Evening,3.3,Sunny,Yes,62
Hyderabad,"Sri Lakshmi Deluxe, Main Road",95.06145388259615,629,1,0,17.494647,78.3977,MediaAnt,KGF 2,Morning,4.7,Humid,No,518
Bangalore,Triveni Theatre: Gandhinagar,109.0,800,1,0,12.97628,77.57538,"BookMyShow, MediaAnt",RRR,Morning,6.0,Cloudy,Yes,629
Hyderabad,Asian Lakshmikala Cinepride: Moosapet,88.81481481,2403,4,1,17.46753,78.42831,BookMyShow,Pushpa,Morning,5.7,Stormy,Yes,471
Hyderabad,Manju Cinema: Kalasiguda,70.0,289,1,0,17.44048,78.4936,BookMyShow,Pathaan,Afternoon,7.9,Sunny,Yes,34
Hyderabad,Rajdhani Deluxe Theatre: Dilsukhnagar,90.0,628,1,0,17.36897,78.52737,"BookMyShow, MediaAnt",Drishyam 2,Afternoon,2.5,Stormy,Yes,160
Kolkata,Indira Cinema: Kolkata,80.0,733,1,0,22.52712,88.34657,"BookMyShow, Internet Research",Pathaan,Morning,2.1,Sunny,No,310
Bangalore,"Uma Theatre, Chamrajpet",183.50891304903843,984,1,0,12.9554065,77.567022,MediaAnt,Jawan,Morning,9.6,Rainy,No,260
Delhi,M Cinemas: East of Kailash (Gold Class),493.75,780,2,1,28.55923,77.24623,BookMyShow,Vikram,Morning,2.1,Humid,No,562
Chennai,"Bala Theatre, Anna Road",97.97240740555556,518,1,0,13.0949014,80.1855746,MediaAnt,Kantara,Morning,2.0,Humid,No,376
Hyderabad,Sree Ramana 70MM: Amberpet,100.0,1111,1,0,17.39247,78.51578,"BookMyShow, MediaAnt",Pathaan,Evening,8.1,Humid,Yes,314
Bangalore,Sangeet Theatre: Shivaji Nagar,115.0,860,1,0,12.98161,77.60294,"BookMyShow, MediaAnt",Sooryavanshi,Morning,2.8,Humid,Yes,597
Bangalore,"PVR: Orion, Rajajinagar",285.3444444,2714,8,1,13.011,77.55509,"BookMyShow, MediaAnt",Kantara,Night,1.6,Stormy,Yes,1635
Bangalore,Chandrodaya Digital 2K Cinema: Vidyapeeta Circle,110.0,960,1,0,12.93546,77.56129,BookMyShow,Kantara,Evening,5.6,Stormy,Yes,311
Mumbai,Carnival: R Mall Mulund,150.9619048,1353,4,1,19.18385,72.95173,BookMyShow,Shershaah,Morning,5.7,Humid,No,235
Delhi,"PVR: Select City Walk (Gold), Delhi",943.75,40,1,0,28.52857,77.21973,BookMyShow,KGF 2,Afternoon,6.1,Rainy,Yes,19
Delhi,"PVR: Plaza-CP, Delhi",366.6666667,300,1,0,28.63515,77.21966,BookMyShow,Drishyam 2,Evening,3.8,Stormy,No,290
Mumbai,"Moti Cinema, Ambewadi",198.1442727463636,745,1,0,18.9583336,72.8265371,MediaAnt,Kantara,Night,4.1,Rainy,Yes,345
Hyderabad,Rukmini Cinema: Patancheru,70.0,956,1,0,17.53212,78.26473,"BookMyShow, Internet Research",Pushpa,Evening,6.7,Rainy,No,80
Bangalore,Sri Balaji Digital 2K Cinema: Viveknagar,175.0,415,1,0,12.95686,77.61944,"BookMyShow, MediaAnt",Shershaah,Night,2.0,Stormy,Yes,90
Bangalore,"Ganesh Theatre, Attur",183.50891304903843,713,1,0,13.1001929,77.5872728,MediaAnt,KGF 2,Night,4.7,Sunny,Yes,373
Kolkata,"Regal Cinema, Dharmatala",187.80483726826088,500,1,0,22.5628269,88.3526567,MediaAnt,Drishyam 2,Afternoon,7.1,Stormy,No,218
Hyderabad,"PVR: Inorbit, Cyberabad",150.0,800,5,1,17.43505,78.38674,BookMyShow,Baahubali,Afternoon,2.9,Humid,Yes,713
Kochi,EVM Kavitha Theatre 2K UFO: Ernakulam,110.0,1220,4,1,9.978573,76.28262,"BookMyShow, MediaAnt",Kantara,Night,8.0,Cloudy,No,27
Ahmedabad,"Shree Balaji Agora Mall, Chandkheda",149.09491512148148,802,4,1,23.1144241,72.5679062,MediaAnt,Brahmastra,Morning,3.7,Rainy,No,751
Hyderabad,Nagendra: Karmanghat,80.0,711,1,0,17.34507,78.53179,"BookMyShow, MediaAnt",Baahubali,Afternoon,9.9,Rainy,Yes,659
Hyderabad,Devi 70mm 4K & Dolby Atmos: RTC X Roads,118.0,1200,1,0,17.40627,78.49504,"BookMyShow, Internet Research",Baahubali,Morning,2.3,Stormy,No,1044
Kolkata,"Liberty Cinema, Beadon Street",187.80483726826088,724,1,0,22.5887838,88.3632207,MediaAnt,Brahmastra,Evening,6.4,Stormy,Yes,158
Ahmedabad,Amber Cinema: Ahmedabad,100.8333333,763,1,0,23.03431,72.62002,BookMyShow,Vikram,Evening,9.3,Stormy,Yes,416
Kolkata,"INOX: South City, Kolkata",306.1619444,1426,6,1,22.50136,88.36196,"BookMyShow, MediaAnt",Brahmastra,Night,6.7,Humid,No,673
Hyderabad,SSV Cine Park: Patancheru,95.06145388259615,0,0,1,17.53196,78.27094,BookMyShow,KGF 2,Night,6.4,Hot,Yes,0
Hyderabad,Bhujanga 70MM: Jeedimetla,65.0,1311,1,0,17.5122,78.44861,"BookMyShow, MediaAnt",Dangal,Night,8.5,Humid,No,762
Bangalore,Sangeet Theatre: Shivaji Nagar,115.0,860,1,0,12.98161,77.60294,"BookMyShow, MediaAnt",Drishyam 2,Morning,9.6,Rainy,Yes,627
Mumbai,"RNA Play Cinema: Kalanagar, Bandra (E)",280.0,195,1,0,19.06131,72.85097,BookMyShow,Sooryavanshi,Night,2.0,Stormy,Yes,156
Hyderabad,Sai Ranga: Miyapur,76.66666667,1179,1,0,17.49551,78.35974,"BookMyShow, MediaAnt",Brahmastra,Evening,6.5,Cloudy,Yes,138
Hyderabad,Galaxy Cinema: Toli Chowki,70.0,704,1,0,17.40324,78.41086,"BookMyShow, Internet Research",Sooryavanshi,Night,1.3,Hot,No,428
Delhi,"Fun Cinemas: TDI Mall, Moti Nagar",198.1111111,643,3,1,28.65668,77.13945,BookMyShow,Sooryavanshi,Evening,2.5,Cloudy,No,289
Ahmedabad,"AB Miniplex: Shivranjini Cross Road, Satellite",125.6190476,302,3,1,23.02494,72.52938,BookMyShow,Kantara,Night,9.7,Rainy,No,159
Mumbai,Liberty Cinema: Marine Lines,145.0,1115,1,0,18.94143,72.82727,BookMyShow,Brahmastra,Afternoon,7.2,Cloudy,No,499
Kochi,Sarita Cinema: Kochi,110.0,2141,3,1,9.984626,76.27759,"BookMyShow, Internet Research",Drishyam 2,Evening,3.1,Sunny,No,998
Mumbai,Regal Cinema: Colaba,166.0,1178,1,0,18.92472,72.83243,BookMyShow,Sooryavanshi,Afternoon,1.1,Cloudy,Yes,443
Hyderabad,Rajyalakshmi 70mm: Uppal,55.0,662,1,0,17.39664,78.5603,BookMyShow,Baahubali,Morning,1.7,Rainy,No,315
Delhi,"Moti Cinema, Chandni Chowk",301.8207102540476,699,1,0,28.656595,77.235293,MediaAnt,Pathaan,Night,9.2,Cloudy,No,504
Bangalore,"Nalanda Theatre, Mysore Road",183.50891304903843,1090,1,0,12.9605832,77.5578493,MediaAnt,Shershaah,Afternoon,1.3,Rainy,No,79
Delhi,Shiela Cinema: Delhi,133.3333333,980,1,0,28.64457,77.21691,BookMyShow,Drishyam 2,Evening,9.7,Humid,No,631
Bangalore,Murali Gokula Digital 4K Cinema: Mathikere,118.0,900,1,0,13.03842,77.5526,"BookMyShow, MediaAnt",Kabir Singh,Afternoon,4.5,Stormy,Yes,584
Bangalore,"INOX: Mantri Square, Malleshwaram",399.0611111,1497,6,1,12.99216,77.5703,"BookMyShow, MediaAnt",Dangal,Afternoon,9.0,Humid,Yes,909
Bangalore,Murali Gokula Digital 4K Cinema: Mathikere,118.0,900,1,0,13.03842,77.5526,"BookMyShow, MediaAnt",3 Idiots,Morning,2.1,Stormy,No,86
Hyderabad,"ASR Cinemas, Madhuban Colony",95.06145388259615,609,1,0,17.3083079,78.4319946,MediaAnt,Pushpa,Night,1.1,Rainy,Yes,367
Mumbai,PVR ICON: Versova (Gold),616.6666667,86,2,1,19.14147,72.83059,BookMyShow,Baahubali,Evening,8.4,Rainy,Yes,41
Hyderabad,Kalyani Movie Max: Bowenpally,70.0,84,1,0,17.47373,78.47971,BookMyShow,Pathaan,Evening,9.2,Humid,No,5
Hyderabad,Vimal 70mm: Balanagar,80.0,1010,1,0,17.46361,78.45124,"BookMyShow, MediaAnt",Shershaah,Night,2.9,Stormy,No,267
Ahmedabad,Revolution Multiplex: Ahmedabad,148.75,423,4,1,22.99858,72.63548,BookMyShow,3 Idiots,Evening,6.1,Hot,No,273
Delhi,"Cinepolis: V3S Mall, Laxmi Nagar",236.7857143,836,3,1,28.63711,77.28606,"BookMyShow, MediaAnt",Pushpa,Night,3.0,Cloudy,No,752
Delhi,"Hans Cinema, G.T Karnal Road",301.8207102540476,900,1,0,28.7031355,77.1824101,MediaAnt,KGF 2,Evening,4.1,Hot,Yes,92
Kolkata,"Netro, Dum Dum",187.80483726826088,684,1,0,22.6210274,88.3928183,MediaAnt,Pushpa,Night,9.6,Sunny,Yes,483
Delhi,Delite Cinema: Asaf Ali Road,93.75,110,2,1,28.64122,77.23587,BookMyShow,3 Idiots,Morning,5.8,Sunny,Yes,67
Bangalore,Sri Renuka Prasanna Theatre: J P Nagar,104.0,1078,1,0,12.91506,77.58783,"BookMyShow, Internet Research",Shershaah,Afternoon,6.9,Stormy,Yes,289
Bangalore,Bhumika Digital 2K Cinema: Gandhinagar,135.0,894,1,0,12.97382,77.57964,"BookMyShow, MediaAnt",Vikram,Evening,6.4,Hot,Yes,530
Bangalore,"PVR: Market City, Bengaluru",306.2100122,1106,9,1,12.99725,77.69573,BookMyShow,Pushpa,Evening,8.7,Stormy,Yes,140
Mumbai,"Edward Talkies, Kalbadevi",198.1442727463636,509,1,0,18.945067,72.828944,MediaAnt,Kabir Singh,Night,1.9,Sunny,No,417
Kochi,"Kanoos Cinema, Panampilly Nagar",119.55509767142858,220,1,0,9.9598034,76.2892536,MediaAnt,Brahmastra,Night,6.9,Humid,Yes,6
Kolkata,Priya Cinema: Rashbehari Avenue,152.0,793,1,0,22.51794,88.35438,BookMyShow,Sooryavanshi,Night,5.8,Humid,Yes,137
Mumbai,Paradise E-Square Cinema: Mahim,102.2916667,502,1,0,19.0372,72.84256,BookMyShow,Kantara,Night,7.8,Sunny,No,207
Hyderabad,"Shiva Theatre, Chaithanyapuri Colony",95.06145388259615,974,1,0,17.3610291,78.5229013,MediaAnt,RRR,Afternoon,7.7,Rainy,Yes,302
Kochi,Q Cinemas: Gold Souk Grande,159.5384615,1236,4,1,9.977553,76.31627,"BookMyShow, MediaAnt",Kabir Singh,Night,3.3,Humid,Yes,893
Chennai,Devi Karumari A/C,97.97240740555556,850,1,0,13.0499059,80.1934024,Internet Research,Dangal,Morning,9.9,Humid,Yes,297
Mumbai,"Alankar Cinema, Ambewadi",198.1442727463636,942,1,0,18.9579554,72.8254315,MediaAnt,Sooryavanshi,Morning,2.6,Rainy,Yes,853
Mumbai,Maratha Mandir: Mumbai Central,60.0,1107,1,0,18.97133,72.82214,BookMyShow,Pathaan,Evening,6.7,Humid,Yes,144
Bangalore,Pradeep Theatre: K.R.Market,183.50891304903843,305,1,0,12.963106,77.577049,Internet Research,Sooryavanshi,Morning,4.6,Rainy,No,65
Bangalore,"7D Mastii: Element Mall, Nagwara",150.0,18,1,0,13.04541,77.6266,BookMyShow,3 Idiots,Afternoon,9.1,Stormy,Yes,1
Mumbai,"Akash Cinema, Kurla North",198.1442727463636,388,1,0,19.0668861,72.8786582,MediaAnt,Shershaah,Evening,3.0,Stormy,No,106
Hyderabad,Bhujanga 70MM: Jeedimetla,65.0,1311,1,0,17.5122,78.44861,"BookMyShow, MediaAnt",Pushpa,Evening,8.9,Stormy,No,189
Bangalore,"Uma Theatre, Chamrajpet",183.50891304903843,984,1,0,12.9554065,77.567022,MediaAnt,Jawan,Morning,2.8,Rainy,Yes,232
Mumbai,"INOX: R-City, Ghatkopar",357.0008547,1220,9,1,19.09982,72.91545,BookMyShow,RRR,Morning,7.1,Stormy,No,365
Ahmedabad,Rajhans Cinemas: Satadhar,124.2296296,1080,4,1,23.06663,72.53127,"BookMyShow, Internet Research",Baahubali,Evening,5.3,Sunny,Yes,314
Bangalore,Venkateshwara A/c Digital 2K Cinema: K.R.Puram,104.0,877,1,0,13.00525,77.69667,BookMyShow,KGF 2,Morning,9.5,Sunny,No,309
Bangalore,Akash Cinemas (Rajeshwari Theatre): Laggere,125.0,780,1,0,13.01481,77.51611,"BookMyShow, MediaAnt",Vikram,Evening,7.3,Hot,Yes,419
Kolkata,11D Adventureplex: Quest Mall,250.0,30,1,0,22.52575,88.35952,"BookMyShow, Internet Research",Sooryavanshi,Morning,5.3,Hot,No,3
Mumbai,"INOX: Nakshatra Mall, Dadar (W)",167.3333333,272,1,0,19.0199,72.84133,BookMyShow,Dangal,Morning,4.8,Humid,Yes,51
Bangalore,"Sri Madeswara Chitra Mandira, Bangalore",183.50891304903843,1250,1,0,12.9156484,77.5633059,MediaAnt,Kantara,Afternoon,6.7,Hot,Yes,951
Hyderabad,Glory Cinema: Mallepally,95.06145388259615,486,1,0,17.39404,78.45831,BookMyShow,RRR,Morning,7.1,Cloudy,Yes,30
Hyderabad,Sampoorna 70mm: Vanasthalipuram,85.0,865,1,0,17.33121,78.57603,"BookMyShow, MediaAnt",Kantara,Night,5.0,Stormy,No,119
Hyderabad,Asian Swapna 35mm: Katedan,90.0,272,1,0,17.31143,78.43869,"BookMyShow, MediaAnt",Dangal,Afternoon,3.3,Cloudy,No,96
Chennai,Raj Theatre - A/C DTS: Chennai,175.0,950,1,0,13.0196,80.22324,BookMyShow,Brahmastra,Evening,6.1,Sunny,No,278
Hyderabad,Padmavati Cinema: Kachiguda,60.0,490,1,0,17.39063,78.4916,"BookMyShow, MediaAnt",Pathaan,Evening,6.3,Sunny,No,86
Bangalore,"Narendra Talkies, Arabic College",183.50891304903843,500,1,0,13.026733,77.62075,MediaAnt,3 Idiots,Afternoon,6.4,Rainy,Yes,489
Bangalore,Vinayaka Theatre: Harinagar,80.0,850,1,0,12.87488,77.57015,"BookMyShow, MediaAnt",Kantara,Evening,3.1,Cloudy,No,749
Mumbai,"INOX: Neelyog, Ghatkopar (E)",159.4047619,915,4,1,19.08522,72.90917,BookMyShow,3 Idiots,Morning,3.9,Humid,No,869
Bangalore,Cinesquare Savitha Theatre: Malleshwaram,133.3333333,350,1,0,12.99296,77.57113,"BookMyShow, Internet Research",Pathaan,Afternoon,5.1,Stormy,No,149
Chennai,"Krishnaveni, South Usman Raod",97.97240740555556,898,1,0,13.0346055,80.2307106,MediaAnt,Pushpa,Afternoon,1.9,Rainy,No,185
Hyderabad,"INOX: GVK One, Banjara Hills",200.0,1257,6,1,17.4195,78.44861,"BookMyShow, MediaAnt",Baahubali,Afternoon,2.8,Stormy,No,591
Kolkata,London Paris: Mukti World Ballygunge,237.0,298,2,1,22.52623,88.36665,BookMyShow,Baahubali,Night,7.8,Cloudy,No,13
Kochi,"Evm Cinema Studio, KSRTC Road",119.55509767142858,1220,4,1,9.9468236,76.2556623,MediaAnt,RRR,Evening,6.4,Humid,No,386
Delhi,"PVR: 3CS, Delhi",247.7777778,315,1,0,28.56778,77.24099,BookMyShow,Pathaan,Evening,8.2,Humid,No,221
Bangalore,Akash Cinemas (Rajeshwari Theatre): Laggere,125.0,780,1,0,13.01481,77.51611,"BookMyShow, MediaAnt",Shershaah,Night,5.4,Cloudy,Yes,17
Hyderabad,Vyjayanthi Cinema: Nacharam,100.0,711,1,0,17.42889,78.55238,"BookMyShow, MediaAnt",Sooryavanshi,Morning,4.4,Humid,Yes,369
Mumbai,"Carnival: Dreams Mall, Bhandup",138.2121212,1334,6,1,19.14617,72.93694,"BookMyShow, MediaAnt",Vikram,Night,5.1,Sunny,Yes,154
Mumbai,Central Plaza: Girgaon,171.3333333,517,1,0,18.95464,72.81875,BookMyShow,3 Idiots,Night,6.5,Rainy,No,268
Ahmedabad,City Gold: Motera,111.5,728,2,1,23.09203,72.59319,BookMyShow,Vikram,Night,3.4,Humid,Yes,532
Chennai,Udhayam Complex,97.97240740555556,759,1,0,12.9596264,80.2433274,Internet Research,Pathaan,Morning,2.5,Stormy,No,742
Bangalore,Aruna Theatre: Srirampuram,109.0,936,1,0,12.98679,77.56722,"BookMyShow, MediaAnt",Baahubali,Morning,5.4,Hot,Yes,76
Hyderabad,Yadagiri Theatre: Santosh Nagar,75.0,1076,1,0,17.34657,78.50888,"BookMyShow, MediaAnt",RRR,Evening,1.0,Cloudy,No,929
Hyderabad,Viswanath 70MM Theater: Kukatpally,80.0,1204,1,0,17.49677,78.39703,"BookMyShow, MediaAnt",Brahmastra,Afternoon,2.9,Hot,No,381
Mumbai,Paradise E-Square Cinema: Mahim,102.2916667,502,1,0,19.0372,72.84256,BookMyShow,Shershaah,Morning,6.0,Humid,Yes,32
Delhi,Amba Cinema: Delhi,128.0,486,1,0,28.67724,77.20104,BookMyShow,Kantara,Evening,6.2,Sunny,Yes,423
Ahmedabad,"PVR: Motera, Ahmedabad",154.3333333,1102,4,1,23.10273,72.59521,"BookMyShow, Internet Research",KGF 2,Evening,1.1,Sunny,No,926
Mumbai,Sun City: Vile Parle,180.2083333,615,2,1,19.10541,72.84651,BookMyShow,Kabir Singh,Evening,4.2,Cloudy,Yes,602
Delhi,"Moti Cinema, Chandni Chowk",301.8207102540476,699,1,0,28.656595,77.235293,MediaAnt,Sooryavanshi,Morning,7.6,Stormy,Yes,125
Chennai,Ega Cinema,97.97240740555556,1168,2,1,13.0778725,80.2404635,Internet Research,Sooryavanshi,Night,7.5,Hot,Yes,176
Mumbai,"INOX Laserplex: CR2, Nariman Point",496.005291,868,5,1,18.92648,72.82293,BookMyShow,Dangal,Evening,6.9,Sunny,Yes,184
Hyderabad,Tivoli Cinema: Extreme,118.0,912,1,0,17.44724,78.49246,"BookMyShow, MediaAnt",Pushpa,Evening,1.4,Rainy,No,741
Kolkata,11D Adventureplex: Quest Mall,250.0,30,1,0,22.52575,88.35952,"BookMyShow, Internet Research",Jawan,Night,8.2,Cloudy,No,16
Kolkata,"INOX: Forum Mall, Elgin Road",231.1720833,1015,4,1,22.53844,88.3513,"BookMyShow, Internet Research",Drishyam 2,Night,9.5,Sunny,Yes,878
Bangalore,Galaxy Paradise: Screen 2,160.0,120,1,0,12.89108,77.62648,"BookMyShow, Internet Research",RRR,Evening,5.5,Stormy,No,3
Hyderabad,Shiva Parvathi Cinema: Kukatpally,100.0,1116,1,0,17.4966,78.39707,"BookMyShow, MediaAnt",Pathaan,Night,8.2,Stormy,No,664
Kolkata,"Kamal Talkies, Garden Reach",187.80483726826088,848,1,0,22.5485444,88.2891741,MediaAnt,Kantara,Evening,7.6,Cloudy,Yes,657
Hyderabad,Sridevi Cinema: Chilakalguda,80.0,903,1,0,17.43143,78.51297,"BookMyShow, MediaAnt",RRR,Morning,4.2,Hot,No,236
Bangalore,Aruna Theatre: Srirampuram,109.0,936,1,0,12.98679,77.56722,"BookMyShow, MediaAnt",Kabir Singh,Evening,8.4,Stormy,No,454
Chennai,Maharani Theatre 2K dts,97.97240740555556,910,1,0,13.1175008,80.2842433,Internet Research,Kantara,Afternoon,3.7,Humid,Yes,727
Hyderabad,Sree Ramana 70MM: Amberpet,100.0,1111,1,0,17.39247,78.51578,"BookMyShow, MediaAnt",Vikram,Night,5.4,Sunny,Yes,122
Bangalore,Sharada Cinemas A/C: S.P Road,109.0,680,1,0,12.96528,77.58471,"BookMyShow, MediaAnt",Dangal,Night,6.7,Sunny,Yes,173
Bangalore,Rajarajeshwari Theatre: Nagarbhavi Circle,90.0,1080,1,0,12.95695,77.50206,"BookMyShow, MediaAnt",KGF 2,Evening,6.4,Hot,No,222
Hyderabad,Bhujanga 70MM: Jeedimetla,65.0,1311,1,0,17.5122,78.44861,"BookMyShow, MediaAnt",3 Idiots,Afternoon,6.6,Hot,No,831
Hyderabad,Sushma Cinema: Vanasthalipuram,100.0,1022,1,0,17.3358,78.57353,"BookMyShow, MediaAnt",Sooryavanshi,Evening,3.7,Cloudy,No,49
Bangalore,"Narendra Talkies, Arabic College",183.50891304903843,500,1,0,13.026733,77.62075,MediaAnt,Shershaah,Night,5.3,Stormy,Yes,38
Hyderabad,"ASR Cinemas, Madhuban Colony",95.06145388259615,609,1,0,17.3083079,78.4319946,MediaAnt,3 Idiots,Morning,2.4,Cloudy,No,362
Hyderabad,BR Hitech 70mm: Madhapur,80.0,528,1,0,17.44442,78.38823,"BookMyShow, Internet Research",Jawan,Night,6.2,Humid,Yes,464
Hyderabad,Sri Krishna 70MM: Uppal,70.0,939,1,0,17.40084,78.56788,"BookMyShow, MediaAnt",RRR,Evening,3.8,Sunny,No,775
Kolkata,"INOX: Swabhumi, Maulana Azad Sarani",166.7109259,1022,4,1,22.57114,88.40126,"BookMyShow, MediaAnt",3 Idiots,Night,6.8,Sunny,No,617
Mumbai,PVR ICON: Versova (Gold),616.6666667,86,2,1,19.14147,72.83059,BookMyShow,Kabir Singh,Morning,7.3,Humid,No,29
Kolkata,7D Adventure Plex: Mani Square Mall,200.0,32,1,0,22.57758,88.4006,BookMyShow,KGF 2,Night,1.6,Cloudy,No,21
Chennai,Anna Theatre: Chennai,94.6,364,1,0,13.06717,80.27129,"BookMyShow, Internet Research",Kantara,Afternoon,1.4,Rainy,Yes,245
Hyderabad,Priya Theatre: Malleypally,80.0,750,1,0,17.39049,78.4549,"BookMyShow, MediaAnt",Dangal,Night,2.2,Hot,No,213
Hyderabad,"INOX: Maheshwari Parmeshwari Mall, Kachiguda",150.0,1021,5,1,17.39052,78.48862,BookMyShow,Jawan,Night,5.6,Sunny,Yes,771
Kolkata,INOX: Hiland Park,171.452381,934,4,1,22.48339,88.39075,BookMyShow,Dangal,Morning,6.8,Hot,No,198
Hyderabad,Sree Ramana 70MM: Amberpet,100.0,1111,1,0,17.39247,78.51578,"BookMyShow, MediaAnt",Sooryavanshi,Night,5.3,Hot,No,144
Hyderabad,"PVR: Panjagutta, Hyderabad",150.0,1322,5,1,17.42675,78.45295,BookMyShow,Sooryavanshi,Evening,7.2,Sunny,Yes,873
Bangalore,"Pushpanjali Talkies, Dinnur Main Road",183.50891304903843,1330,1,0,13.0218949,77.6031292,MediaAnt,Brahmastra,Morning,9.4,Humid,Yes,60
Hyderabad,Devi 70mm 4K & Dolby Atmos: RTC X Roads,118.0,1200,1,0,17.40627,78.49504,"BookMyShow, Internet Research",Pushpa,Morning,4.5,Sunny,No,1078
Bangalore,"INOX: Forum Neighbourhood Mall, Whitefield",301.3636364,725,5,1,12.9595,77.74789,BookMyShow,Sooryavanshi,Night,4.4,Hot,Yes,442
Mumbai,"KSS Miniplex, Kurla North",198.1442727463636,182,3,1,19.0819265,72.8861376,MediaAnt,Shershaah,Morning,7.0,Stormy,No,91
Hyderabad,Sensation Insomnia: Khairatabad,80.0,555,1,0,17.40693,78.46363,"BookMyShow, MediaAnt",Brahmastra,Evening,3.2,Humid,Yes,307
Kolkata,"Crown Cinema, Dharmatala",187.80483726826088,1056,1,0,22.5598378,88.3582877,MediaAnt,Dangal,Evening,5.2,Cloudy,No,341
Chennai,Kasi4K Dolby Atmos,97.97240740555556,733,1,0,13.0294637,80.2084348,Internet Research,Dangal,Morning,9.8,Stormy,No,702
Hyderabad,"Yakut Mahal Talkies, Yakutpura",95.06145388259615,521,1,0,17.3616553,78.4857269,MediaAnt,3 Idiots,Morning,2.7,Sunny,Yes,382
Mumbai,"Movietime: The Hub, Goregaon",178.6022487,1320,7,1,19.1548,72.85626,"BookMyShow, MediaAnt",3 Idiots,Night,5.5,Humid,Yes,985
Kolkata,Bina Cinema - Kolkatta,187.80483726826088,775,1,0,22.5814515,88.3658105,Internet Research,3 Idiots,Afternoon,8.2,Humid,No,530
Mumbai,"INOX: Inorbit Mall, Malad (W)",279.2494444,1212,7,1,19.17238,72.83547,BookMyShow,Kabir Singh,Night,2.8,Stormy,Yes,830
Hyderabad,Satyam Theatre: Ameerpet,60.0,1243,1,0,17.43715,78.44877,"BookMyShow, Internet Research",Sooryavanshi,Morning,9.9,Sunny,No,177
Hyderabad,SVC Sangeetha Theatre: RC Puram,100.0,590,1,0,17.51352,78.2866,"BookMyShow, Internet Research",Vikram,Afternoon,9.3,Sunny,No,235
Hyderabad,Tarakarama Cineplex: Kachiguda,90.0,980,1,0,17.39065,78.48796,"BookMyShow, MediaAnt",Sooryavanshi,Evening,4.4,Cloudy,Yes,760
Delhi,"PVR: Plaza-CP, Delhi",366.6666667,300,1,0,28.63515,77.21966,BookMyShow,Dangal,Afternoon,8.2,Sunny,Yes,266
Ahmedabad,"Usha Talkies, Gomtipur",149.09491512148148,550,1,0,23.017995,72.6152555,MediaAnt,Pushpa,Night,1.7,Sunny,No,35
Bangalore,Ravi Digital 2K Cinema: Ejipura,109.0,820,1,0,12.95124,77.62217,"BookMyShow, Internet Research",Shershaah,Evening,1.2,Sunny,No,383
Mumbai,"RNA Play Cinema: Kalanagar, Bandra (E)",280.0,195,1,0,19.06131,72.85097,BookMyShow,Pushpa,Night,9.7,Rainy,Yes,144
Kolkata,"Elite Cinema, Dharmatala",187.80483726826088,1258,1,0,22.5630154,88.3538713,MediaAnt,Sooryavanshi,Morning,3.1,Cloudy,No,879
Mumbai,Regal Cinema: Colaba,166.0,1178,1,0,18.92472,72.83243,BookMyShow,Dangal,Morning,2.0,Rainy,No,30
Mumbai,"Carnival: Moviestar, Goregaon",123.8589744,1366,7,1,19.1513,72.84638,"BookMyShow, MediaAnt",Shershaah,Evening,7.9,Hot,No,655
Bangalore,Aruna Theatre: Srirampuram,109.0,936,1,0,12.98679,77.56722,"BookMyShow, MediaAnt",Pushpa,Evening,7.7,Rainy,Yes,245
Hyderabad,Alankar (Pratap Theatre): Langer House,100.0,774,1,0,17.37651,78.4196,"BookMyShow, Internet Research",Dangal,Morning,4.3,Sunny,No,532
Bangalore,"Sri Madeswara Chitra Mandira, Bangalore",183.50891304903843,1250,1,0,12.9156484,77.5633059,MediaAnt,Vikram,Evening,7.2,Sunny,Yes,1006
Delhi,"PVR: Priya, Delhi",266.25,944,1,0,28.55732,77.16449,BookMyShow,RRR,Afternoon,7.5,Hot,Yes,764
Delhi,Abhishek Cineplex: Chandni Chowk,96.46666667,260,1,0,28.65628,77.2342,BookMyShow,3 Idiots,Morning,5.1,Hot,Yes,260
Hyderabad,Shanti Theatre: Narayanaguda,86.66666667,1035,1,0,17.39622,78.48986,"BookMyShow, MediaAnt",Jawan,Afternoon,5.6,Humid,No,215
Bangalore,Sri Kokila Theatre: Hosakerehalli,80.0,650,1,0,12.93363,77.5373,"BookMyShow, Internet Research",3 Idiots,Morning,4.3,Cloudy,No,1
Mumbai,Movietime Suburbia: Bandra (W),458.9,189,1,0,19.06099,72.83685,"BookMyShow, MediaAnt",Kabir Singh,Night,3.4,Sunny,Yes,161
Hyderabad,Rajdhani Deluxe Theatre: Dilsukhnagar,90.0,628,1,0,17.36897,78.52737,"BookMyShow, MediaAnt",Jawan,Afternoon,4.8,Rainy,No,20
Kolkata,Prachi Cinema: Kolkata,80.0,784,1,0,22.56487,88.36829,"BookMyShow, MediaAnt",Baahubali,Morning,3.2,Hot,Yes,212
Mumbai,"PVR: Phoenix, Kotak IMAX, Lower Parel",267.3333333,444,1,0,18.9952,72.82407,BookMyShow,Vikram,Afternoon,7.3,Humid,No,296
Hyderabad,Asian Sha: Chintal,85.0,716,1,0,17.4922,78.45173,BookMyShow,Sooryavanshi,Afternoon,6.8,Rainy,Yes,396
Bangalore,Pushpanjali A/C Theatre: B.N. Pura,125.0,999,1,0,12.99809,77.67521,"BookMyShow, MediaAnt",Kabir Singh,Night,8.6,Sunny,No,287
Hyderabad,Asian M Cube Mall: Attapur,140.0,1014,4,1,17.37169,78.43027,BookMyShow,Jawan,Morning,5.4,Sunny,Yes,642
Chennai,Woodlands Complex: Chennai,69.5,1713,2,1,13.05656,80.26497,"BookMyShow, MediaAnt",Dangal,Night,3.0,Sunny,No,24
Bangalore,Vaibhavi A/C Theatre: Uttarahalli,105.0,715,1,0,12.90348,77.54415,"BookMyShow, MediaAnt",Pushpa,Evening,5.6,Humid,No,389
Hyderabad,"PVR: RK Cineplex, Hyderabad",200.0,1034,3,1,17.42332,78.42792,"BookMyShow, Internet Research",Baahubali,Morning,9.2,Stormy,Yes,242
Bangalore,"Shobha Talkies, Bhabuji Nagar",183.50891304903843,1000,1,0,12.9574781,77.543303,MediaAnt,Sooryavanshi,Afternoon,9.8,Cloudy,No,641
Hyderabad,Padmavati Cinema: Kachiguda,60.0,490,1,0,17.39063,78.4916,"BookMyShow, MediaAnt",Dangal,Evening,8.0,Hot,Yes,341
Bangalore,7D VR Voyage: Garuda Mall,190.0,8,1,0,12.97004,77.60999,BookMyShow,Pushpa,Afternoon,6.3,Rainy,Yes,3
Kolkata,"Netro, Dum Dum",187.80483726826088,684,1,0,22.6210274,88.3928183,MediaAnt,Jawan,Evening,5.6,Humid,Yes,46
Hyderabad,Shiva Parvathi Cinema: Kukatpally,100.0,1116,1,0,17.4966,78.39707,"BookMyShow, MediaAnt",Kantara,Morning,8.2,Stormy,No,339
Delhi,"Cinepolis: Unity One Mall Rohini, Delhi",350.1319444,659,4,1,28.71513,77.11631,"BookMyShow, MediaAnt",Pushpa,Afternoon,6.7,Sunny,No,276
Hyderabad,"Sapthagiri 70Mm, Ashoknagar",95.06145388259615,1150,1,0,17.40743,78.496222,MediaAnt,3 Idiots,Morning,7.6,Humid,Yes,981
Hyderabad,Raghavendra Mini: Malkajgiri,70.0,385,1,0,17.4513,78.53616,"BookMyShow, MediaAnt",Jawan,Night,9.3,Cloudy,Yes,374
Mumbai,PVR ICON: Versova (Gold),616.6666667,86,2,1,19.14147,72.83059,BookMyShow,Drishyam 2,Afternoon,5.1,Hot,Yes,72
Bangalore,"PVR: Vaishnavi Sapphire Mall, Bengaluru",222.1363636,1058,6,1,13.02414,77.54897,BookMyShow,Drishyam 2,Afternoon,1.0,Stormy,Yes,102
Kolkata,"Star Theatre, Bidhan Sarani",187.80483726826088,685,1,0,22.5972365,88.3719017,MediaAnt,Pathaan,Afternoon,7.0,Cloudy,Yes,161
Hyderabad,Asian GPR Multiplex: Kukatpally,162.5,1143,3,1,17.49923,78.39067,BookMyShow,Sooryavanshi,Morning,5.6,Stormy,No,451
Chennai,"Mayura, Arakonam Road",97.97240740555556,474,1,0,13.0997993,80.1698389,MediaAnt,KGF 2,Night,1.6,Hot,No,164
Bangalore,Venkateshwara Digital 2K Cinema: Avalahalli Girina,100.0,363,1,0,12.94351,77.54797,BookMyShow,Dangal,Evening,8.2,Cloudy,No,158
Ahmedabad,City Gold: Bapunagar,101.1666667,419,4,1,23.03743,72.61513,"BookMyShow, MediaAnt",Baahubali,Night,2.0,Cloudy,Yes,104
Mumbai,"Gulshan Cinema, Ambewadi",198.1442727463636,725,1,0,18.9611893,72.8237326,MediaAnt,RRR,Evening,4.2,Rainy,Yes,7
Mumbai,Sangeeta Cineplex: Malad,128.45,178,1,0,19.18976,72.85168,BookMyShow,Brahmastra,Afternoon,6.3,Cloudy,No,106
Bangalore,Sri Kokila Theatre: Hosakerehalli,80.0,650,1,0,12.93363,77.5373,"BookMyShow, Internet Research",Jawan,Evening,4.5,Humid,No,468
Hyderabad,Shama Cinema: Hyderabad,46.66666667,712,1,0,17.34158,78.46565,"BookMyShow, MediaAnt",3 Idiots,Night,4.0,Hot,No,464
Hyderabad,Padmavati Cinema: Kachiguda,60.0,490,1,0,17.39063,78.4916,"BookMyShow, MediaAnt",Sooryavanshi,Afternoon,8.7,Rainy,No,369
Hyderabad,Talluri Theatres: Kushaiguda,69.5,1148,3,1,17.47771,78.57246,"BookMyShow, Internet Research",Jawan,Morning,8.9,Cloudy,No,423
Hyderabad,Rajdhani 70mm: Dilsukhnagar,80.0,1050,1,0,17.36855,78.52989,"BookMyShow, MediaAnt",Kabir Singh,Evening,8.9,Humid,Yes,553
Mumbai,"Moti Cinema, Ambewadi",198.1442727463636,745,1,0,18.9583336,72.8265371,MediaAnt,Kantara,Evening,4.4,Humid,Yes,499
Delhi,"PVR: Select City Walk (Gold), Delhi",943.75,40,1,0,28.52857,77.21973,BookMyShow,Pushpa,Morning,2.4,Hot,Yes,2
Bangalore,"PVR: Market City (4DX), Bengaluru",450.0,100,1,0,12.99725,77.69573,BookMyShow,Baahubali,Evening,3.1,Humid,No,41
Chennai,Devi Karumari A/C,97.97240740555556,850,1,0,13.0499059,80.1934024,Internet Research,Kantara,Night,1.5,Stormy,Yes,456
Chennai,Udhayam Complex,97.97240740555556,759,1,0,12.9596264,80.2433274,Internet Research,Dangal,Night,3.2,Hot,Yes,384
Mumbai,"Imperial Cinema Pvt Ltd., Ambewadi",198.1442727463636,816,1,0,18.9585704,72.8174214,MediaAnt,RRR,Morning,4.0,Cloudy,No,516
Bangalore,Akash Cinemas (Rajeshwari Theatre): Laggere,125.0,780,1,0,13.01481,77.51611,"BookMyShow, MediaAnt",Shershaah,Night,6.0,Rainy,No,551
Hyderabad,Venkatadri Cinema 70MM: Dilsukhnagar,90.0,1263,1,0,17.36799,78.52345,"BookMyShow, MediaAnt",Pushpa,Afternoon,7.0,Cloudy,No,221
Delhi,DT Cinemas: Savitri Complex GK2,238.8888889,300,1,0,28.54135,77.24011,BookMyShow,Kantara,Evening,4.1,Sunny,Yes,135
Chennai,Albert Complex,97.97240740555556,1200,1,0,13.0761554,80.2638409,Internet Research,Pathaan,Afternoon,7.5,Stormy,Yes,482
Mumbai,Sun City: Vile Parle,180.2083333,615,2,1,19.10541,72.84651,BookMyShow,Shershaah,Night,9.7,Cloudy,No,567
Bangalore,"Uma Theatre, Chamrajpet",183.50891304903843,984,1,0,12.9554065,77.567022,MediaAnt,Pushpa,Afternoon,8.7,Cloudy,No,22
Mumbai,"Carnival: Harmony Mall, Oshiwara",160.06,433,2,1,19.15756,72.83473,BookMyShow,Kabir Singh,Afternoon,9.5,Stormy,No,72
Bangalore,"Super Talkies, Chickpet",183.50891304903843,619,1,0,12.9678583,77.5699123,MediaAnt,Vikram,Morning,4.1,Sunny,No,449
Delhi,"PVR: Naraina, Delhi",221.6666667,830,4,1,28.63308,77.13889,"BookMyShow, MediaAnt",Pushpa,Morning,5.9,Cloudy,Yes,487
Delhi,Q Cinemas: Shahdara,185.4166667,601,3,1,28.67512,77.28808,BookMyShow,Drishyam 2,Afternoon,2.3,Cloudy,No,367
Chennai,"Roopam, Poonamallee High Road",97.97240740555556,288,1,0,13.0797983,80.2025852,MediaAnt,Pushpa,Morning,3.2,Humid,No,1
Mumbai,"Carnival: Harmony Mall, Oshiwara",160.06,433,2,1,19.15756,72.83473,BookMyShow,Kabir Singh,Morning,9.3,Rainy,Yes,61
Chennai,Arvind Theatre A/C dts,97.97240740555556,445,1,0,12.9153435,80.2297244,Internet Research,Pathaan,Afternoon,9.8,Stormy,Yes,337
Bangalore,"Tulsi Chitra Mandira, Marathalli",183.50891304903843,800,1,0,12.956319,77.6981967,MediaAnt,Sooryavanshi,Evening,3.7,Rainy,Yes,676
Ahmedabad,Anupam Cinema: Ahmedabad,125.8333333,781,1,0,23.00656,72.61333,BookMyShow,Dangal,Evening,9.9,Humid,No,211
Hyderabad,Shama Cinema: Hyderabad,46.66666667,712,1,0,17.34158,78.46565,"BookMyShow, MediaAnt",Kantara,Afternoon,9.6,Cloudy,Yes,630
Hyderabad,Sree Ramulu 70mm: Moosapet,70.0,849,1,0,17.46784,78.42939,"BookMyShow, MediaAnt",Vikram,Afternoon,2.0,Hot,No,99
Mumbai,Premiere Cinema: Dadar (E),132.5,465,1,0,19.00752,72.84061,BookMyShow,Dangal,Night,3.4,Sunny,Yes,117
Bangalore,"PVR: Forum, Bengaluru",286.9333333,1590,10,1,12.93463,77.6113,"BookMyShow, MediaAnt",Pushpa,Evening,6.5,Humid,No,1460
Mumbai,"PVR: Citi Mall, Andheri (W)",265.4938272,864,4,1,19.13854,72.83122,"BookMyShow, MediaAnt",Kabir Singh,Evening,9.9,Stormy,Yes,63
Hyderabad,Santosh Cinemas: Abids,90.0,812,1,0,17.39103,78.47569,"BookMyShow, Internet Research",3 Idiots,Morning,1.9,Hot,Yes,387
Bangalore,Sri Vinayaka Digital 2K Cinema (D.J.Halli),109.0,850,1,0,13.0144,77.60564,"BookMyShow, MediaAnt",Shershaah,Night,7.4,Sunny,No,609
Ahmedabad,"Usha Talkies, Gomtipur",149.09491512148148,550,1,0,23.017995,72.6152555,MediaAnt,RRR,Night,7.1,Rainy,Yes,507
Mumbai,"Carnival: IMAX, Wadala",196.5968254,1634,5,1,19.03122,72.881,"BookMyShow, MediaAnt",3 Idiots,Morning,9.3,Cloudy,Yes,1279
Hyderabad,Konark: Dilsukhnagar,80.0,1026,1,0,17.3686,78.51865,"BookMyShow, MediaAnt",Shershaah,Night,2.1,Stormy,No,968
Mumbai,Sterling Cineplex: Fort,167.5416667,900,3,1,18.93838,72.83307,BookMyShow,Baahubali,Morning,2.8,Hot,No,459
Hyderabad,"Cinepolis: Mantra Mall, Attapur",200.0,1094,5,1,17.35388,78.4206,BookMyShow,Shershaah,Evening,4.6,Sunny,Yes,324
Chennai,Casino Theatre: Chennai,59.0,83,1,0,13.06868,80.27017,BookMyShow,Kabir Singh,Evening,4.8,Humid,No,36
Bangalore,Vaibhavi A/C Theatre: Uttarahalli,105.0,715,1,0,12.90348,77.54415,"BookMyShow, MediaAnt",Kantara,Morning,3.0,Rainy,No,640
Bangalore,"Ganesh Theatre, Attur",183.50891304903843,713,1,0,13.1001929,77.5872728,MediaAnt,Vikram,Morning,8.6,Stormy,Yes,117
Ahmedabad,"Hanjar Cinema, Gandhi Ashram",149.09491512148148,995,1,0,23.0263983,72.6040875,MediaAnt,Sooryavanshi,Morning,9.9,Cloudy,Yes,517
Bangalore,"Anand Theatre, No-268",183.50891304903843,947,1,0,13.011335,77.609965,MediaAnt,Pushpa,Evening,3.3,Cloudy,Yes,439
Hyderabad,"PVR: RK Cineplex, Hyderabad",200.0,1034,3,1,17.42332,78.42792,"BookMyShow, Internet Research",Brahmastra,Evening,6.6,Cloudy,Yes,641
Kochi,Padma Cinema Screen 1: Ernakulam,105.0,324,1,0,9.981755,76.2826,BookMyShow,KGF 2,Evening,9.6,Humid,Yes,68
Mumbai,"INOX Laserplex: CR2, Nariman Point",496.005291,868,5,1,18.92648,72.82293,BookMyShow,Shershaah,Morning,8.3,Humid,Yes,730
Hyderabad,Shiva Parvathi Cinema: Kukatpally,100.0,1116,1,0,17.4966,78.39707,"BookMyShow, MediaAnt",Pushpa,Afternoon,2.3,Stormy,No,190
Bangalore,"Shobha Talkies, Bhabuji Nagar",183.50891304903843,1000,1,0,12.9574781,77.543303,MediaAnt,Pushpa,Afternoon,8.8,Sunny,Yes,590
Ahmedabad,City Gold: Bopal,152.3571429,462,4,1,23.02869,72.47856,BookMyShow,3 Idiots,Night,6.2,Stormy,Yes,86
Ahmedabad,"Cinepolis: Alpha One Mall, Ahmedabad",197.9494949,1136,6,1,23.03952,72.53199,"BookMyShow, MediaAnt",Sooryavanshi,Morning,4.7,Rainy,Yes,1132
Chennai,"PVR: Ampa, Chennai",82.7,1794,7,1,13.07359,80.22138,"BookMyShow, MediaAnt",Pathaan,Morning,6.9,Hot,No,1139
Chennai,"Thirumurugan, Ambattur",97.97240740555556,510,1,0,13.1212603,80.1513583,MediaAnt,Brahmastra,Morning,7.4,Rainy,Yes,436
Bangalore,"Ascendas Park Square Mall, EPIP",183.50891304903843,779,4,1,12.987032,77.736366,MediaAnt,Vikram,Morning,7.1,Stormy,No,582
Bangalore,Vaibhavi A/C Theatre: Uttarahalli,105.0,715,1,0,12.90348,77.54415,"BookMyShow, MediaAnt",Sooryavanshi,Morning,6.6,Hot,Yes,673
Hyderabad,Select Talkies: Bolaram,60.0,566,1,0,17.51147,78.51067,"BookMyShow, MediaAnt",Baahubali,Afternoon,8.1,Sunny,Yes,456
Hyderabad,Shama Cinema: Hyderabad,46.66666667,712,1,0,17.34158,78.46565,"BookMyShow, MediaAnt",Pathaan,Morning,7.0,Stormy,Yes,235
Hyderabad,"Sapthagiri 70Mm, Ashoknagar",95.06145388259615,1150,1,0,17.40743,78.496222,MediaAnt,Kabir Singh,Night,4.9,Rainy,No,208
Delhi,"PVR: Anupam, Delhi",170.6018519,1000,4,1,28.52374,77.20716,"BookMyShow, Internet Research",Drishyam 2,Night,3.3,Rainy,Yes,893
Chennai,Murugan Cinemas - AmbatturDolby Atmos,97.97240740555556,960,1,0,13.1135444,80.1572574,Internet Research,RRR,Evening,9.4,Humid,No,342
Bangalore,Chandrodaya Digital 2K Cinema: Vidyapeeta Circle,110.0,960,1,0,12.93546,77.56129,BookMyShow,Pushpa,Night,6.9,Stormy,Yes,521
Mumbai,Miraj Anupam Cinemas: Goregaon (E),146.1666667,490,2,1,19.16545,72.85126,BookMyShow,Pathaan,Morning,5.2,Humid,No,226
Bangalore,Kapali Theatre: Gandhi Nagar,100.0,1475,1,0,12.97791,77.57578,"BookMyShow, MediaAnt",KGF 2,Night,9.2,Sunny,Yes,1113
Hyderabad,Asian M Cube Mall: Attapur,140.0,1014,4,1,17.37169,78.43027,BookMyShow,KGF 2,Afternoon,8.0,Sunny,Yes,782
Kochi,Padma Cinema Screen 2: Ernakulam,110.0,98,1,0,9.981755,76.2826,BookMyShow,RRR,Night,9.6,Cloudy,Yes,30
Chennai,"The Forum Vijaya Mall, Vadapalani",97.97240740555556,3010,9,1,13.0497383,80.2095368,MediaAnt,Drishyam 2,Morning,5.7,Humid,No,2118
Kolkata,"Chabighar, Parsibagan",187.80483726826088,646,1,0,22.5795878,88.3724625,MediaAnt,Jawan,Night,3.4,Hot,No,83
Bangalore,"Padma Theatre, Amruthahalli",183.50891304903843,600,1,0,13.0687241,77.6026388,MediaAnt,Kabir Singh,Night,3.6,Stormy,No,292
Mumbai,"Shalimar Cinema, Bharat Nagar",198.1442727463636,704,1,0,18.9616462,72.8210111,MediaAnt,Dangal,Afternoon,2.9,Hot,Yes,697
Bangalore,"PVR: VR Gold, Bengaluru",697.025,1,4,1,12.99651,77.69526,BookMyShow,Sooryavanshi,Night,5.1,Sunny,Yes,1
Bangalore,Gopalan Grand Mall: Old Madras Road,256.1111111,1030,4,1,12.99336,77.66397,"BookMyShow, MediaAnt",Jawan,Evening,3.4,Cloudy,Yes,547
Delhi,"Cinepolis: Cross River Mall, Mall, Shahdara",249.375,1191,4,1,28.65681,77.30189,BookMyShow,Pathaan,Evening,5.6,Stormy,No,12
Mumbai,Plaza Cinema: Dadar,227.5,691,1,0,19.02185,72.84276,BookMyShow,Vikram,Morning,3.7,Humid,Yes,153
Mumbai,"Alankar Cinema, Ambewadi",198.1442727463636,942,1,0,18.9579554,72.8254315,MediaAnt,Drishyam 2,Morning,9.5,Stormy,No,665
Bangalore,"INOX Lido: Off MG Road, Ulsoor",338.4166667,1259,5,1,12.97324,77.62128,BookMyShow,Dangal,Morning,1.3,Cloudy,No,38
Ahmedabad,"Mukta A2 Cinemas: Gulmohar Park Mall, Satellite Rd",151.2708333,404,4,1,23.02655,72.50996,"BookMyShow, MediaAnt",Pathaan,Afternoon,7.7,Stormy,No,86
Bangalore,"PVR: Pepsi IMAX, Koramangala",365.0,346,1,0,12.93455,77.61109,BookMyShow,KGF 2,Afternoon,2.3,Hot,Yes,242
Bangalore,Vaishnavi A/C Theatre: Uttarahalli,120.0,800,1,0,12.90348,77.54415,"BookMyShow, MediaAnt",Kabir Singh,Morning,8.5,Humid,No,525
Delhi,"Moti Cinema, Chandni Chowk",301.8207102540476,699,1,0,28.656595,77.235293,MediaAnt,Brahmastra,Afternoon,4.5,Cloudy,No,71
Hyderabad,Megha Theatre: Dilsukhnagar,90.0,795,1,0,17.36796,78.52666,BookMyShow,Kantara,Night,6.5,Cloudy,No,624
Bangalore,Movie Land,183.50891304903843,648,1,0,12.9788182,77.5755948,Internet Research,Drishyam 2,Evening,10.0,Stormy,No,373
Bangalore,HMT Digital 4K Cinema: Jalahalli,150.0,874,1,0,13.0495,77.5439,BookMyShow,Baahubali,Evening,8.9,Sunny,No,815
Kolkata,"INOX: Swabhumi, Maulana Azad Sarani",166.7109259,1022,4,1,22.57114,88.40126,"BookMyShow, MediaAnt",Kantara,Afternoon,8.2,Hot,Yes,72
Bangalore,Sandhya Digital 4K Projection Dolby Atmos: Madiwal,125.0,720,1,0,12.92101,77.61794,"BookMyShow, MediaAnt",Dangal,Afternoon,1.6,Humid,No,335
Hyderabad,SVC Mahalakshmi Screen 1: Kothapet,100.0,659,1,0,17.36944,78.53973,"BookMyShow, Internet Research",Kantara,Afternoon,8.8,Sunny,No,386
Hyderabad,Select Talkies: Bolaram,60.0,566,1,0,17.51147,78.51067,"BookMyShow, MediaAnt",Pushpa,Morning,2.8,Cloudy,No,239
Hyderabad,"Sri Sai Ram Theatre, MainRoad",95.06145388259615,600,1,0,17.368235,78.526694,MediaAnt,KGF 2,Night,2.0,Hot,No,402
Ahmedabad,Rajhans Cinemas: Nikol,114.5055556,741,3,1,23.05089,72.66758,BookMyShow,Drishyam 2,Afternoon,7.6,Humid,Yes,199
Hyderabad,BR Hitech 70mm: Madhapur,80.0,528,1,0,17.44442,78.38823,"BookMyShow, Internet Research",KGF 2,Evening,1.0,Stormy,No,355
Kolkata,Menoka Cinema: Kolkata,130.0,790,1,0,22.51115,88.35068,"BookMyShow, Internet Research",Drishyam 2,Night,9.9,Hot,Yes,190
Delhi,"Vishal Cinema, Janta Market",301.8207102540476,1401,1,0,28.6555642,77.118129,MediaAnt,Vikram,Evening,3.5,Rainy,No,915
Mumbai,"Ashish Theatre, Chembur Extension",198.1442727463636,1000,1,0,19.039534,72.89525,MediaAnt,Kabir Singh,Afternoon,2.6,Stormy,Yes,411
Chennai,Sangam Cinemas,97.97240740555556,1662,3,1,13.0794633,80.2492933,Internet Research,Brahmastra,Afternoon,7.9,Sunny,No,402
Chennai,Nadhamuni Cinema,97.97240740555556,650,1,0,13.1034052,80.2022335,Internet Research,Drishyam 2,Evening,2.2,Stormy,No,60
Kolkata,"Prabhat Cinema, Barabazar",187.80483726826088,700,1,0,22.5789136,88.3606355,MediaAnt,Kantara,Night,3.1,Cloudy,No,352
Bangalore,Vijayalakshmi Digital 2K Cinema: Garudacharpalya,100.0,671,1,0,12.99348,77.70187,"BookMyShow, MediaAnt",Pushpa,Night,5.3,Stormy,Yes,7
Chennai,"Mahalakshmi Talkies, Strahans Road",97.97240740555556,1040,1,0,13.0975215,80.256593,MediaAnt,Shershaah,Afternoon,7.6,Hot,No,183
Bangalore,Abhinay Theatre: Gandhi Nagar,130.0,1019,1,0,12.97354,77.57755,"BookMyShow, MediaAnt",Kantara,Evening,2.3,Hot,No,459
Bangalore,"Deepak Theatre, Mahatma Gandhi Road",183.50891304903843,525,1,0,12.997947,77.5405319,MediaAnt,Kantara,Night,2.1,Stormy,Yes,153
Bangalore,Sri Renuka Prasanna Theatre: J P Nagar,104.0,1078,1,0,12.91506,77.58783,"BookMyShow, Internet Research",Sooryavanshi,Morning,7.1,Humid,No,908
Kolkata,"Aleya Cinema, Ballygunge RS",187.80483726826088,447,1,0,22.52022,88.367129,MediaAnt,RRR,Afternoon,7.7,Humid,Yes,37
Chennai,"INOX: Chennai Citi Centre, Dr. RK Salai",153.6,528,4,1,13.04295,80.27379,BookMyShow,Pathaan,Evening,5.3,Hot,Yes,88
Bangalore,HMT Digital 4K Cinema: Jalahalli,150.0,874,1,0,13.0495,77.5439,BookMyShow,Jawan,Afternoon,5.9,Cloudy,No,307
Hyderabad,"Sri Lakshmi Deluxe, Main Road",95.06145388259615,629,1,0,17.494647,78.3977,MediaAnt,Pushpa,Afternoon,6.6,Rainy,Yes,78
Mumbai,"Palace Talkies, V J B Udyan",198.1442727463636,724,1,0,18.9759324,72.8331947,MediaAnt,Pushpa,Morning,8.6,Cloudy,Yes,204
Bangalore,"Fame Shankarnag Chitramandira, Mahatma Gandhi Road",183.50891304903843,615,1,0,12.9743036,77.6098151,MediaAnt,Sooryavanshi,Evening,8.1,Stormy,Yes,433
Bangalore,"PVR: Orion, Rajajinagar",285.3444444,2714,8,1,13.011,77.55509,"BookMyShow, MediaAnt",Drishyam 2,Night,6.7,Hot,No,510
Hyderabad,Indra: Karmanghat,80.0,112,1,0,17.34507,78.53179,BookMyShow,Kabir Singh,Night,8.2,Stormy,Yes,89
Mumbai,"INOX: Nakshatra Mall, Dadar (W)",167.3333333,272,1,0,19.0199,72.84133,BookMyShow,Drishyam 2,Afternoon,5.1,Sunny,No,207
Bangalore,"INOX: Garuda Mall, Magrath Road",337.1212121,1103,5,1,12.97009,77.60943,"BookMyShow, MediaAnt",Kabir Singh,Night,9.9,Rainy,Yes,1081
Bangalore,"INOX: Central, JP Nagar, Mantri Junction",343.0347222,1118,4,1,12.9164,77.59241,"BookMyShow, MediaAnt",Jawan,Afternoon,6.5,Sunny,No,212
Mumbai,"Imperial Cinema Pvt Ltd., Ambewadi",198.1442727463636,816,1,0,18.9585704,72.8174214,MediaAnt,RRR,Evening,7.5,Rainy,No,678
Delhi,"PVR: Select City Walk, Delhi",523.1349206,677,5,1,28.52857,77.21973,BookMyShow,Kabir Singh,Afternoon,6.7,Hot,No,218
Ahmedabad,Miraj City Pulse: Ahmedabad,158.7590909,936,4,1,23.01467,72.5964,BookMyShow,Kabir Singh,Afternoon,2.3,Humid,Yes,72
Mumbai,PVR ICON: Versova (Gold),616.6666667,86,2,1,19.14147,72.83059,BookMyShow,Shershaah,Afternoon,1.1,Rainy,Yes,22
Bangalore,"Uma Theatre, Chamrajpet",183.50891304903843,984,1,0,12.9554065,77.567022,MediaAnt,KGF 2,Afternoon,7.8,Stormy,No,270
Delhi,"PVR: Plaza-CP, Delhi",366.6666667,300,1,0,28.63515,77.21966,BookMyShow,RRR,Afternoon,8.9,Hot,No,214
Hyderabad,Tivoli Cinema: Extreme,118.0,912,1,0,17.44724,78.49246,"BookMyShow, MediaAnt",Baahubali,Morning,2.4,Stormy,No,697
Chennai,"Krishnaveni, South Usman Raod",97.97240740555556,898,1,0,13.0346055,80.2307106,MediaAnt,Brahmastra,Morning,2.9,Hot,No,840
Mumbai,"Moti Cinema, Ambewadi",198.1442727463636,745,1,0,18.9583336,72.8265371,MediaAnt,Shershaah,Night,6.6,Hot,No,331
Delhi,Movietime: Pitampura,168.3928571,788,3,1,28.70582,77.14283,"BookMyShow, Internet Research",Jawan,Evening,9.1,Hot,Yes,355
Delhi,Gagan Cinema: Delhi,62.5,982,1,0,28.69635,77.31493,"BookMyShow, MediaAnt",Sooryavanshi,Morning,7.8,Cloudy,No,873
Chennai,"INOX: Chennai Citi Centre, Dr. RK Salai",153.6,528,4,1,13.04295,80.27379,BookMyShow,Kabir Singh,Morning,6.9,Hot,Yes,321
Hyderabad,BR Hitech 70mm: Madhapur,80.0,528,1,0,17.44442,78.38823,"BookMyShow, Internet Research",Jawan,Morning,1.5,Rainy,Yes,52
Mumbai,Miraj Anupam Cinemas: Goregaon (E),146.1666667,490,2,1,19.16545,72.85126,BookMyShow,Kabir Singh,Morning,1.0,Sunny,No,263
Bangalore,Eshwari Digital 2K Cinema: Banashankari,108.3333333,918,1,0,12.92359,77.55344,"BookMyShow, MediaAnt",Shershaah,Morning,4.4,Rainy,Yes,883
Hyderabad,"INOX: GVK One, Banjara Hills",200.0,1257,6,1,17.4195,78.44861,"BookMyShow, MediaAnt",RRR,Night,3.3,Sunny,No,639
Mumbai,"Super Cinema, Bharat Nagar",198.1442727463636,822,1,0,18.9620626,72.8209921,MediaAnt,Pathaan,Afternoon,8.6,Rainy,Yes,774
Ahmedabad,"Hanjar Cinema, Gandhi Ashram",149.09491512148148,995,1,0,23.0263983,72.6040875,MediaAnt,Vikram,Night,8.6,Humid,No,299
Bangalore,Sangeet Theatre: Shivaji Nagar,115.0,860,1,0,12.98161,77.60294,"BookMyShow, MediaAnt",Jawan,Afternoon,6.3,Rainy,Yes,819
Mumbai,"INOX: Raghuleela Mall, Kandivali (W)",194.4583333,1236,5,1,19.21345,72.84918,BookMyShow,Dangal,Afternoon,1.4,Humid,Yes,403
Mumbai,Gold Cinema: Dadar (E),155.0,245,1,0,19.00916,72.84208,BookMyShow,RRR,Night,8.6,Hot,Yes,150
Bangalore,Rex Theatre: Brigade Road,185.0,707,1,0,12.97262,77.60663,BookMyShow,Kantara,Evening,5.5,Humid,No,168
Hyderabad,Ranga Theatre: Jeedimetla,80.0,1329,1,0,17.51207,78.44833,"BookMyShow, MediaAnt",Baahubali,Evening,1.4,Humid,No,677
Bangalore,"7D Mastii: Element Mall, Nagwara",150.0,18,1,0,13.04541,77.6266,BookMyShow,3 Idiots,Evening,6.6,Humid,No,4
Hyderabad,Rajdhani Deluxe Theatre: Dilsukhnagar,90.0,628,1,0,17.36897,78.52737,"BookMyShow, MediaAnt",Brahmastra,Morning,1.9,Stormy,Yes,442
Mumbai,"Kamran Theatre, Kurla North",198.1442727463636,432,1,0,19.077327,72.8788352,MediaAnt,Drishyam 2,Morning,6.8,Rainy,Yes,170
Hyderabad,Sampoorna 70mm: Vanasthalipuram,85.0,865,1,0,17.33121,78.57603,"BookMyShow, MediaAnt",Pushpa,Afternoon,8.6,Hot,Yes,679
Mumbai,PVR ICON: Versova (Gold),616.6666667,86,2,1,19.14147,72.83059,BookMyShow,Kantara,Morning,3.6,Hot,Yes,23
Bangalore,Sri Vajreshwari Theatre: Ullal,110.0,844,1,0,12.94238,77.48814,"BookMyShow, MediaAnt",Kantara,Evening,5.4,Stormy,No,417
Mumbai,"Silver Cinema, Ambewadi",198.1442727463636,636,1,0,18.9586775,72.8254684,MediaAnt,Pathaan,Afternoon,4.5,Hot,No,573
Bangalore,"Cinepolis: Orion East Mall, Banaswadi",244.5454545,1097,5,1,13.00121,77.63265,"BookMyShow, MediaAnt",Kabir Singh,Evening,6.9,Hot,No,986
Kolkata,"Ellora Cinema, Behala Municipal Market",187.80483726826088,2080,2,1,22.5000008,88.31873,MediaAnt,Vikram,Night,2.1,Rainy,No,1942
Bangalore,"Prasanna Theatre, Magadi Road",183.50891304903843,1100,1,0,12.9740859,77.5520529,MediaAnt,KGF 2,Evening,1.9,Cloudy,No,915
Mumbai,Chandan Cinema: Juhu,155.75,587,1,0,19.1147,72.8269,BookMyShow,Dangal,Morning,4.9,Sunny,Yes,290
Chennai,"Bala Theatre, Anna Road",97.97240740555556,518,1,0,13.0949014,80.1855746,MediaAnt,Jawan,Afternoon,3.4,Sunny,Yes,391
Mumbai,"Cinemax: R Odeon Mall, Ghatkopar (E)",158.3928571,1250,4,1,19.0796,72.90937,"BookMyShow, Internet Research",Pushpa,Afternoon,7.0,Stormy,No,286
Bangalore,Sri Renuka Prasanna Theatre: J P Nagar,104.0,1078,1,0,12.91506,77.58783,"BookMyShow, Internet Research",Pushpa,Evening,4.2,Hot,Yes,65
Kolkata,"Prabhat Cinema, Barabazar",187.80483726826088,700,1,0,22.5789136,88.3606355,MediaAnt,KGF 2,Night,2.6,Humid,Yes,371
Mumbai,"Amar Theatre, Chembur",198.1442727463636,1155,1,0,19.0523111,72.9101544,MediaAnt,Sooryavanshi,Night,2.6,Sunny,Yes,589
Delhi,"PVR: Anupam, Delhi",170.6018519,1000,4,1,28.52374,77.20716,"BookMyShow, Internet Research",Vikram,Evening,2.7,Rainy,Yes,22
Mumbai,Le Reve (Globus): Bandra (W),195.5,259,1,0,19.05605,72.83383,BookMyShow,Brahmastra,Morning,6.2,Sunny,No,215
Kolkata,"Ellora Cinema, Behala Municipal Market",187.80483726826088,2080,2,1,22.5000008,88.31873,MediaAnt,Pushpa,Night,7.4,Humid,No,1495
Mumbai,"PVR: Phoenix, Lower Parel",337.8737374,1760,7,1,18.9952,72.82407,BookMyShow,Vikram,Afternoon,2.7,Rainy,Yes,38
Mumbai,Maxus Cinemas: Saki Naka,194.9404762,951,4,1,19.09339,72.88374,BookMyShow,Pathaan,Morning,1.0,Rainy,No,801
Bangalore,Sri Vinayaka A/C Digital 2K Cinemas: Varthur,138.3333333,531,1,0,12.93572,77.74443,"BookMyShow, Internet Research",Kabir Singh,Evening,7.6,Sunny,Yes,254
Mumbai,"Nishat Talkies, Falkland Road",198.1442727463636,691,1,0,18.9620811,72.8237374,MediaAnt,Baahubali,Night,5.1,Rainy,No,184
Bangalore,Sri Venkateshwara Theatre: Kengeri,100.0,500,1,0,12.90644,77.48277,"BookMyShow, MediaAnt",Pathaan,Morning,8.4,Sunny,No,306
Mumbai,Gold Cinema: Sona Borivali (E),151.6666667,259,1,0,19.23479,72.86494,BookMyShow,Dangal,Evening,6.0,Sunny,No,142
Bangalore,"PVR: Arena Mahadevapura, Bengaluru",233.5353535,1084,6,1,12.97991,77.69319,"BookMyShow, MediaAnt",Shershaah,Night,2.8,Hot,Yes,230
Chennai,"Sri Murugan, Ambattur",97.97240740555556,960,1,0,13.100996,80.164051,MediaAnt,Dangal,Evening,7.2,Hot,Yes,683
Delhi,"PVR: Sangam, Delhi",312.2321429,392,2,1,28.57239,77.1735,BookMyShow,Drishyam 2,Morning,4.4,Humid,Yes,123
Delhi,Wave: Raja Garden,269.1666667,777,4,1,28.65193,77.1208,BookMyShow,Kantara,Night,1.9,Humid,No,715
Bangalore,Vaibhav Digital 4K Cinema: Sanjaynagar,142.3333333,935,1,0,13.03558,77.57463,"BookMyShow, Internet Research",Brahmastra,Afternoon,9.8,Cloudy,No,293
Delhi,PVR: Shalimar Bagh,311.0714286,1142,4,1,28.70282,77.15833,"BookMyShow, MediaAnt",3 Idiots,Morning,1.2,Cloudy,No,750
Mumbai,Sangeeta Cineplex: Malad,128.45,178,1,0,19.18976,72.85168,BookMyShow,Drishyam 2,Night,9.3,Rainy,No,176
Mumbai,"Carnival: IMAX, Wadala",196.5968254,1634,5,1,19.03122,72.881,"BookMyShow, MediaAnt",Baahubali,Morning,2.8,Sunny,Yes,110
Hyderabad,Carnival: Ameerpet,150.0,1361,4,1,17.43026,78.44846,BookMyShow,Baahubali,Morning,5.2,Hot,No,996
Mumbai,Central Plaza: Girgaon,171.3333333,517,1,0,18.95464,72.81875,BookMyShow,Baahubali,Morning,9.7,Sunny,No,426
Bangalore,"Nalanda Theatre, Mysore Road",183.50891304903843,1090,1,0,12.9605832,77.5578493,MediaAnt,Brahmastra,Afternoon,8.4,Hot,Yes,1088
Ahmedabad,Rajhans Cinemas: Satadhar,124.2296296,1080,4,1,23.06663,72.53127,"BookMyShow, Internet Research",3 Idiots,Night,5.3,Humid,Yes,440
Delhi,Gagan Cinema: Delhi,62.5,982,1,0,28.69635,77.31493,"BookMyShow, MediaAnt",KGF 2,Evening,8.3,Rainy,Yes,434
Hyderabad,Ranga Theatre: Jeedimetla,80.0,1329,1,0,17.51207,78.44833,"BookMyShow, MediaAnt",Shershaah,Afternoon,7.2,Sunny,No,988
Delhi,G3S Cinema: Rohini,228.5714286,809,3,1,28.73469,77.11376,BookMyShow,Jawan,Night,8.0,Stormy,Yes,746
Delhi,"PVR: 3CS, Delhi",247.7777778,315,1,0,28.56778,77.24099,BookMyShow,RRR,Afternoon,9.1,Humid,No,247
Chennai,Kumaran Theatre QUBE A/C DTS: Madipakkam,0.0,1008,1,0,12.97191,80.19214,"BookMyShow, Internet Research",Baahubali,Night,9.1,Humid,No,681
Kolkata,"INOX: Swabhumi, Maulana Azad Sarani",166.7109259,1022,4,1,22.57114,88.40126,"BookMyShow, MediaAnt",KGF 2,Morning,6.0,Humid,No,539
Hyderabad,Raghavendra Mini: Malkajgiri,70.0,385,1,0,17.4513,78.53616,"BookMyShow, MediaAnt",Baahubali,Evening,1.2,Sunny,Yes,117
Bangalore,"Mohan Theatre, Magadi Main Road",183.50891304903843,956,1,0,12.9987083,77.5035393,MediaAnt,Sooryavanshi,Morning,1.8,Rainy,Yes,451
Kolkata,INOX: Quest Mall (Insignia),608.3333333,162,3,1,22.53914,88.36565,BookMyShow,Pathaan,Evening,4.8,Humid,Yes,149
Hyderabad,Amba Theatre: Mehdipatnam,100.0,64,1,0,17.39167,78.44133,BookMyShow,Brahmastra,Evening,2.0,Rainy,No,50
Bangalore,Galaxy Paradise: Screen 2,160.0,120,1,0,12.89108,77.62648,"BookMyShow, Internet Research",Drishyam 2,Evening,2.3,Rainy,Yes,52
Hyderabad,Prasads: Hyderabad,150.0,2230,6,1,17.33215,78.47,"BookMyShow, MediaAnt",Sooryavanshi,Evening,7.0,Sunny,No,1073
Hyderabad,Asian Ganga: Dilsukhnagar,85.0,707,1,0,17.36117,78.5231,BookMyShow,3 Idiots,Night,1.1,Hot,Yes,541
Hyderabad,"Cinepolis: Manjeera Mall, Kukatpally",200.0,1405,5,1,17.48978,78.39322,BookMyShow,Baahubali,Night,2.9,Humid,No,658
Delhi,"Fun Cinemas: TDI Mall, Moti Nagar",198.1111111,643,3,1,28.65668,77.13945,BookMyShow,RRR,Evening,4.7,Sunny,Yes,524
Delhi,"PVR: Anupam, Delhi",170.6018519,1000,4,1,28.52374,77.20716,"BookMyShow, Internet Research",Drishyam 2,Morning,9.0,Cloudy,Yes,394
Bangalore,"Fame Shankarnag Chitramandira, Mahatma Gandhi Road",183.50891304903843,615,1,0,12.9743036,77.6098151,MediaAnt,Sooryavanshi,Morning,4.7,Hot,No,85
Bangalore,Sri Krishna Digital 2K Cinema: Bommanahalli,100.0,800,1,0,12.90535,77.62936,"BookMyShow, MediaAnt",Sooryavanshi,Afternoon,7.4,Hot,No,693
Bangalore,"PVR: MSR Elements Mall, Bengaluru",288.0883838,1383,7,1,13.04516,77.62658,"BookMyShow, MediaAnt",Pathaan,Morning,9.7,Cloudy,Yes,689
Mumbai,"KSS Miniplex, Kurla North",198.1442727463636,182,3,1,19.0819265,72.8861376,MediaAnt,Kantara,Morning,4.4,Hot,No,44
Chennai,"Spectrum Mall, Perambur North",97.97240740555556,1395,5,1,13.1122465,80.2363247,MediaAnt,Dangal,Evening,3.3,Sunny,Yes,1329
Mumbai,Maratha Mandir: Mumbai Central,60.0,1107,1,0,18.97133,72.82214,BookMyShow,Jawan,Evening,5.1,Sunny,Yes,284
Bangalore,Gopalan Cinemas: Bannerghatta Road,261.1805556,852,3,1,12.91444,77.5994,"BookMyShow, MediaAnt",Jawan,Evening,1.1,Sunny,No,683
Mumbai,Regal Cinema: Colaba,166.0,1178,1,0,18.92472,72.83243,BookMyShow,Baahubali,Morning,2.0,Rainy,Yes,831
Delhi,"7D Mastiii: TDI Mall, Rajouri Garden, Delhi",170.0,18,1,0,28.65083,77.12087,BookMyShow,Baahubali,Night,1.4,Cloudy,No,13
Bangalore,"Padma Theatre, Amruthahalli",183.50891304903843,600,1,0,13.0687241,77.6026388,MediaAnt,Baahubali,Night,7.1,Sunny,No,138
Hyderabad,"Brahmarambha 70 Mm, Hyder nagar",95.06145388259615,861,1,0,17.5000891,78.386969,MediaAnt,KGF 2,Evening,9.8,Sunny,No,634
Bangalore,Carnival: Rockline Mall,179.4444444,1011,4,1,13.04075,77.51825,"BookMyShow, MediaAnt",Baahubali,Evening,8.9,Rainy,Yes,699
Mumbai,"INOX Laserplex: CR2, Nariman Point",496.005291,868,5,1,18.92648,72.82293,BookMyShow,Baahubali,Night,4.5,Humid,No,460
Chennai,"Sri Murugan, Ambattur",97.97240740555556,960,1,0,13.100996,80.164051,MediaAnt,Sooryavanshi,Morning,6.4,Stormy,No,114
Mumbai,"Carnival: Annex Mall, Borivali",174.1092593,636,4,1,19.21546,72.86812,"BookMyShow, MediaAnt",KGF 2,Evening,3.0,Rainy,Yes,239
Ahmedabad,"Mukta A2 Cinemas: Gulmohar Park Mall, Satellite Rd",151.2708333,404,4,1,23.02655,72.50996,"BookMyShow, MediaAnt",Baahubali,Morning,8.0,Humid,No,1
Chennai,"Udhayam Theatre, Ashoknagar",97.97240740555556,759,1,0,13.0346888,80.2103968,MediaAnt,RRR,Night,9.6,Humid,Yes,508
Hyderabad,Raghavendra Mini: Malkajgiri,70.0,385,1,0,17.4513,78.53616,"BookMyShow, MediaAnt",KGF 2,Night,9.2,Humid,No,226
Kolkata,"Kamal Talkies, Garden Reach",187.80483726826088,848,1,0,22.5485444,88.2891741,MediaAnt,Vikram,Morning,7.0,Rainy,Yes,298
Bangalore,"Cinepolis: Orion East Mall, Banaswadi",244.5454545,1097,5,1,13.00121,77.63265,"BookMyShow, MediaAnt",Baahubali,Morning,3.2,Stormy,Yes,1067
Mumbai,"Alankar Cinema, Ambewadi",198.1442727463636,942,1,0,18.9579554,72.8254315,MediaAnt,Jawan,Night,1.7,Cloudy,No,201
Bangalore,Sri Lakshmi Theatre: Ramamurthy Nagar,100.0,618,1,0,13.0103,77.67387,"BookMyShow, MediaAnt",Drishyam 2,Night,5.3,Humid,Yes,478
Bangalore,"The Cinema GT World: Magadi Rd, Bengaluru",195.8333333,1155,5,1,12.97345,77.55171,BookMyShow,Jawan,Morning,9.7,Cloudy,No,168
Mumbai,"PVR: Market City, Kurla (Premiere)",243.723545,910,5,1,19.08571,72.88842,BookMyShow,Drishyam 2,Afternoon,6.7,Cloudy,No,747
Mumbai,Bharat Cineplex: Kurla (W),175.0,398,2,1,19.06685,72.87733,"BookMyShow, MediaAnt",Baahubali,Morning,1.7,Humid,No,154
Mumbai,Super Cinema: Grant Road,198.1442727463636,822,1,0,18.962068,72.821162,Internet Research,Dangal,Morning,4.6,Hot,No,253
Mumbai,"Shalimar Cinema, Bharat Nagar",198.1442727463636,704,1,0,18.9616462,72.8210111,MediaAnt,Kantara,Evening,9.5,Rainy,No,244
Delhi,"PVR: Plaza-CP, Delhi",366.6666667,300,1,0,28.63515,77.21966,BookMyShow,Baahubali,Morning,2.3,Rainy,No,86
Bangalore,"7D Mastii: Element Mall, Nagwara",150.0,18,1,0,13.04541,77.6266,BookMyShow,Vikram,Evening,9.6,Rainy,Yes,2
Chennai,Devi Karumari A/C,97.97240740555556,850,1,0,13.0499059,80.1934024,Internet Research,Dangal,Morning,8.9,Hot,No,613
Chennai,MM Theatre,97.97240740555556,772,1,0,13.1260232,80.2896379,Internet Research,Baahubali,Night,2.3,Rainy,Yes,622
Chennai,"Sri Murugan, Ambattur",97.97240740555556,960,1,0,13.100996,80.164051,MediaAnt,Drishyam 2,Afternoon,3.2,Sunny,Yes,851
Delhi,"PVR: Prashant Vihar, Delhi",283.3134921,426,4,1,28.71251,77.13594,BookMyShow,Vikram,Evening,3.4,Cloudy,Yes,45
Bangalore,Everest Digital 2K Cinema: Frazer Town,125.0,546,1,0,13.00013,77.61844,"BookMyShow, MediaAnt",Jawan,Night,8.1,Hot,No,520
Bangalore,"Guru Siddeshwara Chitra Mandira, Anjanapura",183.50891304903843,615,1,0,12.8728904,77.5575757,MediaAnt,Sooryavanshi,Afternoon,9.6,Hot,Yes,593
Ahmedabad,Rajhans Cinemas: Satadhar,124.2296296,1080,4,1,23.06663,72.53127,"BookMyShow, Internet Research",Baahubali,Night,1.8,Hot,Yes,17
Hyderabad,"Pratap Theatre, Gandhi Bhawan",95.06145388259615,774,1,0,17.3882628,78.4707395,MediaAnt,KGF 2,Afternoon,9.5,Sunny,No,479
Chennai,Woodlands Complex: Chennai,69.5,1713,2,1,13.05656,80.26497,"BookMyShow, MediaAnt",RRR,Morning,2.1,Sunny,No,760
Mumbai,Cinemax: Goregaon (W),104.6666667,649,1,0,19.15758,72.84491,BookMyShow,RRR,Evening,6.2,Stormy,No,415
Bangalore,"Lavanya, Sivan Chetty Gardens",183.50891304903843,786,1,0,12.9848012,77.6148355,MediaAnt,Shershaah,Afternoon,5.2,Humid,No,515
Chennai,"Saravana Theatre, Brick Kiln Road",97.97240740555556,600,1,0,13.0928614,80.2515167,MediaAnt,Kantara,Evening,7.4,Stormy,No,518
Kochi,EVM Kavitha Theatre 2K UFO: Ernakulam,110.0,1220,4,1,9.978573,76.28262,"BookMyShow, MediaAnt",Kabir Singh,Night,6.1,Rainy,No,985
Bangalore,Sri Venkateshwara Theatre: Kengeri,100.0,500,1,0,12.90644,77.48277,"BookMyShow, MediaAnt",Shershaah,Night,4.6,Humid,No,84
Hyderabad,BR Hitech 70mm: Madhapur,80.0,528,1,0,17.44442,78.38823,"BookMyShow, Internet Research",Jawan,Night,8.1,Sunny,No,301
Kolkata,INOX: Hiland Park,171.452381,934,4,1,22.48339,88.39075,BookMyShow,Shershaah,Morning,1.7,Sunny,Yes,506
Kolkata,"Cinepolis: Acropolis Mall, Kolkata",200.5,885,4,1,22.51558,88.39319,BookMyShow,Pathaan,Morning,9.9,Stormy,Yes,236
Mumbai,24 Karat: Jogeshwari,219.5555556,1527,4,1,19.14108,72.84372,BookMyShow,KGF 2,Evening,9.1,Humid,No,44
Ahmedabad,"Sapna Cinema, Juhapura",149.09491512148148,1401,1,0,22.9855719,72.500771,MediaAnt,Drishyam 2,Afternoon,4.5,Stormy,Yes,343
Mumbai,"INOX: R-City, Ghatkopar",357.0008547,1220,9,1,19.09982,72.91545,BookMyShow,Jawan,Afternoon,5.3,Sunny,No,361
Bangalore,Keshava Theatre -,183.50891304903843,809,1,0,13.0282203,77.5538235,Internet Research,Kabir Singh,Morning,7.6,Humid,Yes,172
Chennai,Kasi4K Dolby Atmos,97.97240740555556,733,1,0,13.0294637,80.2084348,Internet Research,Kabir Singh,Morning,2.5,Sunny,Yes,674
Delhi,"Fun Cinemas: TDI Mall, Moti Nagar",198.1111111,643,3,1,28.65668,77.13945,BookMyShow,3 Idiots,Afternoon,6.3,Stormy,No,74
Bangalore,Gopalan Grand Mall: Old Madras Road,256.1111111,1030,4,1,12.99336,77.66397,"BookMyShow, MediaAnt",RRR,Night,5.9,Stormy,Yes,91
Bangalore,"Gopalan Miniplex: Signature Mall, Old Madras Road",260.3846154,157,3,1,12.99299,77.66188,BookMyShow,Kantara,Afternoon,1.7,Humid,No,57
Hyderabad,Sri Mayuri Theatre: RTC X Roads,86.66666667,941,1,0,17.40747,78.49604,"BookMyShow, MediaAnt",3 Idiots,Evening,2.4,Cloudy,Yes,512
Hyderabad,Asian Ganga: Dilsukhnagar,85.0,707,1,0,17.36117,78.5231,BookMyShow,KGF 2,Morning,4.5,Humid,Yes,597
Ahmedabad,Rajhans Cinemas: Satadhar,124.2296296,1080,4,1,23.06663,72.53127,"BookMyShow, Internet Research",Kabir Singh,Morning,1.4,Cloudy,Yes,285
Bangalore,"INOX: Garuda Swagath Mall, Jayanagar",285.5555556,793,3,1,12.92906,77.59123,"BookMyShow, MediaAnt",Sooryavanshi,Afternoon,4.3,Hot,Yes,138
Mumbai,24 Karat: Jogeshwari,219.5555556,1527,4,1,19.14108,72.84372,BookMyShow,Pathaan,Night,3.9,Hot,Yes,1150
Hyderabad,Venkatadri Cinema 70MM: Dilsukhnagar,90.0,1263,1,0,17.36799,78.52345,"BookMyShow, MediaAnt",Kabir Singh,Afternoon,4.3,Rainy,No,358
Ahmedabad,City Gold: Motera,111.5,728,2,1,23.09203,72.59319,BookMyShow,Vikram,Night,9.1,Cloudy,Yes,162
Bangalore,"INOX: Garuda Swagath Mall, Jayanagar",285.5555556,793,3,1,12.92906,77.59123,"BookMyShow, MediaAnt",Kabir Singh,Morning,7.5,Cloudy,No,443
Hyderabad,"Manikanta, Reddy Colony",95.06145388259615,394,1,0,17.337529,78.549634,MediaAnt,Kabir Singh,Evening,7.5,Stormy,No,24
Chennai,"INOX: Chennai Citi Centre, Dr. RK Salai",153.6,528,4,1,13.04295,80.27379,BookMyShow,Drishyam 2,Morning,9.3,Humid,No,312
Bangalore,Nataraj Theatre: Sheshadripuram,183.50891304903843,1150,1,0,12.9897863,77.5729823,Internet Research,Kabir Singh,Afternoon,9.1,Sunny,No,721
Chennai,"Sri Murugan, Ambattur",97.97240740555556,960,1,0,13.100996,80.164051,MediaAnt,Pushpa,Afternoon,6.1,Rainy,No,360
Bangalore,"Sri Maruthi Theatre, Rajagopal Nagar",183.50891304903843,1119,1,0,13.0122659,77.5098421,MediaAnt,KGF 2,Morning,6.9,Stormy,Yes,334
Mumbai,New Excelsior Mukta A2 Cinemas: Fort,160.25,596,1,0,18.93768,72.83344,BookMyShow,Baahubali,Night,6.4,Stormy,No,550
Bangalore,Akash Cinemas (Rajeshwari Theatre): Laggere,125.0,780,1,0,13.01481,77.51611,"BookMyShow, MediaAnt",Drishyam 2,Morning,8.1,Stormy,No,325
Hyderabad,Asian Lakshmikala Cinepride: Moosapet,88.81481481,2403,4,1,17.46753,78.42831,BookMyShow,RRR,Morning,1.2,Humid,No,366
Mumbai,Movietime Star City: Matunga (W),172.375,366,1,0,19.0286,72.8436,BookMyShow,KGF 2,Morning,8.4,Stormy,No,280
Delhi,"Batra Cinema, Dr.Mukerjee Nagar",301.8207102540476,1000,1,0,28.7113494,77.2150536,MediaAnt,RRR,Morning,8.2,Stormy,Yes,100
Ahmedabad,"Shree Balaji Agora Mall, Chandkheda",149.09491512148148,802,4,1,23.1144241,72.5679062,MediaAnt,Pathaan,Morning,3.8,Hot,No,507
Hyderabad,Sree Ramana 70MM: Amberpet,100.0,1111,1,0,17.39247,78.51578,"BookMyShow, MediaAnt",KGF 2,Afternoon,8.0,Humid,Yes,220
Mumbai,Chitra Cinema: Dadar (E),128.3333333,635,1,0,19.01336,72.84388,"BookMyShow, mediaAnt",Baahubali,Morning,7.3,Hot,No,586
Mumbai,"Akash Cinema, Kurla North",198.1442727463636,388,1,0,19.0668861,72.8786582,MediaAnt,Kantara,Afternoon,2.4,Humid,No,341
Mumbai,Premiere Cinema: Dadar (E),132.5,465,1,0,19.00752,72.84061,BookMyShow,Shershaah,Afternoon,2.1,Cloudy,No,144
Mumbai,"Silver Cinema, Ambewadi",198.1442727463636,636,1,0,18.9586775,72.8254684,MediaAnt,Shershaah,Afternoon,7.0,Humid,Yes,525
Mumbai,"Kalpana Cinema, Kurla North",198.1442727463636,1188,1,0,19.0774572,72.8789704,MediaAnt,Pathaan,Evening,7.4,Stormy,Yes,1124
Hyderabad,Asian Shiva: Dilsukhnagar,85.0,554,1,0,17.36117,78.5231,BookMyShow,Baahubali,Morning,3.5,Stormy,No,36
Kolkata,"Khatoon Mahal, Garden Reach",187.80483726826088,712,1,0,22.5486653,88.2809764,MediaAnt,Baahubali,Evening,6.3,Hot,Yes,381
Bangalore,"Vullas Theatre, Yeshwantpura",183.50891304903843,961,1,0,13.019888,77.551474,MediaAnt,Drishyam 2,Evening,4.0,Hot,No,526
Chennai,"Annai Karumari, Virugambakkam",97.97240740555556,196,1,0,13.0530785,80.1931011,MediaAnt,RRR,Morning,3.8,Cloudy,No,190
Kolkata,London Paris: Mukti World Ballygunge,237.0,298,2,1,22.52623,88.36665,BookMyShow,Shershaah,Morning,3.4,Stormy,No,110
