city,theatre_name,average_ticket_price,total_seats,no_screens,type,lat,lon,source_of_information,Indian Movie Name,Showtime,Weather,Holiday/Event Impact,ticket_sold
Bangalore,Sri Srinivasa Theatre: Padmanabanagara,110.0,725,1,0,12.90898,77.55804,"BookMyShow, Internet Research",RRR,Morning,Stormy,No,437
Mumbai,"PVR: Sona Shopping Centre, Kandivali (W)",125.4166667,287,1,0,19.20243,72.8511,BookMyShow,Dangal,Evening,Hot,Yes,70
Bangalore,"N Lakshmi Chitra Mandira, B G Road",183.50891304903843,850,1,0,12.860183,77.589458,MediaAnt,Shershaah,Evening,Stormy,Yes,511
Hyderabad,Sushma Cinema: Vanasthalipuram,100.0,1022,1,0,17.3358,78.57353,"BookMyShow, MediaAnt",Kabir Singh,Afternoon,Sunny,No,497
Kolkata,"Bhabani Cinema, Indrani Park",187.80483726826088,665,1,0,22.5055091,88.3451152,MediaAnt,Kantara,Morning,Stormy,No,104
Bangalore,Chandrodaya Digital 2K Cinema: Vidyapeeta Circle,110.0,960,1,0,12.93546,77.56129,BookMyShow,Drishyam 2,Night,Rainy,Yes,600
Mumbai,Plaza Cinema: Dadar,227.5,691,1,0,19.02185,72.84276,BookMyShow,RRR,Morning,Sunny,No,492
Hyderabad,Sri Krishna 70MM: Uppal,70.0,939,1,0,17.40084,78.56788,"BookMyShow, MediaAnt",Sooryavanshi,Night,Sunny,No,64
Kolkata,"Darpana, Bidhan Sarani",187.80483726826088,690,1,0,22.5977679,88.372279,MediaAnt,Pushpa,Morning,Stormy,Yes,310
Bangalore,Kapali Theatre: Gandhi Nagar,100.0,1475,1,0,12.97791,77.57578,"BookMyShow, MediaAnt",Sooryavanshi,Night,Rainy,No,779
Mumbai,Le Reve (Globus): Bandra (W),195.5,259,1,0,19.05605,72.83383,BookMyShow,Kantara,Afternoon,Hot,No,234
Hyderabad,Asian Lakshmikala Cinepride: Moosapet,88.81481481,2403,4,1,17.46753,78.42831,BookMyShow,Kantara,Afternoon,Sunny,Yes,1879
Kochi,EVM Kavitha Theatre 2K UFO: Ernakulam,110.0,1220,4,1,9.978573,76.28262,"BookMyShow, MediaAnt",Brahmastra,Evening,Cloudy,Yes,1121
Mumbai,Chandan Cinema: Juhu,155.75,587,1,0,19.1147,72.8269,BookMyShow,Jawan,Night,Humid,Yes,412
Bangalore,Mukunda Dolby Atmos: M S Nagar,159.375,814,1,0,13.00325,77.63585,BookMyShow,KGF 2,Morning,Sunny,No,134
Mumbai,Premiere Cinema: Dadar (E),132.5,465,1,0,19.00752,72.84061,BookMyShow,Pushpa,Afternoon,Rainy,Yes,74
Hyderabad,Padmavati Cinema: Kachiguda,60.0,490,1,0,17.39063,78.4916,"BookMyShow, MediaAnt",Baahubali,Evening,Hot,Yes,374
Bangalore,"Venkateshwara Cinemas: Gollarahatti,Magadi Rd",90.0,300,1,0,12.98848,77.47392,BookMyShow,3 Idiots,Morning,Rainy,Yes,194
Hyderabad,Sandhya 35mm: RTC X Roads,100.0,1055,1,0,17.40691,78.49726,"BookMyShow, MediaAnt",3 Idiots,Afternoon,Humid,No,449
Hyderabad,BR Hitech 70mm: Madhapur,80.0,528,1,0,17.44442,78.38823,"BookMyShow, Internet Research",Vikram,Morning,Rainy,No,90
Mumbai,"Shalimar Cinema, Bharat Nagar",198.1442727463636,704,1,0,18.9616462,72.8210111,MediaAnt,Brahmastra,Afternoon,Humid,No,210
Delhi,"Ritz Cinema: Kashmere Gate, Delhi",113.3333333,576,1,0,28.66669,77.22984,"BookMyShow, MediaAnt",Baahubali,Morning,Rainy,No,564
Hyderabad,Tivoli Cinema: Hyderabad,118.0,453,3,1,17.44833,78.49304,BookMyShow,Pathaan,Evening,Rainy,No,274
Ahmedabad,"PVR: Acropolis, Ahmedabad",232.1338384,1343,6,1,23.04884,72.51621,BookMyShow,Drishyam 2,Morning,Stormy,Yes,937
Bangalore,Lakshmi Digital 4K Cinema: Tavarekere,132.5,900,1,0,12.92524,77.60775,"BookMyShow, MediaAnt",RRR,Morning,Stormy,Yes,290
Kolkata,"Darpana, Bidhan Sarani",187.80483726826088,690,1,0,22.5977679,88.372279,MediaAnt,Dangal,Morning,Stormy,No,77
Hyderabad,"Sri Sai Ram Theatre, MainRoad",95.06145388259615,600,1,0,17.368235,78.526694,MediaAnt,Drishyam 2,Night,Humid,No,571
Hyderabad,"PVR: Inorbit, Cyberabad",150.0,800,5,1,17.43505,78.38674,BookMyShow,Drishyam 2,Evening,Humid,Yes,173
Hyderabad,Amba Theatre: Mehdipatnam,100.0,64,1,0,17.39167,78.44133,BookMyShow,RRR,Night,Stormy,No,39
Hyderabad,"INOX: Maheshwari Parmeshwari Mall, Kachiguda",150.0,1021,5,1,17.39052,78.48862,BookMyShow,Sooryavanshi,Evening,Sunny,Yes,686
Delhi,G3S Cinema: Rohini,228.5714286,809,3,1,28.73469,77.11376,BookMyShow,Drishyam 2,Evening,Hot,No,307
Chennai,Sri Ganga Cinemas Dolby Atmos - KolathurDolby Atmos,97.97240740555556,772,1,0,13.1252216,80.2181625,Internet Research,Pathaan,Evening,Sunny,Yes,532
Bangalore,INOX: Brookefield Mall,270.9259259,338,3,1,12.96623,77.71794,"BookMyShow, MediaAnt",RRR,Morning,Sunny,No,254
Chennai,"Saravana Theatre, Brick Kiln Road",97.97240740555556,600,1,0,13.0928614,80.2515167,MediaAnt,Jawan,Evening,Humid,Yes,437
Mumbai,New Excelsior Mukta A2 Cinemas: Fort,160.25,596,1,0,18.93768,72.83344,BookMyShow,Pathaan,Morning,Cloudy,Yes,407
Delhi,M2K: Pitampura,230.8571429,807,3,1,28.68925,77.13326,"BookMyShow, MediaAnt",Vikram,Morning,Sunny,Yes,56
Bangalore,"PVR: Orion, Rajajinagar",285.3444444,2714,8,1,13.011,77.55509,"BookMyShow, MediaAnt",Jawan,Evening,Cloudy,No,2629
Mumbai,24 Karat: Jogeshwari,219.5555556,1527,4,1,19.14108,72.84372,BookMyShow,Drishyam 2,Afternoon,Rainy,Yes,436
Bangalore,Navrang Theatre: Rajaji Nagar,90.0,990,1,0,12.99784,77.5528,"BookMyShow, MediaAnt",Jawan,Afternoon,Cloudy,Yes,194
Mumbai,"Fun Cinemas: K Star Mall, Chembur",149.7530864,1253,5,1,19.05235,72.90172,"BookMyShow, MediaAnt",Kabir Singh,Afternoon,Sunny,Yes,153
Hyderabad,Rukmini Cinema: Patancheru,70.0,956,1,0,17.53212,78.26473,"BookMyShow, Internet Research",KGF 2,Morning,Sunny,No,925
Bangalore,"Bharathi Chitra Mandira, Dasarahalli",183.50891304903843,1070,1,0,13.0415115,77.5175238,MediaAnt,Kabir Singh,Morning,Humid,Yes,1010
Hyderabad,Alankar (Pratap Theatre): Langer House,100.0,774,1,0,17.37651,78.4196,"BookMyShow, Internet Research",Dangal,Afternoon,Rainy,No,173
Chennai,Sri Bhuvaneshwari Theatre A/C dts,97.97240740555556,565,1,0,13.0916293,80.2583516,Internet Research,Vikram,Afternoon,Sunny,Yes,247
Ahmedabad,City Gold: Bapunagar,101.1666667,419,4,1,23.03743,72.61513,"BookMyShow, MediaAnt",Jawan,Afternoon,Stormy,Yes,399
Hyderabad,Glory Cinema: Mallepally,95.06145388259615,486,1,0,17.39404,78.45831,BookMyShow,Shershaah,Afternoon,Humid,Yes,274
Hyderabad,"Cinepolis: Manjeera Mall, Kukatpally",200.0,1405,5,1,17.48978,78.39322,BookMyShow,Dangal,Morning,Cloudy,Yes,190
Kolkata,"Khatoon Mahal, Garden Reach",187.80483726826088,712,1,0,22.5486653,88.2809764,MediaAnt,Pushpa,Night,Rainy,Yes,244
Kolkata,"New Empire Cinema, New Market",187.80483726826088,750,1,0,22.5605129,88.3514889,MediaAnt,Vikram,Afternoon,Humid,No,30
Hyderabad,Vimal 70mm: Balanagar,80.0,1010,1,0,17.46361,78.45124,"BookMyShow, MediaAnt",Brahmastra,Morning,Hot,No,807
Chennai,"SK-Marlen Cinemas 2K, Guindy: Alandur",150.0,229,1,0,13.00176,80.20358,"BookMyShow, Internet Research",Kabir Singh,Evening,Stormy,Yes,224
Bangalore,Anjan Digital 4K A/C Cinema: Magadi Road,125.0,990,1,0,12.97517,77.55891,"BookMyShow, MediaAnt",Brahmastra,Morning,Rainy,Yes,207
Bangalore,Srinivasa Digital 4K Cinema: S.G. Palya,132.5,800,1,0,12.93188,77.60772,"BookMyShow, MediaAnt",Pushpa,Morning,Sunny,No,416
Chennai,Ega Cinema,97.97240740555556,1168,2,1,13.0778725,80.2404635,Internet Research,Kantara,Evening,Sunny,No,155
Hyderabad,Padmavati Cinema: Kachiguda,60.0,490,1,0,17.39063,78.4916,"BookMyShow, MediaAnt",Vikram,Night,Humid,No,405
Kochi,Padma Cinema Screen 1: Ernakulam,105.0,324,1,0,9.981755,76.2826,BookMyShow,KGF 2,Morning,Sunny,Yes,2
Bangalore,Anjan Digital 4K A/C Cinema: Magadi Road,125.0,990,1,0,12.97517,77.55891,"BookMyShow, MediaAnt",Kabir Singh,Afternoon,Cloudy,Yes,852
Bangalore,"7D Mastii: Element Mall, Nagwara",150.0,18,1,0,13.04541,77.6266,BookMyShow,Pushpa,Evening,Sunny,No,1
Mumbai,"Carnival: IMAX, Wadala",196.5968254,1634,5,1,19.03122,72.881,"BookMyShow, MediaAnt",Dangal,Evening,Cloudy,No,1392
Kolkata,Bina Cinema - Kolkatta,187.80483726826088,775,1,0,22.5814515,88.3658105,Internet Research,Kabir Singh,Afternoon,Rainy,No,677
Hyderabad,"Sheeshmahal Cinema, Begumpet",95.06145388259615,459,1,0,17.43461,78.448894,MediaAnt,Pushpa,Afternoon,Rainy,Yes,128
Kolkata,"Darpana, Bidhan Sarani",187.80483726826088,690,1,0,22.5977679,88.372279,MediaAnt,Jawan,Morning,Humid,Yes,107
Hyderabad,Vimal 70mm: Balanagar,80.0,1010,1,0,17.46361,78.45124,"BookMyShow, MediaAnt",Drishyam 2,Night,Stormy,No,998
Chennai,AVM Rajeswari A/C dts,97.97240740555556,603,1,0,13.0475424,80.2046086,Internet Research,Kantara,Morning,Hot,Yes,124
Delhi,Movietime: Pitampura,168.3928571,788,3,1,28.70582,77.14283,"BookMyShow, Internet Research",Brahmastra,Afternoon,Cloudy,No,81
Bangalore,"PVR: VR Gold, Bengaluru",697.025,1,4,1,12.99651,77.69526,BookMyShow,Sooryavanshi,Evening,Stormy,Yes,1
Mumbai,Gold Cinema: Sona Borivali (E),151.6666667,259,1,0,19.23479,72.86494,BookMyShow,Dangal,Night,Humid,No,47
Ahmedabad,Miraj City Pulse: Ahmedabad,158.7590909,936,4,1,23.01467,72.5964,BookMyShow,Drishyam 2,Night,Rainy,No,403
Kolkata,"Park Show House, Shakespeare Sarani",187.80483726826088,588,1,0,22.5462997,88.3622103,MediaAnt,RRR,Evening,Hot,No,254
Hyderabad,Nartaki Theatre: Alwal,70.0,854,1,0,17.49423,78.5133,"BookMyShow, MediaAnt",Brahmastra,Night,Sunny,Yes,629
Bangalore,"Raja Murali Theatre, Kodigehalli Sahakar Nagar(post)",183.50891304903843,558,1,0,13.0605001,77.5768534,MediaAnt,Vikram,Evening,Stormy,Yes,382
Chennai,"Annai Karumari, Virugambakkam",97.97240740555556,196,1,0,13.0530785,80.1931011,MediaAnt,Baahubali,Morning,Stormy,Yes,76
Bangalore,"Padma Theatre, Amruthahalli",183.50891304903843,600,1,0,13.0687241,77.6026388,MediaAnt,KGF 2,Morning,Cloudy,No,461
Bangalore,Bhumika Digital 2K Cinema: Gandhinagar,135.0,894,1,0,12.97382,77.57964,"BookMyShow, MediaAnt",Pushpa,Afternoon,Humid,Yes,637
Chennai,Jothi Theatre 4K A/c DTS: ST Thomas Mount,0.0,805,1,0,13.00611,80.20134,"BookMyShow, Internet Research",Pushpa,Afternoon,Cloudy,Yes,319
Hyderabad,"Manikanta, Reddy Colony",95.06145388259615,394,1,0,17.337529,78.549634,MediaAnt,Pathaan,Evening,Stormy,Yes,68
Mumbai,"Palace Talkies, V J B Udyan",198.1442727463636,724,1,0,18.9759324,72.8331947,MediaAnt,3 Idiots,Afternoon,Hot,No,112
Bangalore,Cinepolis: Binnypet Mall,220.537415,1580,8,1,12.96579,77.56202,"BookMyShow, MediaAnt",KGF 2,Afternoon,Stormy,Yes,1444
Bangalore,Galaxy Paradise: Screen 2,160.0,120,1,0,12.89108,77.62648,"BookMyShow, Internet Research",Pushpa,Morning,Hot,Yes,92
Chennai,"Roopam, Poonamallee High Road",97.97240740555556,288,1,0,13.0797983,80.2025852,MediaAnt,Baahubali,Morning,Cloudy,Yes,14
Hyderabad,Arjun 70MM: Kukatpally,100.0,786,1,0,17.49677,78.39703,"BookMyShow, MediaAnt",Pathaan,Evening,Sunny,Yes,628
Bangalore,"PVR: Pepsi IMAX, Koramangala",365.0,346,1,0,12.93455,77.61109,BookMyShow,RRR,Evening,Hot,Yes,133
Chennai,Arvind Theatre A/C dts,97.97240740555556,445,1,0,12.9153435,80.2297244,Internet Research,KGF 2,Night,Humid,Yes,415
Bangalore,"Venkateshwara Cinemas: Gollarahatti,Magadi Rd",90.0,300,1,0,12.98848,77.47392,BookMyShow,KGF 2,Morning,Cloudy,Yes,41
Mumbai,Plaza Cinema: Dadar,227.5,691,1,0,19.02185,72.84276,BookMyShow,Brahmastra,Evening,Humid,No,217
Bangalore,"PVR: Forum, Bengaluru",286.9333333,1590,10,1,12.93463,77.6113,"BookMyShow, MediaAnt",Kantara,Evening,Sunny,No,121
Delhi,"PVR: Pacific, Delhi",446.3415179,1116,6,1,28.64269,77.10595,"BookMyShow, Internet Research",Kabir Singh,Afternoon,Sunny,Yes,32
Hyderabad,Nagendra: Karmanghat,80.0,711,1,0,17.34507,78.53179,"BookMyShow, MediaAnt",Jawan,Afternoon,Cloudy,No,647
Mumbai,Super Cinema: Grant Road,198.1442727463636,822,1,0,18.962068,72.821162,Internet Research,Pathaan,Evening,Hot,No,311
Bangalore,"7D Mastiii: Forum Value Mall, Whitefield",150.0,16,1,0,12.95972,77.74778,BookMyShow,Vikram,Night,Rainy,Yes,12
Delhi,PVR Promenade: Vasant Kunj,431.7234848,1139,7,1,28.54262,77.15575,"BookMyShow, Internet Research",Jawan,Night,Humid,Yes,949
Bangalore,Sri Venkateshwara Theatre: Kengeri,100.0,500,1,0,12.90644,77.48277,"BookMyShow, MediaAnt",Pathaan,Evening,Humid,Yes,144
Hyderabad,Glory Cinema: Mallepally,95.06145388259615,486,1,0,17.39404,78.45831,BookMyShow,KGF 2,Evening,Rainy,No,49
Ahmedabad,Revolution Multiplex: Ahmedabad,148.75,423,4,1,22.99858,72.63548,BookMyShow,Kabir Singh,Evening,Sunny,Yes,42
Hyderabad,Alankar (Pratap Theatre): Langer House,100.0,774,1,0,17.37651,78.4196,"BookMyShow, Internet Research",Vikram,Night,Hot,No,386
Delhi,PVR Promenade: Vasant Kunj,431.7234848,1139,7,1,28.54262,77.15575,"BookMyShow, Internet Research",Dangal,Morning,Rainy,No,920
Ahmedabad,Wide Angle: Ahmedabad,166.1531987,1400,5,1,23.02457,72.50745,"BookMyShow, Internet Research",3 Idiots,Night,Humid,Yes,767
Chennai,"PVR: Ampa, Chennai",82.7,1794,7,1,13.07359,80.22138,"BookMyShow, MediaAnt",3 Idiots,Morning,Hot,No,1464
Mumbai,PVR ICON: Versova,290.9197531,844,4,1,19.14147,72.83059,BookMyShow,Baahubali,Night,Rainy,Yes,596
Bangalore,Nataraj Theatre: Sheshadripuram,183.50891304903843,1150,1,0,12.9897863,77.5729823,Internet Research,RRR,Afternoon,Hot,No,506
Bangalore,Everest Digital 2K Cinema: Frazer Town,125.0,546,1,0,13.00013,77.61844,"BookMyShow, MediaAnt",Drishyam 2,Evening,Cloudy,No,223
Bangalore,"The Cinema GT World: Magadi Rd, Bengaluru",195.8333333,1155,5,1,12.97345,77.55171,BookMyShow,3 Idiots,Evening,Sunny,Yes,966
Kolkata,"Kamal Talkies, Garden Reach",187.80483726826088,848,1,0,22.5485444,88.2891741,MediaAnt,Drishyam 2,Afternoon,Humid,Yes,426
Kolkata,"Aleya Cinema, Ballygunge RS",187.80483726826088,447,1,0,22.52022,88.367129,MediaAnt,Shershaah,Morning,Humid,No,127
Mumbai,Bahar Cinema: Vile Parle (E),190.0,299,1,0,19.10867,72.85335,BookMyShow,Drishyam 2,Afternoon,Humid,No,25
Mumbai,Gold Cinema: Dadar (E),155.0,245,1,0,19.00916,72.84208,BookMyShow,Pathaan,Evening,Stormy,Yes,57
Delhi,Movietime: Pitampura,168.3928571,788,3,1,28.70582,77.14283,"BookMyShow, Internet Research",3 Idiots,Afternoon,Stormy,Yes,65
Mumbai,Nandi Cinema: National Library Road,65.0,762,1,0,19.05546,72.83874,BookMyShow,Drishyam 2,Evening,Stormy,Yes,733
Bangalore,Urvashi Digital 4K Cinema: Lalbagh Road,237.5,1100,1,0,12.95607,77.58541,BookMyShow,KGF 2,Morning,Rainy,No,270
Chennai,Ega Cinema,97.97240740555556,1168,2,1,13.0778725,80.2404635,Internet Research,Kantara,Morning,Stormy,Yes,635
Chennai,"Agasthiya, T.H Road",97.97240740555556,1004,1,0,13.1239102,80.2878637,MediaAnt,Baahubali,Evening,Rainy,Yes,403
Bangalore,Menaka Talkies: Gandhi Nagar,130.0,971,1,0,12.97314,77.57934,"BookMyShow, MediaAnt",Vikram,Evening,Sunny,No,624
Kolkata,"Chabighar, Parsibagan",187.80483726826088,646,1,0,22.5795878,88.3724625,MediaAnt,Shershaah,Evening,Sunny,No,496
Mumbai,"INOX: Inorbit Mall, Malad (W)",279.2494444,1212,7,1,19.17238,72.83547,BookMyShow,Shershaah,Morning,Stormy,Yes,594
Bangalore,"INOX: Garuda Mall, Magrath Road",337.1212121,1103,5,1,12.97009,77.60943,"BookMyShow, MediaAnt",3 Idiots,Night,Cloudy,Yes,629
Bangalore,Balaji Digital 2K Cinema: Tavarekere,120.0,880,1,0,12.92554,77.60781,"BookMyShow, MediaAnt",Dangal,Evening,Hot,No,566
Hyderabad,Sree Ramana 70MM: Amberpet,100.0,1111,1,0,17.39247,78.51578,"BookMyShow, MediaAnt",Kantara,Evening,Hot,Yes,113
Bangalore,"Uma Theatre, Chamrajpet",183.50891304903843,984,1,0,12.9554065,77.567022,MediaAnt,Drishyam 2,Afternoon,Humid,Yes,211
Bangalore,"Sri Maruthi Theatre, Rajagopal Nagar",183.50891304903843,1119,1,0,13.0122659,77.5098421,MediaAnt,KGF 2,Evening,Rainy,Yes,479
Delhi,Suraj Cinema - Najafgarh-NCR,301.8207102540476,519,1,0,28.6111587,76.9764621,Internet Research,Vikram,Afternoon,Rainy,Yes,507
Hyderabad,Rajdhani 70mm: Dilsukhnagar,80.0,1050,1,0,17.36855,78.52989,"BookMyShow, MediaAnt",Brahmastra,Night,Humid,Yes,832
Mumbai,Paradise E-Square Cinema: Mahim,102.2916667,502,1,0,19.0372,72.84256,BookMyShow,Pathaan,Morning,Stormy,Yes,149
Bangalore,"Prasanna Theatre, Magadi Road",183.50891304903843,1100,1,0,12.9740859,77.5520529,MediaAnt,Pathaan,Evening,Sunny,No,876
Hyderabad,Sensation Insomnia: Khairatabad,80.0,555,1,0,17.40693,78.46363,"BookMyShow, MediaAnt",3 Idiots,Night,Cloudy,Yes,525
Delhi,"PVR: Prashant Vihar, Delhi",283.3134921,426,4,1,28.71251,77.13594,BookMyShow,Brahmastra,Afternoon,Hot,No,412
Ahmedabad,"Mukta A2 Cinemas: Gulmohar Park Mall, Satellite Rd",151.2708333,404,4,1,23.02655,72.50996,"BookMyShow, MediaAnt",Dangal,Evening,Sunny,No,370
Hyderabad,"Cinepolis: Manjeera Mall, Kukatpally",200.0,1405,5,1,17.48978,78.39322,BookMyShow,Pushpa,Evening,Rainy,Yes,1357
Bangalore,Sri Renuka Prasanna Theatre: J P Nagar,104.0,1078,1,0,12.91506,77.58783,"BookMyShow, Internet Research",3 Idiots,Afternoon,Rainy,Yes,197
Bangalore,Santosh Theatre: Gandhinagar,106.0,680,1,0,12.97484,77.57638,"BookMyShow, MediaAnt",Pathaan,Night,Humid,No,540
Bangalore,"7D Mastiii: Forum Value Mall, Whitefield",150.0,16,1,0,12.95972,77.74778,BookMyShow,Baahubali,Afternoon,Humid,Yes,13
Mumbai,Miraj Anupam Cinemas: Goregaon (E),146.1666667,490,2,1,19.16545,72.85126,BookMyShow,Baahubali,Night,Stormy,Yes,222
Bangalore,"Pushpanjali Talkies, Dinnur Main Road",183.50891304903843,1330,1,0,13.0218949,77.6031292,MediaAnt,Drishyam 2,Evening,Cloudy,Yes,795
Chennai,Woodlands Complex: Chennai,69.5,1713,2,1,13.05656,80.26497,"BookMyShow, MediaAnt",Vikram,Night,Cloudy,No,885
Hyderabad,Indra: Karmanghat,80.0,112,1,0,17.34507,78.53179,BookMyShow,Pushpa,Night,Hot,No,65
Bangalore,"Vullas Theatre, Yeshwantpura",183.50891304903843,961,1,0,13.019888,77.551474,MediaAnt,KGF 2,Morning,Cloudy,Yes,620
Chennai,"Mayura, Arakonam Road",97.97240740555556,474,1,0,13.0997993,80.1698389,MediaAnt,Dangal,Evening,Hot,No,63
Delhi,Amba Cinema: Delhi,128.0,486,1,0,28.67724,77.20104,BookMyShow,Kabir Singh,Night,Cloudy,No,414
Mumbai,Gold Cinema: Sona Borivali (E),151.6666667,259,1,0,19.23479,72.86494,BookMyShow,Vikram,Afternoon,Rainy,No,28
Mumbai,Carnival: R Mall Mulund,150.9619048,1353,4,1,19.18385,72.95173,BookMyShow,Pushpa,Morning,Cloudy,Yes,284
Ahmedabad,Amber Cinema: Ahmedabad,100.8333333,763,1,0,23.03431,72.62002,BookMyShow,Vikram,Night,Stormy,Yes,119
Mumbai,"Carnival: Huma, Kanjurmarg",136.6916667,1263,4,1,19.12873,72.92615,BookMyShow,Vikram,Afternoon,Humid,Yes,667
Chennai,Albert Complex,97.97240740555556,1200,1,0,13.0761554,80.2638409,Internet Research,Pathaan,Night,Sunny,Yes,210
Hyderabad,Yadagiri Theatre: Santosh Nagar,75.0,1076,1,0,17.34657,78.50888,"BookMyShow, MediaAnt",Drishyam 2,Morning,Cloudy,Yes,234
Chennai,"PVR: Velachery, Chennai",82.7,1275,5,1,12.97195,80.22036,"BookMyShow, MediaAnt",Kabir Singh,Evening,Rainy,No,649
Delhi,"PVR: Select City Walk, Delhi",523.1349206,677,5,1,28.52857,77.21973,BookMyShow,3 Idiots,Night,Sunny,No,494
Kolkata,"Moonlight Cinema, Chittaranjan Avenue",187.80483726826088,780,1,0,22.5775595,88.3598131,MediaAnt,KGF 2,Evening,Sunny,No,690
Hyderabad,Sree Sai Puja: Suraram,100.0,864,1,0,17.54458,78.43474,"BookMyShow, MediaAnt",Kabir Singh,Night,Hot,Yes,405
Kolkata,INOX: Quest Mall,313.0919697,511,4,1,22.53914,88.36565,BookMyShow,Kantara,Evening,Cloudy,No,322
Bangalore,Pradeep Theatre: K.R.Market,183.50891304903843,305,1,0,12.963106,77.577049,Internet Research,Pushpa,Night,Humid,No,9
Mumbai,Sterling Cineplex: Fort,167.5416667,900,3,1,18.93838,72.83307,BookMyShow,Vikram,Night,Stormy,Yes,356
Kolkata,"Prabhat Cinema, Barabazar",187.80483726826088,700,1,0,22.5789136,88.3606355,MediaAnt,Sooryavanshi,Night,Rainy,No,169
Mumbai,"Super Cinema, Bharat Nagar",198.1442727463636,822,1,0,18.9620626,72.8209921,MediaAnt,KGF 2,Evening,Stormy,No,102
Bangalore,"Deepak Theatre, Mahatma Gandhi Road",183.50891304903843,525,1,0,12.997947,77.5405319,MediaAnt,Pushpa,Evening,Rainy,No,258
Hyderabad,"Cinepolis: Mantra Mall, Attapur",200.0,1094,5,1,17.35388,78.4206,BookMyShow,Shershaah,Night,Cloudy,No,1036
Chennai,MM Theatre,97.97240740555556,772,1,0,13.1260232,80.2896379,Internet Research,Sooryavanshi,Morning,Stormy,No,757
Kolkata,INOX: Quest Mall (Insignia),608.3333333,162,3,1,22.53914,88.36565,BookMyShow,Shershaah,Evening,Sunny,Yes,139
Kolkata,Asoka Cinema: Behala,98.16666667,867,1,0,22.49382,88.31637,"BookMyShow, MediaAnt",RRR,Afternoon,Rainy,No,633
Kolkata,"Netro, Dum Dum",187.80483726826088,684,1,0,22.6210274,88.3928183,MediaAnt,Shershaah,Morning,Cloudy,Yes,482
Hyderabad,Raghavendra 70mm: Malkajgiri,70.0,691,1,0,17.4513,78.53616,"BookMyShow, MediaAnt",Drishyam 2,Afternoon,Stormy,Yes,38
Mumbai,"Super Cinema, Bharat Nagar",198.1442727463636,822,1,0,18.9620626,72.8209921,MediaAnt,RRR,Afternoon,Humid,No,131
Bangalore,Keshava Theatre -,183.50891304903843,809,1,0,13.0282203,77.5538235,Internet Research,Pushpa,Morning,Hot,No,640
Hyderabad,Asian GPR Multiplex: Kukatpally,162.5,1143,3,1,17.49923,78.39067,BookMyShow,KGF 2,Night,Stormy,Yes,71
Mumbai,"Carnival: Harmony Mall, Oshiwara",160.06,433,2,1,19.15756,72.83473,BookMyShow,Jawan,Afternoon,Sunny,No,92
Mumbai,"INOX: Neelyog, Ghatkopar (E)",159.4047619,915,4,1,19.08522,72.90917,BookMyShow,Drishyam 2,Morning,Sunny,No,324
Bangalore,"Lakshmi Theatre, Dharmaram College",183.50891304903843,900,1,0,12.9362,77.6028377,MediaAnt,3 Idiots,Afternoon,Stormy,No,228
Bangalore,"Pushpanjali Talkies, Dinnur Main Road",183.50891304903843,1330,1,0,13.0218949,77.6031292,MediaAnt,KGF 2,Morning,Cloudy,No,659
Chennai,AVM Rajeswari A/C dts,97.97240740555556,603,1,0,13.0475424,80.2046086,Internet Research,Dangal,Afternoon,Cloudy,No,315
Ahmedabad,City Gold: Bapunagar,101.1666667,419,4,1,23.03743,72.61513,"BookMyShow, MediaAnt",Sooryavanshi,Afternoon,Cloudy,Yes,299
Ahmedabad,"Mukta A2 Cinemas: Gulmohar Park Mall, Satellite Rd",151.2708333,404,4,1,23.02655,72.50996,"BookMyShow, MediaAnt",3 Idiots,Evening,Cloudy,No,225
Kolkata,"Regal Cinema, Dharmatala",187.80483726826088,500,1,0,22.5628269,88.3526567,MediaAnt,KGF 2,Night,Sunny,Yes,412
Hyderabad,SVR's Siva Sakthi Theatre: Kapra,70.0,313,1,0,17.47652,78.56276,"BookMyShow, Internet Research",Sooryavanshi,Afternoon,Humid,Yes,222
Chennai,"The Forum Vijaya Mall, Vadapalani",97.97240740555556,3010,9,1,13.0497383,80.2095368,MediaAnt,Pathaan,Night,Rainy,Yes,1292
Mumbai,"Gulshan Cinema, Ambewadi",198.1442727463636,725,1,0,18.9611893,72.8237326,MediaAnt,3 Idiots,Morning,Sunny,No,246
Hyderabad,"ASR Cinemas, Madhuban Colony",95.06145388259615,609,1,0,17.3083079,78.4319946,MediaAnt,Baahubali,Night,Hot,No,584
Hyderabad,"PVR: RK Cineplex, Hyderabad",200.0,1034,3,1,17.42332,78.42792,"BookMyShow, Internet Research",Shershaah,Night,Sunny,Yes,325
Mumbai,Movietime: Malad,161.4444444,403,3,1,19.18909,72.83519,BookMyShow,3 Idiots,Afternoon,Sunny,No,166
Mumbai,PVR ICON: Versova (Gold),616.6666667,86,2,1,19.14147,72.83059,BookMyShow,Jawan,Morning,Stormy,No,46
Mumbai,"Silver Cinema, Ambewadi",198.1442727463636,636,1,0,18.9586775,72.8254684,MediaAnt,Jawan,Night,Rainy,Yes,135
Bangalore,HMT Digital 4K Cinema: Jalahalli,150.0,874,1,0,13.0495,77.5439,BookMyShow,Brahmastra,Night,Stormy,Yes,153
Kolkata,"Cinepolis: Lake Mall, Kolkata",214.2045455,947,4,1,22.51652,88.34876,BookMyShow,Brahmastra,Night,Rainy,No,664
Hyderabad,Vyjayanthi Cinema: Nacharam,100.0,711,1,0,17.42889,78.55238,"BookMyShow, MediaAnt",Pathaan,Morning,Sunny,Yes,6
Hyderabad,Rajyalakshmi 70mm: Uppal,55.0,662,1,0,17.39664,78.5603,BookMyShow,KGF 2,Night,Rainy,No,78
Delhi,Delite Cinema: Asaf Ali Road,93.75,110,2,1,28.64122,77.23587,BookMyShow,Vikram,Night,Rainy,No,110
Bangalore,Aruna Theatre: Srirampuram,109.0,936,1,0,12.98679,77.56722,"BookMyShow, MediaAnt",Vikram,Afternoon,Sunny,No,308
Kochi,"Jayalakshmi Talkies, Palluruthy",119.55509767142858,600,1,0,9.924479,76.2714001,MediaAnt,KGF 2,Night,Humid,No,465
Bangalore,"Gopalan Miniplex: Signature Mall, Old Madras Road",260.3846154,157,3,1,12.99299,77.66188,BookMyShow,Jawan,Morning,Cloudy,No,127
Delhi,"Fun Cinemas: TDI Mall, Moti Nagar",198.1111111,643,3,1,28.65668,77.13945,BookMyShow,3 Idiots,Morning,Humid,No,74
Ahmedabad,Revolution Multiplex: Ahmedabad,148.75,423,4,1,22.99858,72.63548,BookMyShow,Jawan,Night,Rainy,No,81
Bangalore,"Gopalan Cinemas: Arcade Mall, Mysore Road",250.3846154,1019,3,1,12.93531,77.51761,BookMyShow,Drishyam 2,Afternoon,Cloudy,Yes,44
Delhi,"PVR: Pacific, Delhi",446.3415179,1116,6,1,28.64269,77.10595,"BookMyShow, Internet Research",Kantara,Afternoon,Stormy,No,833
Chennai,"Roopam, Poonamallee High Road",97.97240740555556,288,1,0,13.0797983,80.2025852,MediaAnt,Brahmastra,Afternoon,Hot,No,73
Delhi,Gagan Cinema: Delhi,62.5,982,1,0,28.69635,77.31493,"BookMyShow, MediaAnt",Kantara,Morning,Stormy,Yes,470
Bangalore,Sandhya Digital 4K Projection Dolby Atmos: Madiwal,125.0,720,1,0,12.92101,77.61794,"BookMyShow, MediaAnt",Shershaah,Evening,Sunny,Yes,560
Bangalore,INOX: Brookefield Mall,270.9259259,338,3,1,12.96623,77.71794,"BookMyShow, MediaAnt",Jawan,Morning,Rainy,Yes,6
Bangalore,Parimala Digital 2K Cinema: K.R.Market,183.50891304903843,1112,1,0,12.963107,77.57705,Internet Research,Kabir Singh,Evening,Sunny,Yes,170
Hyderabad,Devi 70mm 4K & Dolby Atmos: RTC X Roads,118.0,1200,1,0,17.40627,78.49504,"BookMyShow, Internet Research",Baahubali,Evening,Stormy,Yes,414
Kolkata,"Malancha Cinema, Netaji Nagar",187.80483726826088,840,1,0,22.4870162,88.3506847,MediaAnt,Dangal,Afternoon,Hot,Yes,579
Hyderabad,"Pratap Theatre, Gandhi Bhawan",95.06145388259615,774,1,0,17.3882628,78.4707395,MediaAnt,3 Idiots,Evening,Rainy,No,216
Chennai,Albert Complex,97.97240740555556,1200,1,0,13.0761554,80.2638409,Internet Research,Baahubali,Morning,Humid,Yes,283
Hyderabad,"Pratap Theatre, Gandhi Bhawan",95.06145388259615,774,1,0,17.3882628,78.4707395,MediaAnt,Shershaah,Morning,Stormy,No,33
Kolkata,Prachi Cinema: Kolkata,80.0,784,1,0,22.56487,88.36829,"BookMyShow, MediaAnt",Kantara,Morning,Hot,No,754
Delhi,G3S Cinema: Rohini,228.5714286,809,3,1,28.73469,77.11376,BookMyShow,Baahubali,Morning,Rainy,Yes,696
Bangalore,Eshwari Digital 2K Cinema: Banashankari,108.3333333,918,1,0,12.92359,77.55344,"BookMyShow, MediaAnt",Pushpa,Morning,Humid,No,270
Kolkata,"INOX: Forum Mall, Elgin Road",231.1720833,1015,4,1,22.53844,88.3513,"BookMyShow, Internet Research",RRR,Morning,Cloudy,Yes,642
Kochi,Sridar Cinemas: Ernakulam,114.0,530,1,0,9.979525,76.27683,"BookMyShow, Internet Research",Sooryavanshi,Night,Humid,Yes,249
Bangalore,Innovative Multiplex: Marathahalli,180.0,1406,4,1,12.9519,77.69905,BookMyShow,Kabir Singh,Evening,Sunny,Yes,335
Bangalore,Cauvery Theatre: Sankey Road,123.3333333,1210,1,0,13.00256,77.58328,"BookMyShow, MediaAnt",Pushpa,Night,Sunny,No,33
Bangalore,"Prasanna Theatre, Magadi Road",183.50891304903843,1100,1,0,12.9740859,77.5520529,MediaAnt,Drishyam 2,Night,Stormy,No,951
Bangalore,Vaishnavi A/C Theatre: Uttarahalli,120.0,800,1,0,12.90348,77.54415,"BookMyShow, MediaAnt",Drishyam 2,Night,Sunny,Yes,414
Kochi,"Jyothy, PP Road",119.55509767142858,713,1,0,9.9579586,76.2902266,MediaAnt,Kantara,Evening,Cloudy,No,657
Bangalore,Urvashi Digital 4K Cinema: Lalbagh Road,237.5,1100,1,0,12.95607,77.58541,BookMyShow,Kabir Singh,Night,Rainy,No,1044
Delhi,Shiela Cinema: Delhi,133.3333333,980,1,0,28.64457,77.21691,BookMyShow,RRR,Afternoon,Sunny,No,109
Kolkata,"Elite Cinema, Dharmatala",187.80483726826088,1258,1,0,22.5630154,88.3538713,MediaAnt,Pathaan,Afternoon,Hot,No,296
Delhi,"Milan Cineplex, Karampura",301.8207102540476,1000,1,0,28.6626009,77.1462858,MediaAnt,Kantara,Afternoon,Humid,Yes,780
Ahmedabad,Miraj Cinemas Cine Pride: Krishna Nagar,105.5,829,4,1,23.05369,72.64335,BookMyShow,Dangal,Night,Hot,Yes,202
Hyderabad,Rukmini Cinema: Patancheru,70.0,956,1,0,17.53212,78.26473,"BookMyShow, Internet Research",Jawan,Afternoon,Stormy,No,918
Kolkata,Priya Cinema: Rashbehari Avenue,152.0,793,1,0,22.51794,88.35438,BookMyShow,Brahmastra,Morning,Humid,No,719
Bangalore,Santosh Theatre: Gandhinagar,106.0,680,1,0,12.97484,77.57638,"BookMyShow, MediaAnt",Kabir Singh,Night,Cloudy,Yes,141
Chennai,Sri Ganga Cinemas Dolby Atmos - KolathurDolby Atmos,97.97240740555556,772,1,0,13.1252216,80.2181625,Internet Research,Shershaah,Afternoon,Rainy,No,404
Mumbai,Maratha Mandir: Mumbai Central,60.0,1107,1,0,18.97133,72.82214,BookMyShow,Baahubali,Night,Hot,No,627
Bangalore,Sandhya Digital 4K Projection Dolby Atmos: Madiwal,125.0,720,1,0,12.92101,77.61794,"BookMyShow, MediaAnt",Pushpa,Morning,Rainy,Yes,448
Hyderabad,Srilatha and Sridevi Complex: Chanda Nagar,55.0,2009,2,1,17.49805,78.3171,"BookMyShow, Internet Research",Drishyam 2,Night,Sunny,Yes,1364
Kolkata,INOX: Quest Mall (Insignia),608.3333333,162,3,1,22.53914,88.36565,BookMyShow,3 Idiots,Morning,Sunny,No,97
Hyderabad,Sri Sai Ram Theatre: Malkajgiri,55.0,700,1,0,17.44632,78.5354,"BookMyShow, MediaAnt",Sooryavanshi,Night,Sunny,Yes,458
Mumbai,"Mukta A2 Cinemas: Topiwala, Goregaon",129.5462963,453,2,1,19.16381,72.84758,BookMyShow,Vikram,Night,Rainy,No,312
Chennai,"Baby Albert Theatre, Whannels Road",97.97240740555556,242,1,0,13.0761555,80.263841,MediaAnt,Dangal,Afternoon,Cloudy,Yes,112
Kochi,"Ajantha Theatre, Mattancherry Jetty",119.55509767142858,620,1,0,9.9538634,76.2475442,MediaAnt,Drishyam 2,Afternoon,Hot,Yes,379
Hyderabad,Sree Ramulu 70mm: Moosapet,70.0,849,1,0,17.46784,78.42939,"BookMyShow, MediaAnt",Dangal,Morning,Cloudy,Yes,593
Mumbai,PVR ICON: Versova (Gold),616.6666667,86,2,1,19.14147,72.83059,BookMyShow,Jawan,Evening,Hot,No,52
Kolkata,"Bhabani Cinema, Indrani Park",187.80483726826088,665,1,0,22.5055091,88.3451152,MediaAnt,Kantara,Morning,Sunny,Yes,315
Bangalore,"Tulsi Chitra Mandira, Marathalli",183.50891304903843,800,1,0,12.956319,77.6981967,MediaAnt,Pathaan,Morning,Sunny,No,641
Hyderabad,Viswanath 70MM Theater: Kukatpally,80.0,1204,1,0,17.49677,78.39703,"BookMyShow, MediaAnt",Pushpa,Afternoon,Cloudy,Yes,344
Mumbai,"Mukta A2 Cinemas: Jai Hind, Lalbaugh",158.0555556,350,2,1,18.98584,72.83596,BookMyShow,Jawan,Night,Stormy,No,259
Ahmedabad,"Hanjar Cinema, Gandhi Ashram",149.09491512148148,995,1,0,23.0263983,72.6040875,MediaAnt,3 Idiots,Night,Sunny,No,45
Bangalore,Akash Cinemas (Rajeshwari Theatre): Laggere,125.0,780,1,0,13.01481,77.51611,"BookMyShow, MediaAnt",Drishyam 2,Night,Sunny,No,279
Kolkata,Regal Cinema: Kolkata,80.0,500,1,0,22.56284,88.35266,"BookMyShow, MediaAnt",Brahmastra,Evening,Stormy,Yes,56
Hyderabad,BR Hitech 70mm: Madhapur,80.0,528,1,0,17.44442,78.38823,"BookMyShow, Internet Research",Vikram,Afternoon,Hot,No,374
Hyderabad,Sri Mayuri Theatre: RTC X Roads,86.66666667,941,1,0,17.40747,78.49604,"BookMyShow, MediaAnt",Pathaan,Morning,Hot,Yes,908
Mumbai,"PVR: Nirmal Lifestyle, Mulund (W)",172.7777778,1815,6,1,19.16732,72.93695,"BookMyShow, MediaAnt",3 Idiots,Night,Hot,Yes,1783
Bangalore,Maheshwari Digital 4K Cinema: Bannerghatta Road,183.50891304903843,0,0,1,12.92339,77.59894,BookMyShow,KGF 2,Morning,Stormy,Yes,0
Mumbai,Roxy Cinema: Charni Road,175.3333333,343,1,0,18.95486,72.81667,BookMyShow,Sooryavanshi,Evening,Hot,Yes,165
Kochi,"Cinepolis: VIP Centre Square Mall, Kochi",119.55509767142858,235,3,1,9.9778687,76.2831729,Internet Research,Sooryavanshi,Morning,Humid,Yes,0
Bangalore,Amruth Theatre: Lingarajapuram,127.5,926,1,0,13.01244,77.62621,"BookMyShow, MediaAnt",RRR,Evening,Sunny,Yes,770
Delhi,"Fun Cinemas: TDI Mall, Moti Nagar",198.1111111,643,3,1,28.65668,77.13945,BookMyShow,Pushpa,Afternoon,Hot,No,227
Mumbai,"INOX: R-City, Ghatkopar",357.0008547,1220,9,1,19.09982,72.91545,BookMyShow,Drishyam 2,Night,Cloudy,No,139
Mumbai,"INOX Laserplex: CR2, Nariman Point",496.005291,868,5,1,18.92648,72.82293,BookMyShow,Pathaan,Evening,Stormy,Yes,323
Bangalore,"Bharathi Chitra Mandira, Dasarahalli",183.50891304903843,1070,1,0,13.0415115,77.5175238,MediaAnt,3 Idiots,Afternoon,Rainy,No,224
Bangalore,"INOX: Forum Neighbourhood Mall, Whitefield",301.3636364,725,5,1,12.9595,77.74789,BookMyShow,Jawan,Morning,Rainy,Yes,647
Chennai,Arvind Theatre A/C dts,97.97240740555556,445,1,0,12.9153435,80.2297244,Internet Research,Vikram,Evening,Humid,Yes,149
Ahmedabad,City Gold: Bapunagar,101.1666667,419,4,1,23.03743,72.61513,"BookMyShow, MediaAnt",Sooryavanshi,Night,Stormy,Yes,152
Kolkata,"Aleya Cinema, Ballygunge RS",187.80483726826088,447,1,0,22.52022,88.367129,MediaAnt,Pushpa,Evening,Stormy,Yes,242
Hyderabad,Sree Ramulu 70mm: Moosapet,70.0,849,1,0,17.46784,78.42939,"BookMyShow, MediaAnt",Drishyam 2,Afternoon,Rainy,Yes,428
Bangalore,"N Lakshmi Chitra Mandira, B G Road",183.50891304903843,850,1,0,12.860183,77.589458,MediaAnt,Vikram,Evening,Humid,Yes,11
Chennai,Raj Theatre - A/C DTS: Chennai,175.0,950,1,0,13.0196,80.22324,BookMyShow,Baahubali,Afternoon,Humid,No,496
Chennai,Rohini Silver Screens: Chennai,104.03,3175,7,1,13.07575,80.19586,BookMyShow,Pathaan,Night,Hot,No,1683
Mumbai,"Amar Theatre, Chembur",198.1442727463636,1155,1,0,19.0523111,72.9101544,MediaAnt,Brahmastra,Evening,Rainy,Yes,826
Hyderabad,BVK Multiplex Vijayalakshmi: LB Nagar,105.5555556,1211,3,1,17.34365,78.55422,BookMyShow,Jawan,Evening,Hot,No,245
Hyderabad,Lakshmi Kala Mandir: Alwal,70.0,277,1,0,17.49476,78.51121,BookMyShow,Vikram,Night,Stormy,Yes,223
Ahmedabad,"Shree Balaji Agora Mall, Chandkheda",149.09491512148148,802,4,1,23.1144241,72.5679062,MediaAnt,Brahmastra,Afternoon,Hot,Yes,470
Hyderabad,Sree Sai Raja Theatre: Musheerabad,70.0,777,1,0,17.41634,78.49944,"BookMyShow, MediaAnt",Baahubali,Afternoon,Cloudy,Yes,279
Delhi,PVR: Shalimar Bagh,311.0714286,1142,4,1,28.70282,77.15833,"BookMyShow, MediaAnt",Baahubali,Evening,Cloudy,Yes,186
Hyderabad,Sree Sai Puja: Suraram,100.0,864,1,0,17.54458,78.43474,"BookMyShow, MediaAnt",Sooryavanshi,Afternoon,Sunny,No,219
Chennai,"Saravana Theatre, Brick Kiln Road",97.97240740555556,600,1,0,13.0928614,80.2515167,MediaAnt,KGF 2,Evening,Stormy,Yes,3
Bangalore,"PVR: Arena Mahadevapura, Bengaluru",233.5353535,1084,6,1,12.97991,77.69319,"BookMyShow, MediaAnt",Pathaan,Afternoon,Rainy,Yes,670
Mumbai,"Gulshan Cinema, Ambewadi",198.1442727463636,725,1,0,18.9611893,72.8237326,MediaAnt,Pushpa,Afternoon,Stormy,No,536
Hyderabad,Prasads: Hyderabad,150.0,2230,6,1,17.33215,78.47,"BookMyShow, MediaAnt",Vikram,Night,Cloudy,Yes,1737
Mumbai,"PVR: Oberoi Mall, Goregaon (E)",264.9142857,1782,6,1,19.17399,72.86125,"BookMyShow, MediaAnt",Dangal,Night,Stormy,No,1247
Hyderabad,Asian Jyothi: RC Puram,90.0,520,1,0,17.50277,78.31221,BookMyShow,Pushpa,Morning,Cloudy,Yes,250
Kolkata,"INOX: Swabhumi, Maulana Azad Sarani",166.7109259,1022,4,1,22.57114,88.40126,"BookMyShow, MediaAnt",Shershaah,Afternoon,Rainy,Yes,547
Bangalore,"Padma Theatre, Amruthahalli",183.50891304903843,600,1,0,13.0687241,77.6026388,MediaAnt,Kabir Singh,Night,Hot,Yes,442
Bangalore,"Vullas Theatre, Yeshwantpura",183.50891304903843,961,1,0,13.019888,77.551474,MediaAnt,Pushpa,Morning,Humid,Yes,701
Kolkata,"Elite Cinema, Dharmatala",187.80483726826088,1258,1,0,22.5630154,88.3538713,MediaAnt,RRR,Morning,Sunny,Yes,743
Hyderabad,Sridevi Cinema: Chilakalguda,80.0,903,1,0,17.43143,78.51297,"BookMyShow, MediaAnt",KGF 2,Evening,Hot,No,538
Chennai,AVM Rajeswari A/C dts,97.97240740555556,603,1,0,13.0475424,80.2046086,Internet Research,Kantara,Night,Rainy,Yes,209
Chennai,Nadhamuni Cinema,97.97240740555556,650,1,0,13.1034052,80.2022335,Internet Research,Pushpa,Evening,Hot,Yes,32
Bangalore,"Ranganatha Theatre, Mysore Road",183.50891304903843,410,1,0,12.9632206,77.5663842,MediaAnt,Baahubali,Morning,Cloudy,Yes,32
Chennai,Murugan Cinemas - AmbatturDolby Atmos,97.97240740555556,960,1,0,13.1135444,80.1572574,Internet Research,Baahubali,Afternoon,Rainy,No,688
Bangalore,"Vullas Theatre, Yeshwantpura",183.50891304903843,961,1,0,13.019888,77.551474,MediaAnt,Pushpa,Night,Sunny,No,302
Kolkata,"Bijoli Cinema, Bhawanipore",187.80483726826088,921,1,0,22.5271158,88.34657,MediaAnt,Brahmastra,Night,Cloudy,No,813
Hyderabad,Mukta A2 Cinemas: Abids,90.0,637,1,0,17.38586,78.47723,BookMyShow,RRR,Evening,Humid,No,588
Kochi,"Jayalakshmi Talkies, Palluruthy",119.55509767142858,600,1,0,9.924479,76.2714001,MediaAnt,Shershaah,Morning,Sunny,No,407
Kochi,Sridar Cinemas: Ernakulam,114.0,530,1,0,9.979525,76.27683,"BookMyShow, Internet Research",Kabir Singh,Afternoon,Rainy,No,30
Bangalore,"Sujatha Talkies, Deepanjalinagar",183.50891304903843,450,1,0,12.9618776,77.5473551,MediaAnt,Brahmastra,Morning,Humid,No,225
Hyderabad,"Manikanta, Reddy Colony",95.06145388259615,394,1,0,17.337529,78.549634,MediaAnt,3 Idiots,Afternoon,Cloudy,Yes,62
Mumbai,"Bharat Chitra Mandir, Kurla North",198.1442727463636,398,2,1,19.071989,72.884082,MediaAnt,Shershaah,Evening,Rainy,No,67
Hyderabad,Raghavendra 70mm: Malkajgiri,70.0,691,1,0,17.4513,78.53616,"BookMyShow, MediaAnt",Shershaah,Afternoon,Sunny,No,323
Kolkata,"Regal Cinema, Dharmatala",187.80483726826088,500,1,0,22.5628269,88.3526567,MediaAnt,Jawan,Night,Sunny,Yes,179
Chennai,"Mahalakshmi Talkies, Strahans Road",97.97240740555556,1040,1,0,13.0975215,80.256593,MediaAnt,Baahubali,Evening,Humid,Yes,616
Mumbai,"PVR: Market City, Kurla (Premiere)",243.723545,910,5,1,19.08571,72.88842,BookMyShow,Brahmastra,Evening,Hot,No,215
Kolkata,"Crown Cinema, Dharmatala",187.80483726826088,1056,1,0,22.5598378,88.3582877,MediaAnt,Pushpa,Night,Stormy,No,590
Hyderabad,Asian Swapna 35mm: Katedan,90.0,272,1,0,17.31143,78.43869,"BookMyShow, MediaAnt",Kantara,Morning,Cloudy,Yes,213
Bangalore,Vinayaka Theatre: Harinagar,80.0,850,1,0,12.87488,77.57015,"BookMyShow, MediaAnt",Pushpa,Night,Rainy,No,833
Bangalore,"Cinepolis: Orion East Mall, Banaswadi",244.5454545,1097,5,1,13.00121,77.63265,"BookMyShow, MediaAnt",Kabir Singh,Afternoon,Humid,No,93
Hyderabad,"Sri Sai Ram Theatre, MainRoad",95.06145388259615,600,1,0,17.368235,78.526694,MediaAnt,KGF 2,Afternoon,Humid,Yes,122
Bangalore,Kapali Theatre: Gandhi Nagar,100.0,1475,1,0,12.97791,77.57578,"BookMyShow, MediaAnt",Pathaan,Night,Sunny,No,1264
Bangalore,"Nalanda Theatre, Mysore Road",183.50891304903843,1090,1,0,12.9605832,77.5578493,MediaAnt,Vikram,Afternoon,Rainy,Yes,667
Bangalore,Sri Krishna Digital 2K Cinema: Bommanahalli,100.0,800,1,0,12.90535,77.62936,"BookMyShow, MediaAnt",3 Idiots,Evening,Stormy,No,444
Bangalore,Sandhya Digital 4K Projection Dolby Atmos: Madiwal,125.0,720,1,0,12.92101,77.61794,"BookMyShow, MediaAnt",Drishyam 2,Afternoon,Sunny,No,615
Mumbai,"Super Cinema, Bharat Nagar",198.1442727463636,822,1,0,18.9620626,72.8209921,MediaAnt,Drishyam 2,Evening,Sunny,Yes,460
Bangalore,Abhinay Theatre: Gandhi Nagar,130.0,1019,1,0,12.97354,77.57755,"BookMyShow, MediaAnt",RRR,Afternoon,Humid,No,676
Chennai,"Bala Theatre, Anna Road",97.97240740555556,518,1,0,13.0949014,80.1855746,MediaAnt,KGF 2,Evening,Hot,No,261
Hyderabad,"Yakut Mahal Talkies, Yakutpura",95.06145388259615,521,1,0,17.3616553,78.4857269,MediaAnt,Kabir Singh,Evening,Stormy,Yes,184
Mumbai,"INOX: Inorbit Mall, Malad (W)",279.2494444,1212,7,1,19.17238,72.83547,BookMyShow,Jawan,Afternoon,Humid,Yes,481
Hyderabad,SVC Cinemas Eeshwar: Attapur,100.0,645,1,0,17.36645,78.42768,"BookMyShow, Internet Research",RRR,Evening,Humid,No,92
Bangalore,Vaibhav Digital 4K Cinema: Sanjaynagar,142.3333333,935,1,0,13.03558,77.57463,"BookMyShow, Internet Research",Pushpa,Afternoon,Rainy,Yes,664
Bangalore,"Uma Theatre, Chamrajpet",183.50891304903843,984,1,0,12.9554065,77.567022,MediaAnt,KGF 2,Night,Humid,No,972
Kolkata,"Basusree, SP Mukherjee Road",187.80483726826088,1020,1,0,22.5226283,88.3462934,MediaAnt,3 Idiots,Evening,Cloudy,No,817
Hyderabad,Sapna Cinemas: Abids,80.0,552,1,0,17.39103,78.47569,"BookMyShow, Internet Research",Drishyam 2,Evening,Cloudy,Yes,33
Kochi,"Cinepolis: VIP Centre Square Mall, Kochi",119.55509767142858,235,3,1,9.9778687,76.2831729,Internet Research,Shershaah,Morning,Stormy,No,115
Mumbai,Gold Cinema: Santacruz (W),205.3333333,420,1,0,19.08958,72.83912,BookMyShow,KGF 2,Evening,Cloudy,Yes,249
Chennai,"Pandian, Moolakadai",97.97240740555556,1002,1,0,13.1322548,80.2424585,MediaAnt,Pathaan,Evening,Stormy,No,170
Mumbai,"Gulshan Cinema, Ambewadi",198.1442727463636,725,1,0,18.9611893,72.8237326,MediaAnt,Sooryavanshi,Evening,Rainy,No,543
Ahmedabad,"Mukta A2 Cinemas: Gulmohar Park Mall, Satellite Rd",151.2708333,404,4,1,23.02655,72.50996,"BookMyShow, MediaAnt",Kabir Singh,Morning,Sunny,No,177
Bangalore,Rajarajeshwari Theatre: Nagarbhavi Circle,90.0,1080,1,0,12.95695,77.50206,"BookMyShow, MediaAnt",Dangal,Morning,Humid,No,805
Delhi,"PVR: Pacific, Delhi",446.3415179,1116,6,1,28.64269,77.10595,"BookMyShow, Internet Research",Sooryavanshi,Evening,Stormy,Yes,37
Chennai,"PVR: Velachery, Chennai",82.7,1275,5,1,12.97195,80.22036,"BookMyShow, MediaAnt",Baahubali,Night,Hot,No,897
Ahmedabad,"Cinemax: Dev Arc, Ahmedabad",176.4351852,1047,4,1,23.02573,72.50776,BookMyShow,Vikram,Evening,Cloudy,Yes,564
Bangalore,Poornima Theatre: J.C. Road,115.0,934,1,0,12.96096,77.58742,"BookMyShow, MediaAnt",Sooryavanshi,Night,Cloudy,No,397
Mumbai,PVR ICON: Versova (Gold),616.6666667,86,2,1,19.14147,72.83059,BookMyShow,Kantara,Afternoon,Cloudy,No,36
Hyderabad,Asian Radhika Multiplex: ECIL,130.0,894,3,1,17.47656,78.56309,BookMyShow,Jawan,Night,Cloudy,Yes,618
Kolkata,"Regal Cinema, Dharmatala",187.80483726826088,500,1,0,22.5628269,88.3526567,MediaAnt,Pathaan,Evening,Rainy,Yes,118
Chennai,"Pandian, Moolakadai",97.97240740555556,1002,1,0,13.1322548,80.2424585,MediaAnt,Kabir Singh,Evening,Sunny,No,18
Hyderabad,Venkataramana Cinema: Kachiguda,60.0,697,1,0,17.39069,78.49141,"BookMyShow, Internet Research",Kantara,Morning,Hot,Yes,290
Mumbai,"Super Cinema, Bharat Nagar",198.1442727463636,822,1,0,18.9620626,72.8209921,MediaAnt,Dangal,Evening,Humid,Yes,517
Bangalore,"Lavanya, Sivan Chetty Gardens",183.50891304903843,786,1,0,12.9848012,77.6148355,MediaAnt,RRR,Afternoon,Cloudy,Yes,697
Bangalore,Rex Theatre: Brigade Road,185.0,707,1,0,12.97262,77.60663,BookMyShow,Dangal,Evening,Stormy,No,338
Bangalore,Sri Vinayaka A/C Digital 2K Cinemas: Varthur,138.3333333,531,1,0,12.93572,77.74443,"BookMyShow, Internet Research",Baahubali,Night,Stormy,No,94
Bangalore,Sandhya Digital 4K Projection Dolby Atmos: Madiwal,125.0,720,1,0,12.92101,77.61794,"BookMyShow, MediaAnt",3 Idiots,Afternoon,Cloudy,No,272
Chennai,MM Theatre,97.97240740555556,772,1,0,13.1260232,80.2896379,Internet Research,Baahubali,Evening,Stormy,Yes,433
Hyderabad,Sree Sai Raja Theatre: Musheerabad,70.0,777,1,0,17.41634,78.49944,"BookMyShow, MediaAnt",Vikram,Evening,Cloudy,Yes,692
Ahmedabad,"Mira Cinema, Bhairavnath Road",149.09491512148148,1028,1,0,22.9972166,72.5927863,MediaAnt,Pushpa,Afternoon,Stormy,Yes,780
Mumbai,"Carnival: IMAX, Wadala",196.5968254,1634,5,1,19.03122,72.881,"BookMyShow, MediaAnt",Brahmastra,Afternoon,Sunny,Yes,369
Bangalore,"Manasa Theatre, Doddakallasandra",183.50891304903843,640,1,0,12.8906129,77.5622187,MediaAnt,Pathaan,Evening,Sunny,No,610
Hyderabad,Rajdhani 70mm: Dilsukhnagar,80.0,1050,1,0,17.36855,78.52989,"BookMyShow, MediaAnt",Baahubali,Afternoon,Cloudy,No,948
Bangalore,"INOX: Forum Neighbourhood Mall, Whitefield",301.3636364,725,5,1,12.9595,77.74789,BookMyShow,Kantara,Afternoon,Humid,No,555
Bangalore,Sri Vajreshwari Theatre: Ullal,110.0,844,1,0,12.94238,77.48814,"BookMyShow, MediaAnt",Kabir Singh,Evening,Sunny,Yes,432
Chennai,"Sri Murugan, Ambattur",97.97240740555556,960,1,0,13.100996,80.164051,MediaAnt,Baahubali,Morning,Humid,Yes,451
Bangalore,Venkateshwara A/c Digital 2K Cinema: K.R.Puram,104.0,877,1,0,13.00525,77.69667,BookMyShow,Jawan,Night,Cloudy,Yes,813
Ahmedabad,K Sera Sera: SG Highway,155.2083333,152,2,1,23.02873,72.50858,BookMyShow,Pushpa,Morning,Cloudy,Yes,45
Bangalore,Rex Theatre: Brigade Road,185.0,707,1,0,12.97262,77.60663,BookMyShow,Shershaah,Evening,Sunny,Yes,683
Bangalore,Thirumala Digital 2K Cinema: Agara,108.5,904,1,0,12.91991,77.64969,"BookMyShow, MediaAnt",RRR,Afternoon,Cloudy,Yes,680
Delhi,"Milan Cineplex, Karampura",301.8207102540476,1000,1,0,28.6626009,77.1462858,MediaAnt,Kabir Singh,Morning,Humid,No,67
Bangalore,"Padma Theatre, Amruthahalli",183.50891304903843,600,1,0,13.0687241,77.6026388,MediaAnt,KGF 2,Morning,Stormy,Yes,182
Bangalore,"PVR: VR Gold, Bengaluru",697.025,1,4,1,12.99651,77.69526,BookMyShow,Dangal,Night,Sunny,Yes,0
Ahmedabad,"Cinemax: Red Carpet, Ahmedabad",152.0524691,991,4,1,23.07968,72.5277,BookMyShow,Baahubali,Night,Humid,Yes,677
Bangalore,"INOX: Mantri Square, Malleshwaram",399.0611111,1497,6,1,12.99216,77.5703,"BookMyShow, MediaAnt",RRR,Evening,Stormy,No,1068
Kolkata,Mitra Cinema Hall: Kolkata,80.0,1146,1,0,22.59727,88.37205,"BookMyShow, Internet Research",Kabir Singh,Evening,Rainy,Yes,1017
Bangalore,Innovative Multiplex: Marathahalli,180.0,1406,4,1,12.9519,77.69905,BookMyShow,Jawan,Morning,Stormy,Yes,305
Hyderabad,Gokul 70MM: Erragadda,90.0,1224,1,0,17.45358,78.43435,"BookMyShow, MediaAnt",Pathaan,Afternoon,Cloudy,No,970
Chennai,Anna Theatre: Chennai,94.6,364,1,0,13.06717,80.27129,"BookMyShow, Internet Research",RRR,Morning,Rainy,No,162
Kolkata,"Star Theatre, Bidhan Sarani",187.80483726826088,685,1,0,22.5972365,88.3719017,MediaAnt,Vikram,Afternoon,Stormy,No,5
Hyderabad,Srilatha and Sridevi Complex: Chanda Nagar,55.0,2009,2,1,17.49805,78.3171,"BookMyShow, Internet Research",Kantara,Evening,Humid,Yes,242
Delhi,Batra Reels Cinemas: New Friends Colony,287.5,1500,1,0,28.56153,77.26865,"BookMyShow, MediaAnt",Jawan,Night,Stormy,No,351
Bangalore,HMT Digital 4K Cinema: Jalahalli,150.0,874,1,0,13.0495,77.5439,BookMyShow,RRR,Afternoon,Sunny,No,816
Bangalore,Veerabhadreshwara Theatre: Kamala Nagar,97.5,898,1,0,12.9931,77.52909,BookMyShow,KGF 2,Evening,Stormy,No,804
Kochi,Sarita Cinema: Kochi,110.0,2141,3,1,9.984626,76.27759,"BookMyShow, Internet Research",Pathaan,Afternoon,Sunny,Yes,180
Bangalore,Sapna Theatre: Gandhi Nagar,95.0,345,1,0,12.9743,77.57619,"BookMyShow, MediaAnt",Jawan,Morning,Humid,No,209
Bangalore,Sri Srinivasa Theatre: Padmanabanagara,110.0,725,1,0,12.90898,77.55804,"BookMyShow, Internet Research",Dangal,Afternoon,Stormy,No,70
Chennai,Woodlands Complex: Chennai,69.5,1713,2,1,13.05656,80.26497,"BookMyShow, MediaAnt",Drishyam 2,Evening,Rainy,No,1648
Kolkata,"Kamal Talkies, Garden Reach",187.80483726826088,848,1,0,22.5485444,88.2891741,MediaAnt,3 Idiots,Afternoon,Hot,No,724
Delhi,"DT Cinemas: DLF Place, Saket",286.0795455,953,6,1,28.5274,77.21713,BookMyShow,Brahmastra,Morning,Humid,Yes,276
Bangalore,Manasa Digital 4K Dolby Atmos: Konanakunte,175.0,640,1,0,12.89064,77.5622,"BookMyShow, MediaAnt",Pathaan,Afternoon,Stormy,No,297
Hyderabad,Lakshmi Kala Mandir: Alwal,70.0,277,1,0,17.49476,78.51121,BookMyShow,RRR,Night,Cloudy,Yes,11
Bangalore,"Fun Cinemas: Sigma Mall, Bengaluru",180.3571429,985,3,1,12.9882,77.59477,"BookMyShow, MediaAnt",Kabir Singh,Afternoon,Sunny,Yes,70
Hyderabad,"Sri Sai Ram Theatre, MainRoad",95.06145388259615,600,1,0,17.368235,78.526694,MediaAnt,RRR,Evening,Stormy,Yes,417
Hyderabad,Sampoorna 70mm: Vanasthalipuram,85.0,865,1,0,17.33121,78.57603,"BookMyShow, MediaAnt",Drishyam 2,Morning,Humid,No,40
Ahmedabad,"Apsara Cinema, Behrampura",149.09491512148148,1117,1,0,23.0039742,72.597468,MediaAnt,Pathaan,Morning,Hot,Yes,373
Mumbai,PVR: Sion,172.8125,730,3,1,19.04175,72.86422,"BookMyShow, MediaAnt",Jawan,Afternoon,Hot,No,702
Delhi,"7D Mastiii: TDI Mall, Rajouri Garden, Delhi",170.0,18,1,0,28.65083,77.12087,BookMyShow,Baahubali,Evening,Stormy,No,13
Bangalore,"PVR: Forum, Bengaluru",286.9333333,1590,10,1,12.93463,77.6113,"BookMyShow, MediaAnt",Jawan,Night,Humid,Yes,232
Ahmedabad,City Gold Satellite: Ahmedabad,156.1458333,371,4,1,23.01568,72.52992,BookMyShow,Vikram,Evening,Cloudy,No,281
Ahmedabad,"Hanjar Cinema, Gandhi Ashram",149.09491512148148,995,1,0,23.0263983,72.6040875,MediaAnt,KGF 2,Afternoon,Stormy,Yes,920
Hyderabad,Sri Mayuri Theatre: RTC X Roads,86.66666667,941,1,0,17.40747,78.49604,"BookMyShow, MediaAnt",Kantara,Evening,Rainy,Yes,301
Bangalore,Triveni Theatre: Gandhinagar,109.0,800,1,0,12.97628,77.57538,"BookMyShow, MediaAnt",Drishyam 2,Night,Rainy,Yes,215
Mumbai,"Silver Cinema, Ambewadi",198.1442727463636,636,1,0,18.9586775,72.8254684,MediaAnt,Sooryavanshi,Night,Humid,No,357
Mumbai,"Metro INOX Cinemas, Marine Lines",198.1442727463636,1342,5,1,18.9430131,72.8288781,Internet Research,Vikram,Afternoon,Hot,Yes,532
Bangalore,Nataraj Theatre: Sheshadripuram,183.50891304903843,1150,1,0,12.9897863,77.5729823,Internet Research,KGF 2,Night,Sunny,Yes,477
Ahmedabad,"Apsara Cinema, Behrampura",149.09491512148148,1117,1,0,23.0039742,72.597468,MediaAnt,Brahmastra,Morning,Stormy,No,174
Hyderabad,Alankar (Pratap Theatre): Langer House,100.0,774,1,0,17.37651,78.4196,"BookMyShow, Internet Research",Jawan,Evening,Cloudy,Yes,730
Kolkata,"Prabhat Cinema, Barabazar",187.80483726826088,700,1,0,22.5789136,88.3606355,MediaAnt,3 Idiots,Morning,Cloudy,Yes,250
Delhi,G3S Cinema: Rohini,228.5714286,809,3,1,28.73469,77.11376,BookMyShow,Pathaan,Evening,Hot,Yes,637
Hyderabad,"Sapthagiri 70Mm, Ashoknagar",95.06145388259615,1150,1,0,17.40743,78.496222,MediaAnt,Baahubali,Afternoon,Stormy,Yes,480
Chennai,"Chandran Theatre, Ashoknagar",97.97240740555556,515,1,0,13.0347676,80.2104299,MediaAnt,Dangal,Evening,Sunny,Yes,211
Hyderabad,Asian Sha: Chintal,85.0,716,1,0,17.4922,78.45173,BookMyShow,3 Idiots,Night,Sunny,Yes,37
Hyderabad,"Cinepolis: Mantra Mall, Attapur",200.0,1094,5,1,17.35388,78.4206,BookMyShow,3 Idiots,Morning,Rainy,Yes,118
Chennai,"Baby Albert Theatre, Whannels Road",97.97240740555556,242,1,0,13.0761555,80.263841,MediaAnt,Sooryavanshi,Afternoon,Hot,No,162
Bangalore,"PVR: Market City (4DX), Bengaluru",450.0,100,1,0,12.99725,77.69573,BookMyShow,Sooryavanshi,Afternoon,Humid,No,23
Mumbai,Maxus Cinemas: Borivali (W),224.6354167,917,4,1,19.23223,72.82884,"BookMyShow, MediaAnt",Pushpa,Evening,Humid,Yes,331
Mumbai,Gold Cinema: Dadar (E),155.0,245,1,0,19.00916,72.84208,BookMyShow,3 Idiots,Night,Sunny,Yes,197
Mumbai,Maxus Cinemas: Borivali (W),224.6354167,917,4,1,19.23223,72.82884,"BookMyShow, MediaAnt",3 Idiots,Afternoon,Cloudy,No,654
Bangalore,HMT Digital 4K Cinema: Jalahalli,150.0,874,1,0,13.0495,77.5439,BookMyShow,Pathaan,Night,Sunny,No,740
Bangalore,Sri Vinayaka Digital 2K Cinema (D.J.Halli),109.0,850,1,0,13.0144,77.60564,"BookMyShow, MediaAnt",Pushpa,Evening,Rainy,Yes,226
Hyderabad,"Srinivas Theatre, Allapur",95.06145388259615,461,1,0,17.4345092,78.4467967,MediaAnt,Pushpa,Afternoon,Rainy,Yes,430
Delhi,"PVR: Sangam, Delhi",312.2321429,392,2,1,28.57239,77.1735,BookMyShow,Jawan,Night,Cloudy,Yes,313
Ahmedabad,Anupam Cinema: Ahmedabad,125.8333333,781,1,0,23.00656,72.61333,BookMyShow,Baahubali,Night,Humid,No,639
Bangalore,Cinesquare Savitha Theatre: Malleshwaram,133.3333333,350,1,0,12.99296,77.57113,"BookMyShow, Internet Research",Shershaah,Afternoon,Rainy,No,259
Chennai,Anna Theatre: Chennai,94.6,364,1,0,13.06717,80.27129,"BookMyShow, Internet Research",Pathaan,Morning,Sunny,Yes,36
Kolkata,11D Adventureplex: Quest Mall,250.0,30,1,0,22.52575,88.35952,"BookMyShow, Internet Research",RRR,Afternoon,Sunny,Yes,4
Bangalore,Galaxy Paradise Screen 1: Bommanahalli Hosur Rd,160.0,100,1,0,12.89108,77.62648,"BookMyShow, Internet Research",Dangal,Morning,Stormy,Yes,37
Delhi,"PVR: Sangam, Delhi",312.2321429,392,2,1,28.57239,77.1735,BookMyShow,3 Idiots,Afternoon,Hot,No,57
Hyderabad,"Brahmarambha 70 Mm, Hyder nagar",95.06145388259615,861,1,0,17.5000891,78.386969,MediaAnt,Pathaan,Night,Sunny,No,582
Kochi,"Jyothy, PP Road",119.55509767142858,713,1,0,9.9579586,76.2902266,MediaAnt,Kantara,Morning,Stormy,Yes,83
Hyderabad,Devi 70mm 4K & Dolby Atmos: RTC X Roads,118.0,1200,1,0,17.40627,78.49504,"BookMyShow, Internet Research",3 Idiots,Afternoon,Hot,Yes,1188
Hyderabad,Vijetha 70MM: Borabanda,80.0,786,1,0,17.45421,78.41913,"BookMyShow, MediaAnt",Pushpa,Night,Rainy,No,721
Hyderabad,"Nagendra 70 Mm, Main Road",95.06145388259615,711,1,0,17.3561,78.5333,MediaAnt,Brahmastra,Afternoon,Rainy,No,345
Kolkata,11D Adventureplex: Quest Mall,250.0,30,1,0,22.52575,88.35952,"BookMyShow, Internet Research",Drishyam 2,Morning,Sunny,Yes,26
Mumbai,"Cinepolis: Magnet Mall, Bhandup (W)",210.2347222,956,6,1,19.14114,72.93097,"BookMyShow, MediaAnt",RRR,Night,Humid,Yes,145
Kolkata,"Elite Cinema, Dharmatala",187.80483726826088,1258,1,0,22.5630154,88.3538713,MediaAnt,Sooryavanshi,Night,Hot,No,1009
Mumbai,"PVR: Market City, Kurla (Gold)",530.0,137,2,1,19.08571,72.88842,BookMyShow,Drishyam 2,Evening,Sunny,Yes,11
Ahmedabad,"Aradhana Cinema, Behrampura",149.09491512148148,455,1,0,23.00396,72.5975195,MediaAnt,Pushpa,Night,Stormy,Yes,282
Hyderabad,Sree Ramulu 70mm: Moosapet,70.0,849,1,0,17.46784,78.42939,"BookMyShow, MediaAnt",KGF 2,Night,Humid,Yes,23
Mumbai,Maxus Cinemas: Saki Naka,194.9404762,951,4,1,19.09339,72.88374,BookMyShow,Baahubali,Evening,Sunny,No,622
Chennai,"Bala Theatre, Anna Road",97.97240740555556,518,1,0,13.0949014,80.1855746,MediaAnt,Kantara,Evening,Stormy,No,256
Bangalore,"INOX: Mantri Square, Malleshwaram",399.0611111,1497,6,1,12.99216,77.5703,"BookMyShow, MediaAnt",KGF 2,Morning,Humid,No,646
Bangalore,Sri Lakshmi Theatre: Ramamurthy Nagar,100.0,618,1,0,13.0103,77.67387,"BookMyShow, MediaAnt",KGF 2,Evening,Rainy,Yes,35
Hyderabad,Sri Mayuri Theatre: RTC X Roads,86.66666667,941,1,0,17.40747,78.49604,"BookMyShow, MediaAnt",RRR,Morning,Hot,Yes,111
Mumbai,"Cinemax: R Odeon Mall, Ghatkopar (E)",158.3928571,1250,4,1,19.0796,72.90937,"BookMyShow, Internet Research",Brahmastra,Evening,Humid,Yes,360
Mumbai,"Edward Talkies, Kalbadevi",198.1442727463636,509,1,0,18.945067,72.828944,MediaAnt,Vikram,Night,Stormy,No,477
Mumbai,Nandi Cinema: National Library Road,65.0,762,1,0,19.05546,72.83874,BookMyShow,Vikram,Night,Rainy,Yes,337
Delhi,"PVR: Plaza-CP, Delhi",366.6666667,300,1,0,28.63515,77.21966,BookMyShow,RRR,Evening,Rainy,No,221
Mumbai,"Carnival: Sangam, Andheri",230.712963,1274,4,1,19.11239,72.86467,BookMyShow,Shershaah,Morning,Humid,Yes,910
Mumbai,"Mayur Cinema, Subhash Lane",198.1442727463636,645,1,0,19.2020115,72.8450572,MediaAnt,Baahubali,Afternoon,Humid,Yes,474
Bangalore,Cinepolis: Royal Meenakshi Mall,271.0,1344,7,1,12.876,77.59582,"BookMyShow, MediaAnt",Shershaah,Afternoon,Humid,Yes,80
Bangalore,Sapna Theatre: Gandhi Nagar,95.0,345,1,0,12.9743,77.57619,"BookMyShow, MediaAnt",Sooryavanshi,Morning,Cloudy,No,67
Bangalore,Nartaki Theatre: Gandhi Nagar,111.5,1150,1,0,12.9743,77.57619,"BookMyShow, Internet Research",Pushpa,Afternoon,Cloudy,No,302
Mumbai,Maxus Cinemas: Saki Naka,194.9404762,951,4,1,19.09339,72.88374,BookMyShow,Baahubali,Evening,Stormy,Yes,131
Kolkata,"Ellora Cinema, Behala Municipal Market",187.80483726826088,2080,2,1,22.5000008,88.31873,MediaAnt,Vikram,Morning,Sunny,No,1592
Bangalore,"Anand Theatre, No-268",183.50891304903843,947,1,0,13.011335,77.609965,MediaAnt,RRR,Evening,Stormy,No,857
Mumbai,"Carnival: IMAX, Wadala",196.5968254,1634,5,1,19.03122,72.881,"BookMyShow, MediaAnt",3 Idiots,Evening,Rainy,No,592
Bangalore,Rajarajeshwari Theatre: Nagarbhavi Circle,90.0,1080,1,0,12.95695,77.50206,"BookMyShow, MediaAnt",Dangal,Night,Humid,Yes,69
Ahmedabad,"Cinemax: Red Carpet, Ahmedabad",152.0524691,991,4,1,23.07968,72.5277,BookMyShow,Jawan,Evening,Rainy,Yes,926
Delhi,"PVR: Anupam, Delhi",170.6018519,1000,4,1,28.52374,77.20716,"BookMyShow, Internet Research",Sooryavanshi,Evening,Humid,No,228
Chennai,Rohini Silver Screens: Chennai,104.03,3175,7,1,13.07575,80.19586,BookMyShow,Sooryavanshi,Night,Rainy,Yes,1406
Bangalore,Sangeet Theatre: Shivaji Nagar,115.0,860,1,0,12.98161,77.60294,"BookMyShow, MediaAnt",Kabir Singh,Evening,Cloudy,No,602
Delhi,"PVR: Select City Walk (Gold), Delhi",943.75,40,1,0,28.52857,77.21973,BookMyShow,Dangal,Morning,Sunny,Yes,6
Kochi,Sarita Cinema: Kochi,110.0,2141,3,1,9.984626,76.27759,"BookMyShow, Internet Research",Brahmastra,Afternoon,Humid,Yes,1145
Mumbai,"Cinepolis: Magnet Mall, Bhandup (W)",210.2347222,956,6,1,19.14114,72.93097,"BookMyShow, MediaAnt",Jawan,Morning,Humid,No,788
Bangalore,Akash Cinemas (Rajeshwari Theatre): Laggere,125.0,780,1,0,13.01481,77.51611,"BookMyShow, MediaAnt",Vikram,Afternoon,Cloudy,No,107
Bangalore,"PVR: IMAX, VR Bengaluru, Whitefield",292.0,292,1,0,12.99639,77.69531,BookMyShow,Sooryavanshi,Night,Cloudy,Yes,159
Mumbai,"INOX: Nakshatra Mall, Dadar (W)",167.3333333,272,1,0,19.0199,72.84133,BookMyShow,Sooryavanshi,Night,Rainy,No,111
Delhi,Gagan Cinema: Delhi,62.5,982,1,0,28.69635,77.31493,"BookMyShow, MediaAnt",Kabir Singh,Night,Humid,Yes,82
Bangalore,Sri Vinayaka A/C Digital 2K Cinemas: Varthur,138.3333333,531,1,0,12.93572,77.74443,"BookMyShow, Internet Research",Jawan,Afternoon,Stormy,Yes,172
Chennai,Srinivasa Theatre,97.97240740555556,900,1,0,13.0310779,80.2250651,Internet Research,Pathaan,Night,Sunny,Yes,48
Mumbai,New Excelsior Mukta A2 Cinemas: Fort,160.25,596,1,0,18.93768,72.83344,BookMyShow,Kantara,Night,Sunny,No,392
Hyderabad,Vyjayanthi Cinema: Nacharam,100.0,711,1,0,17.42889,78.55238,"BookMyShow, MediaAnt",Baahubali,Morning,Sunny,Yes,684
Kolkata,7D Adventure Plex: Mani Square Mall,200.0,32,1,0,22.57758,88.4006,BookMyShow,Drishyam 2,Night,Sunny,Yes,19
Bangalore,"Cinepolis: Orion East Mall, Banaswadi",244.5454545,1097,5,1,13.00121,77.63265,"BookMyShow, MediaAnt",Brahmastra,Night,Rainy,Yes,199
Bangalore,Sri Vajreshwari Theatre: Ullal,110.0,844,1,0,12.94238,77.48814,"BookMyShow, MediaAnt",Kantara,Afternoon,Hot,No,559
Delhi,"PVR: Naraina, Delhi",221.6666667,830,4,1,28.63308,77.13889,"BookMyShow, MediaAnt",Pathaan,Afternoon,Stormy,Yes,409
Bangalore,"7D Mastiii: Forum Value Mall, Whitefield",150.0,16,1,0,12.95972,77.74778,BookMyShow,3 Idiots,Morning,Stormy,Yes,9
Bangalore,Vijay Theatre: Byatarayanapura,118.0,912,1,0,12.94846,77.53969,"BookMyShow, MediaAnt",Pathaan,Morning,Stormy,No,570
Hyderabad,Devi 70mm 4K & Dolby Atmos: RTC X Roads,118.0,1200,1,0,17.40627,78.49504,"BookMyShow, Internet Research",Shershaah,Afternoon,Cloudy,Yes,20
Bangalore,Vishal A/C Theatre: Kamakshipalya,80.0,875,1,0,12.98318,77.53018,"BookMyShow, MediaAnt",Shershaah,Evening,Humid,Yes,506
Bangalore,Vaibhavi A/C Theatre: Uttarahalli,105.0,715,1,0,12.90348,77.54415,"BookMyShow, MediaAnt",KGF 2,Morning,Rainy,No,168
Chennai,Rakki Cinemas - Ambattur,97.97240740555556,361,1,0,13.1227657,80.1476317,Internet Research,Drishyam 2,Afternoon,Humid,Yes,174
Hyderabad,Prashant Cinema: Secunderabad,80.0,1048,1,0,17.43958,78.49856,"BookMyShow, MediaAnt",Pathaan,Evening,Stormy,Yes,418
Ahmedabad,"Cinepolis: Alpha One Mall, Ahmedabad",197.9494949,1136,6,1,23.03952,72.53199,"BookMyShow, MediaAnt",Pathaan,Night,Stormy,No,477
Chennai,"Thirumurugan, Ambattur",97.97240740555556,510,1,0,13.1212603,80.1513583,MediaAnt,Dangal,Evening,Cloudy,Yes,85
Bangalore,Murali Gokula Digital 4K Cinema: Mathikere,118.0,900,1,0,13.03842,77.5526,"BookMyShow, MediaAnt",Shershaah,Evening,Hot,Yes,367
Hyderabad,"Miraj Cinemas: Shalini Shivani, Hyderabad",158.8541667,1286,4,1,17.36764,78.5362,BookMyShow,Dangal,Afternoon,Hot,No,86
Bangalore,Movie Land,183.50891304903843,648,1,0,12.9788182,77.5755948,Internet Research,Pushpa,Evening,Rainy,Yes,207
Bangalore,Kamakya Cinema: Banashankari,100.0,706,1,0,12.92331,77.55334,"BookMyShow, MediaAnt",Kabir Singh,Night,Sunny,No,454
Delhi,Amba Cinema: Delhi,128.0,486,1,0,28.67724,77.20104,BookMyShow,RRR,Morning,Cloudy,Yes,39
Kochi,"Evm Cinema Studio, KSRTC Road",119.55509767142858,1220,4,1,9.9468236,76.2556623,MediaAnt,Kabir Singh,Morning,Rainy,No,452
Mumbai,Natraj Cinema: Chembur,65.0,746,1,0,19.06247,72.89922,BookMyShow,Brahmastra,Evening,Hot,No,135
Mumbai,Plaza Cinema: Dadar,227.5,691,1,0,19.02185,72.84276,BookMyShow,Drishyam 2,Evening,Cloudy,No,383
Kochi,Padma Cinema Screen 2: Ernakulam,110.0,98,1,0,9.981755,76.2826,BookMyShow,Jawan,Night,Cloudy,No,81
Kochi,Sridar Cinemas: Ernakulam,114.0,530,1,0,9.979525,76.27683,"BookMyShow, Internet Research",Baahubali,Night,Rainy,No,192
Hyderabad,Aradhna Theatre-Tarnaka,95.06145388259615,806,1,0,17.4248734,78.5333863,Internet Research,Pushpa,Night,Humid,Yes,40
Mumbai,"Shalimar Cinema, Bharat Nagar",198.1442727463636,704,1,0,18.9616462,72.8210111,MediaAnt,Drishyam 2,Morning,Sunny,No,222
Bangalore,Vainidhi Digital 2K Cinemas (Chandan): Singapura,110.0,725,1,0,13.07427,77.5405,"BookMyShow, MediaAnt",Pushpa,Morning,Stormy,No,662
Mumbai,Carnival: R Mall Mulund,150.9619048,1353,4,1,19.18385,72.95173,BookMyShow,Dangal,Morning,Hot,No,1263
Mumbai,"Cinemax: R Odeon Mall, Ghatkopar (E)",158.3928571,1250,4,1,19.0796,72.90937,"BookMyShow, Internet Research",Baahubali,Afternoon,Humid,No,879
Delhi,Delite Cinema: Asaf Ali Road,93.75,110,2,1,28.64122,77.23587,BookMyShow,Shershaah,Night,Cloudy,Yes,70
Bangalore,Balaji Digital 2K Cinema: Tavarekere,120.0,880,1,0,12.92554,77.60781,"BookMyShow, MediaAnt",Pathaan,Night,Rainy,No,236
Mumbai,EROS Theatre,198.1442727463636,1204,1,0,18.932265,72.8279021,Internet Research,Dangal,Night,Rainy,Yes,97
Kolkata,Paradise Cinema: Kolkata,110.0,1063,1,0,22.5668,88.35196,"BookMyShow, Internet Research",Pathaan,Evening,Cloudy,No,752
Ahmedabad,"PVR: Acropolis, Ahmedabad",232.1338384,1343,6,1,23.04884,72.51621,BookMyShow,Brahmastra,Morning,Stormy,No,307
Bangalore,Navrang Theatre: Rajaji Nagar,90.0,990,1,0,12.99784,77.5528,"BookMyShow, MediaAnt",Pushpa,Night,Hot,No,649
Ahmedabad,"PVR: Acropolis, Ahmedabad",232.1338384,1343,6,1,23.04884,72.51621,BookMyShow,Dangal,Night,Cloudy,No,1028
Mumbai,Gold Cinema: Dadar (E),155.0,245,1,0,19.00916,72.84208,BookMyShow,Kabir Singh,Evening,Humid,Yes,9
Hyderabad,Prashant Cinema: Secunderabad,80.0,1048,1,0,17.43958,78.49856,"BookMyShow, MediaAnt",Jawan,Evening,Rainy,Yes,763
Mumbai,"Moti Cinema, Ambewadi",198.1442727463636,745,1,0,18.9583336,72.8265371,MediaAnt,Sooryavanshi,Morning,Cloudy,No,669
Hyderabad,"Srinivas Theatre, Allapur",95.06145388259615,461,1,0,17.4345092,78.4467967,MediaAnt,Drishyam 2,Afternoon,Sunny,Yes,73
Chennai,"Thirumurugan, Ambattur",97.97240740555556,510,1,0,13.1212603,80.1513583,MediaAnt,Baahubali,Morning,Cloudy,No,64
Hyderabad,Santosh Cinemas: Abids,90.0,812,1,0,17.39103,78.47569,"BookMyShow, Internet Research",Brahmastra,Evening,Hot,Yes,353
Mumbai,"Alankar Cinema, Ambewadi",198.1442727463636,942,1,0,18.9579554,72.8254315,MediaAnt,Dangal,Evening,Stormy,Yes,855
Bangalore,"Shobha Talkies, Bhabuji Nagar",183.50891304903843,1000,1,0,12.9574781,77.543303,MediaAnt,Drishyam 2,Afternoon,Humid,No,318
Bangalore,Parimala Digital 2K Cinema: K.R.Market,183.50891304903843,1112,1,0,12.963107,77.57705,Internet Research,RRR,Afternoon,Stormy,No,207
Kolkata,Priya Cinema: Rashbehari Avenue,152.0,793,1,0,22.51794,88.35438,BookMyShow,Vikram,Evening,Sunny,No,373
Bangalore,Radhakrishna Theatre: R.T. Nagar,125.0,921,1,0,13.01337,77.59387,BookMyShow,Jawan,Night,Rainy,No,364
Hyderabad,Carnival: Ameerpet,150.0,1361,4,1,17.43026,78.44846,BookMyShow,Shershaah,Afternoon,Cloudy,Yes,949
Ahmedabad,"Mukta A2 Cinemas: Gulmohar Park Mall, Satellite Rd",151.2708333,404,4,1,23.02655,72.50996,"BookMyShow, MediaAnt",Sooryavanshi,Morning,Hot,Yes,192
Chennai,Kumaran Theatre QUBE A/C DTS: Madipakkam,0.0,1008,1,0,12.97191,80.19214,"BookMyShow, Internet Research",3 Idiots,Night,Sunny,No,662
Bangalore,Veeresh Cinemas Screen 2: Magadi Rd,100.0,214,1,0,12.97707,77.54595,BookMyShow,Dangal,Afternoon,Stormy,No,211
Mumbai,"Royal Talkies, Falkland Road",198.1442727463636,708,1,0,18.9614956,72.8238455,MediaAnt,Dangal,Night,Hot,No,441
Kolkata,"Elite Cinema, Dharmatala",187.80483726826088,1258,1,0,22.5630154,88.3538713,MediaAnt,Baahubali,Morning,Sunny,Yes,437
Delhi,Carnival: Odeon Complex,493.0555556,592,2,1,28.63429,77.22107,BookMyShow,Kabir Singh,Morning,Rainy,Yes,284
Bangalore,"PVR: Pepsi IMAX, Koramangala",365.0,346,1,0,12.93455,77.61109,BookMyShow,3 Idiots,Morning,Humid,No,78
Delhi,Carnival: Odeon Complex,493.0555556,592,2,1,28.63429,77.22107,BookMyShow,Baahubali,Evening,Cloudy,No,193
Bangalore,"Shobha Talkies, Bhabuji Nagar",183.50891304903843,1000,1,0,12.9574781,77.543303,MediaAnt,Sooryavanshi,Afternoon,Humid,No,448
Ahmedabad,Miraj City Pulse: Ahmedabad,158.7590909,936,4,1,23.01467,72.5964,BookMyShow,Pushpa,Afternoon,Stormy,No,165
Hyderabad,Rukmini Cinema: Patancheru,70.0,956,1,0,17.53212,78.26473,"BookMyShow, Internet Research",Baahubali,Morning,Sunny,Yes,721
Delhi,"PVR: Sangam, Delhi",312.2321429,392,2,1,28.57239,77.1735,BookMyShow,Kantara,Morning,Hot,Yes,200
Bangalore,Sri Lakshmi Theatre: Ramamurthy Nagar,100.0,618,1,0,13.0103,77.67387,"BookMyShow, MediaAnt",Kantara,Afternoon,Stormy,Yes,158
Delhi,Movietime: Pitampura,168.3928571,788,3,1,28.70582,77.14283,"BookMyShow, Internet Research",Dangal,Morning,Rainy,No,218
Chennai,Devi Karumari A/C,97.97240740555556,850,1,0,13.0499059,80.1934024,Internet Research,Vikram,Evening,Humid,Yes,321
Hyderabad,"Usha Mayuri, Ashoknagar",95.06145388259615,749,1,0,17.405727,78.488421,MediaAnt,Brahmastra,Morning,Sunny,Yes,30
Mumbai,"Amar Theatre, Chembur",198.1442727463636,1155,1,0,19.0523111,72.9101544,MediaAnt,Kabir Singh,Afternoon,Hot,No,375
Chennai,Murugan Cinemas - AmbatturDolby Atmos,97.97240740555556,960,1,0,13.1135444,80.1572574,Internet Research,Jawan,Evening,Hot,Yes,749
Bangalore,"PVR: Forum, Bengaluru",286.9333333,1590,10,1,12.93463,77.6113,"BookMyShow, MediaAnt",Dangal,Afternoon,Rainy,No,1457
Bangalore,Gopalan Grand Mall: Old Madras Road,256.1111111,1030,4,1,12.99336,77.66397,"BookMyShow, MediaAnt",Vikram,Morning,Rainy,Yes,435
Mumbai,"Carnival: IMAX, Wadala",196.5968254,1634,5,1,19.03122,72.881,"BookMyShow, MediaAnt",3 Idiots,Morning,Stormy,No,870
Hyderabad,Sri Lakshmi Deluxe: Karmanghat,80.0,629,1,0,17.34575,78.53156,"BookMyShow, MediaAnt",Pushpa,Morning,Stormy,Yes,60
Mumbai,Chandan Cinema: Juhu,155.75,587,1,0,19.1147,72.8269,BookMyShow,Jawan,Afternoon,Sunny,No,528
Bangalore,"INOX Lido: Off MG Road, Ulsoor",338.4166667,1259,5,1,12.97324,77.62128,BookMyShow,KGF 2,Night,Hot,Yes,1110
Bangalore,"Cinepolis: Orion East Mall, Banaswadi",244.5454545,1097,5,1,13.00121,77.63265,"BookMyShow, MediaAnt",RRR,Afternoon,Hot,No,570
Mumbai,"Carnival: Huma, Kanjurmarg",136.6916667,1263,4,1,19.12873,72.92615,BookMyShow,Sooryavanshi,Night,Hot,Yes,197
Mumbai,"PVR: Oberoi Mall, Goregaon (E)",264.9142857,1782,6,1,19.17399,72.86125,"BookMyShow, MediaAnt",Baahubali,Morning,Stormy,No,358
Bangalore,Anjan Digital 4K A/C Cinema: Magadi Road,125.0,990,1,0,12.97517,77.55891,"BookMyShow, MediaAnt",RRR,Morning,Hot,Yes,643
Bangalore,Aruna Theatre: Srirampuram,109.0,936,1,0,12.98679,77.56722,"BookMyShow, MediaAnt",RRR,Afternoon,Hot,Yes,87
Hyderabad,Satyam Theatre: Ameerpet,60.0,1243,1,0,17.43715,78.44877,"BookMyShow, Internet Research",Sooryavanshi,Afternoon,Rainy,No,802
Mumbai,"Super Cinema, Bharat Nagar",198.1442727463636,822,1,0,18.9620626,72.8209921,MediaAnt,Baahubali,Afternoon,Stormy,No,113
Delhi,"Batra Cinema, Dr.Mukerjee Nagar",301.8207102540476,1000,1,0,28.7113494,77.2150536,MediaAnt,Drishyam 2,Morning,Hot,No,380
Hyderabad,"Miraj Cinemas: Shalini Shivani, Hyderabad",158.8541667,1286,4,1,17.36764,78.5362,BookMyShow,Shershaah,Morning,Cloudy,No,1262
Bangalore,Sri Venkateshwara Theatre: Kengeri,100.0,500,1,0,12.90644,77.48277,"BookMyShow, MediaAnt",3 Idiots,Morning,Sunny,Yes,421
Mumbai,"PVR: Market City, Kurla (Premiere)",243.723545,910,5,1,19.08571,72.88842,BookMyShow,Baahubali,Evening,Hot,Yes,701
Mumbai,Gold Cinema: Santacruz (W),205.3333333,420,1,0,19.08958,72.83912,BookMyShow,Baahubali,Morning,Stormy,Yes,301
Kolkata,Mitra Cinema Hall: Kolkata,80.0,1146,1,0,22.59727,88.37205,"BookMyShow, Internet Research",Shershaah,Morning,Stormy,Yes,703
Hyderabad,"Sheeshmahal Cinema, Begumpet",95.06145388259615,459,1,0,17.43461,78.448894,MediaAnt,Baahubali,Night,Rainy,Yes,23
Mumbai,"PVR: Growel, Kandivali (E)",228.452381,482,4,1,19.20261,72.86005,BookMyShow,Pushpa,Morning,Stormy,Yes,227
Hyderabad,Sensation Insomnia: Khairatabad,80.0,555,1,0,17.40693,78.46363,"BookMyShow, MediaAnt",Vikram,Afternoon,Stormy,Yes,131
Chennai,"Saravana Theatre, Brick Kiln Road",97.97240740555556,600,1,0,13.0928614,80.2515167,MediaAnt,Pushpa,Morning,Sunny,Yes,75
Mumbai,Sangeeta Cineplex: Malad,128.45,178,1,0,19.18976,72.85168,BookMyShow,Baahubali,Evening,Stormy,No,164
Bangalore,Parimala Digital 2K Cinema: K.R.Market,183.50891304903843,1112,1,0,12.963107,77.57705,Internet Research,KGF 2,Night,Humid,No,1060
Hyderabad,Asian CineSquare Multiplex: Uppal,125.0,1512,5,1,17.40215,78.57207,BookMyShow,Kabir Singh,Afternoon,Humid,Yes,1024
Hyderabad,Sri Sai Ram Theatre: Malkajgiri,55.0,700,1,0,17.44632,78.5354,"BookMyShow, MediaAnt",Pathaan,Afternoon,Rainy,Yes,619
Kolkata,"Darpana, Bidhan Sarani",187.80483726826088,690,1,0,22.5977679,88.372279,MediaAnt,Sooryavanshi,Morning,Cloudy,No,51
Mumbai,"INOX: Raghuleela Mall, Kandivali (W)",194.4583333,1236,5,1,19.21345,72.84918,BookMyShow,Baahubali,Morning,Hot,Yes,50
Hyderabad,Rajyalakshmi 70mm: Uppal,55.0,662,1,0,17.39664,78.5603,BookMyShow,3 Idiots,Afternoon,Humid,No,320
Bangalore,Innovative Multiplex: Marathahalli,180.0,1406,4,1,12.9519,77.69905,BookMyShow,Kantara,Night,Hot,No,1272
Kochi,Sarita Cinema: Kochi,110.0,2141,3,1,9.984626,76.27759,"BookMyShow, Internet Research",Jawan,Night,Sunny,No,1333
Chennai,Bharath Theatre Dolby AtmosDolby Atmos,97.97240740555556,963,1,0,13.1102599,80.2797875,Internet Research,Baahubali,Morning,Cloudy,Yes,829
Ahmedabad,"Galaxy, Station Road",149.09491512148148,909,1,0,23.0748037,72.6554437,MediaAnt,Sooryavanshi,Morning,Humid,No,127
Kochi,"Jayalakshmi Talkies, Palluruthy",119.55509767142858,600,1,0,9.924479,76.2714001,MediaAnt,Jawan,Night,Stormy,Yes,266
Bangalore,Cinepolis: Royal Meenakshi Mall,271.0,1344,7,1,12.876,77.59582,"BookMyShow, MediaAnt",Drishyam 2,Morning,Humid,No,427
Bangalore,"Narendra Talkies, Arabic College",183.50891304903843,500,1,0,13.026733,77.62075,MediaAnt,KGF 2,Morning,Rainy,No,379
Bangalore,Rajarajeshwari Theatre: Nagarbhavi Circle,90.0,1080,1,0,12.95695,77.50206,"BookMyShow, MediaAnt",Shershaah,Evening,Stormy,No,360
Bangalore,"Gopalan Cinemas: Arcade Mall, Mysore Road",250.3846154,1019,3,1,12.93531,77.51761,BookMyShow,Pushpa,Morning,Humid,Yes,872
Hyderabad,Lakshmi Kala Mandir: Alwal,70.0,277,1,0,17.49476,78.51121,BookMyShow,KGF 2,Night,Rainy,Yes,30
Mumbai,"INOX: Neelyog, Ghatkopar (E)",159.4047619,915,4,1,19.08522,72.90917,BookMyShow,Kantara,Evening,Rainy,Yes,223
Mumbai,"INOX: Inorbit Mall, Malad (W)",279.2494444,1212,7,1,19.17238,72.83547,BookMyShow,Baahubali,Afternoon,Hot,Yes,1194
Bangalore,Pushpanjali A/C Theatre: B.N. Pura,125.0,999,1,0,12.99809,77.67521,"BookMyShow, MediaAnt",Baahubali,Afternoon,Rainy,Yes,96
Delhi,INOX Eros One: Jangpura Extn,465.4166667,317,1,0,28.58122,77.24199,BookMyShow,Brahmastra,Night,Humid,No,157
Mumbai,PVR ICON: Versova (Gold),616.6666667,86,2,1,19.14147,72.83059,BookMyShow,Jawan,Afternoon,Rainy,No,10
Kolkata,"Mayur Cinema, Chittaranjan Avenue",187.80483726826088,853,1,0,22.5751236,88.3538911,MediaAnt,Drishyam 2,Morning,Rainy,No,83
Bangalore,Rex Theatre: Brigade Road,185.0,707,1,0,12.97262,77.60663,BookMyShow,Drishyam 2,Night,Humid,Yes,193
Bangalore,Sandhya Digital 4K Projection Dolby Atmos: Madiwal,125.0,720,1,0,12.92101,77.61794,"BookMyShow, MediaAnt",Vikram,Morning,Hot,Yes,714
Delhi,PVR: Shalimar Bagh,311.0714286,1142,4,1,28.70282,77.15833,"BookMyShow, MediaAnt",Brahmastra,Night,Hot,No,854
Mumbai,"New Shirin Talkies, Agripada",198.1442727463636,801,1,0,18.9811379,72.8260349,MediaAnt,Drishyam 2,Night,Stormy,Yes,428
Chennai,"Krishnaveni, South Usman Raod",97.97240740555556,898,1,0,13.0346055,80.2307106,MediaAnt,3 Idiots,Morning,Stormy,Yes,89
Delhi,"PVR: Anupam, Delhi",170.6018519,1000,4,1,28.52374,77.20716,"BookMyShow, Internet Research",Baahubali,Night,Hot,No,688
Hyderabad,"Pratap Theatre, Gandhi Bhawan",95.06145388259615,774,1,0,17.3882628,78.4707395,MediaAnt,Pushpa,Morning,Hot,Yes,177
Bangalore,"Lakshmi Theatre, Dharmaram College",183.50891304903843,900,1,0,12.9362,77.6028377,MediaAnt,Pushpa,Night,Stormy,Yes,54
Ahmedabad,City Gold Satellite: Ahmedabad,156.1458333,371,4,1,23.01568,72.52992,BookMyShow,Pathaan,Night,Rainy,Yes,141
Delhi,Carnival: Odeon Complex,493.0555556,592,2,1,28.63429,77.22107,BookMyShow,Vikram,Afternoon,Hot,Yes,11
Hyderabad,Asian GPR Multiplex: Kukatpally,162.5,1143,3,1,17.49923,78.39067,BookMyShow,Vikram,Night,Humid,No,619
Mumbai,"Ashish Theatre, Chembur Extension",198.1442727463636,1000,1,0,19.039534,72.89525,MediaAnt,Shershaah,Afternoon,Stormy,Yes,487
Mumbai,Maratha Mandir: Mumbai Central,60.0,1107,1,0,18.97133,72.82214,BookMyShow,Drishyam 2,Evening,Cloudy,No,1042
Hyderabad,Sai Ranga: Miyapur,76.66666667,1179,1,0,17.49551,78.35974,"BookMyShow, MediaAnt",Pathaan,Night,Humid,Yes,471
Chennai,Srinivasa Theatre,97.97240740555556,900,1,0,13.0310779,80.2250651,Internet Research,Brahmastra,Morning,Cloudy,No,81
Bangalore,Navrang Theatre: Rajaji Nagar,90.0,990,1,0,12.99784,77.5528,"BookMyShow, MediaAnt",Pathaan,Evening,Hot,Yes,661
Bangalore,Navrang Theatre: Rajaji Nagar,90.0,990,1,0,12.99784,77.5528,"BookMyShow, MediaAnt",3 Idiots,Evening,Stormy,No,397
Hyderabad,Asian Sha: Chintal,85.0,716,1,0,17.4922,78.45173,BookMyShow,Drishyam 2,Morning,Cloudy,No,609
Hyderabad,"Cinepolis: Manjeera Mall, Kukatpally",200.0,1405,5,1,17.48978,78.39322,BookMyShow,Dangal,Afternoon,Hot,Yes,1105
Mumbai,"Fun Cinemas: K Star Mall, Chembur",149.7530864,1253,5,1,19.05235,72.90172,"BookMyShow, MediaAnt",Pushpa,Evening,Stormy,Yes,1051
Kolkata,7D Adventure Plex: Mani Square Mall,200.0,32,1,0,22.57758,88.4006,BookMyShow,Baahubali,Morning,Humid,No,18
Bangalore,"Nalanda Theatre, Mysore Road",183.50891304903843,1090,1,0,12.9605832,77.5578493,MediaAnt,Pushpa,Morning,Stormy,Yes,970
Mumbai,Chitra Cinema: Dadar (E),128.3333333,635,1,0,19.01336,72.84388,"BookMyShow, mediaAnt",Kantara,Night,Cloudy,No,386
Hyderabad,Tarakarama Cineplex: Kachiguda,90.0,980,1,0,17.39065,78.48796,"BookMyShow, MediaAnt",Kantara,Night,Sunny,No,309
Mumbai,Chitra Cinema: Dadar (E),128.3333333,635,1,0,19.01336,72.84388,"BookMyShow, mediaAnt",Pathaan,Afternoon,Hot,No,99
Bangalore,"Super Talkies, Chickpet",183.50891304903843,619,1,0,12.9678583,77.5699123,MediaAnt,KGF 2,Evening,Cloudy,Yes,156
Kolkata,7D Adventure Plex: Mani Square Mall,200.0,32,1,0,22.57758,88.4006,BookMyShow,Kantara,Night,Humid,No,12
Bangalore,Vainidhi Digital 2K Cinemas (Chandan): Singapura,110.0,725,1,0,13.07427,77.5405,"BookMyShow, MediaAnt",RRR,Evening,Cloudy,No,233
Chennai,"Krishnaveni, South Usman Raod",97.97240740555556,898,1,0,13.0346055,80.2307106,MediaAnt,KGF 2,Afternoon,Humid,Yes,555
Bangalore,Venkateshwara A/c Digital 2K Cinema: K.R.Puram,104.0,877,1,0,13.00525,77.69667,BookMyShow,Jawan,Morning,Hot,No,290
Kolkata,"Basusree, SP Mukherjee Road",187.80483726826088,1020,1,0,22.5226283,88.3462934,MediaAnt,Baahubali,Morning,Cloudy,Yes,650
Mumbai,"PVR: Citi Mall, Andheri (W)",265.4938272,864,4,1,19.13854,72.83122,"BookMyShow, MediaAnt",Shershaah,Morning,Humid,No,628
Hyderabad,"PVR: RK Cineplex, Hyderabad",200.0,1034,3,1,17.42332,78.42792,"BookMyShow, Internet Research",Brahmastra,Evening,Hot,Yes,263
Delhi,Satyam Janak Place-NCR,301.8207102540476,1262,4,1,28.629686,77.081896,Internet Research,RRR,Morning,Cloudy,No,936
Mumbai,Gold Cinema: Santacruz (W),205.3333333,420,1,0,19.08958,72.83912,BookMyShow,KGF 2,Night,Cloudy,Yes,310
Hyderabad,"Ganga Theatre, Chaithanyapuri Colony",95.06145388259615,786,1,0,17.3719842,78.535892,MediaAnt,Jawan,Afternoon,Humid,Yes,291
Bangalore,Triveni Theatre: Gandhinagar,109.0,800,1,0,12.97628,77.57538,"BookMyShow, MediaAnt",3 Idiots,Evening,Humid,No,195
Chennai,Sangam Cinemas,97.97240740555556,1662,3,1,13.0794633,80.2492933,Internet Research,Dangal,Afternoon,Humid,No,54
Bangalore,"PVR: Vaishnavi Sapphire Mall, Bengaluru",222.1363636,1058,6,1,13.02414,77.54897,BookMyShow,Kabir Singh,Night,Hot,No,158
Bangalore,"PVR: Soul Spirit Bellandur, Bengaluru",290.8585859,1084,6,1,12.92676,77.67528,"BookMyShow, MediaAnt",Dangal,Morning,Stormy,Yes,151
Bangalore,Poornima Theatre: J.C. Road,115.0,934,1,0,12.96096,77.58742,"BookMyShow, MediaAnt",Kabir Singh,Evening,Sunny,Yes,12
Delhi,"Cinepolis: Cross River Mall, Mall, Shahdara",249.375,1191,4,1,28.65681,77.30189,BookMyShow,Kabir Singh,Afternoon,Sunny,No,1062
Kolkata,"Ragini Cinema, Beliaghata",187.80483726826088,999,1,0,22.5616213,88.4063598,MediaAnt,Drishyam 2,Afternoon,Cloudy,Yes,142
Mumbai,"PVR: Milap, Kandivali (W)",197.5,325,2,1,19.19617,72.84706,BookMyShow,Jawan,Morning,Stormy,No,305
Delhi,"PVR: Select City Walk (Gold), Delhi",943.75,40,1,0,28.52857,77.21973,BookMyShow,Pushpa,Afternoon,Hot,No,13
Hyderabad,Sri Lakshmi Deluxe: Karmanghat,80.0,629,1,0,17.34575,78.53156,"BookMyShow, MediaAnt",Jawan,Morning,Humid,No,55
Hyderabad,Shanti Theatre: Narayanaguda,86.66666667,1035,1,0,17.39622,78.48986,"BookMyShow, MediaAnt",Vikram,Morning,Hot,Yes,869
Hyderabad,"ASR Cinemas, Madhuban Colony",95.06145388259615,609,1,0,17.3083079,78.4319946,MediaAnt,Sooryavanshi,Evening,Humid,Yes,228
Bangalore,"Venkateshwara Cinemas: Gollarahatti,Magadi Rd",90.0,300,1,0,12.98848,77.47392,BookMyShow,Jawan,Morning,Humid,Yes,25
Mumbai,"PVR: Sona Shopping Centre, Kandivali (W)",125.4166667,287,1,0,19.20243,72.8511,BookMyShow,Kabir Singh,Night,Humid,Yes,175
Hyderabad,Sensation Insomnia: Khairatabad,80.0,555,1,0,17.40693,78.46363,"BookMyShow, MediaAnt",Kantara,Night,Rainy,No,254
Ahmedabad,"Hanjar Cinema, Gandhi Ashram",149.09491512148148,995,1,0,23.0263983,72.6040875,MediaAnt,Brahmastra,Evening,Sunny,No,505
Hyderabad,"Manikanta, Reddy Colony",95.06145388259615,394,1,0,17.337529,78.549634,MediaAnt,KGF 2,Night,Rainy,Yes,0
Hyderabad,Rajyalakshmi 70mm: Uppal,55.0,662,1,0,17.39664,78.5603,BookMyShow,Dangal,Night,Cloudy,Yes,421
Delhi,Carnival: Odeon Complex,493.0555556,592,2,1,28.63429,77.22107,BookMyShow,Vikram,Evening,Stormy,Yes,457
Delhi,"PVR: Select City Walk (Gold), Delhi",943.75,40,1,0,28.52857,77.21973,BookMyShow,Jawan,Evening,Cloudy,Yes,4
Bangalore,Kapali Theatre: Gandhi Nagar,100.0,1475,1,0,12.97791,77.57578,"BookMyShow, MediaAnt",RRR,Afternoon,Stormy,Yes,945
Hyderabad,Sree Rama Theatre: Bahadurpura,80.0,796,1,0,17.35449,78.4573,"BookMyShow, MediaAnt",Dangal,Morning,Sunny,No,574
Ahmedabad,"Hanjar Cinema, Gandhi Ashram",149.09491512148148,995,1,0,23.0263983,72.6040875,MediaAnt,RRR,Afternoon,Cloudy,Yes,374
Bangalore,Movie Land,183.50891304903843,648,1,0,12.9788182,77.5755948,Internet Research,3 Idiots,Afternoon,Cloudy,Yes,305
Kolkata,"Elite Cinema, Dharmatala",187.80483726826088,1258,1,0,22.5630154,88.3538713,MediaAnt,Sooryavanshi,Night,Stormy,Yes,700
Kochi,"Evm Cinema Studio, KSRTC Road",119.55509767142858,1220,4,1,9.9468236,76.2556623,MediaAnt,3 Idiots,Night,Stormy,No,445
Delhi,"PVR: Vikaspuri, Delhi",202.2619048,921,3,1,28.63902,77.07448,"BookMyShow, MediaAnt",Jawan,Evening,Cloudy,Yes,427
Kolkata,"Khatoon Mahal, Garden Reach",187.80483726826088,712,1,0,22.5486653,88.2809764,MediaAnt,KGF 2,Night,Hot,No,625
Mumbai,"PVR: Phoenix, Lower Parel",337.8737374,1760,7,1,18.9952,72.82407,BookMyShow,Pushpa,Afternoon,Cloudy,No,1213
Chennai,Casino Theatre: Chennai,59.0,83,1,0,13.06868,80.27017,BookMyShow,Kantara,Evening,Sunny,No,11
Chennai,"Sri Murugan, Ambattur",97.97240740555556,960,1,0,13.100996,80.164051,MediaAnt,Pathaan,Afternoon,Hot,Yes,329
Hyderabad,Devi 70mm 4K & Dolby Atmos: RTC X Roads,118.0,1200,1,0,17.40627,78.49504,"BookMyShow, Internet Research",Sooryavanshi,Morning,Stormy,Yes,784
Kolkata,INOX: Hiland Park,171.452381,934,4,1,22.48339,88.39075,BookMyShow,3 Idiots,Morning,Hot,Yes,55
Kolkata,Navina Cinema: Tollygunge,110.1333333,983,1,0,22.501,88.34881,"BookMyShow, Internet Research",Jawan,Afternoon,Humid,No,760
Delhi,"PVR: Plaza-CP, Delhi",366.6666667,300,1,0,28.63515,77.21966,BookMyShow,Shershaah,Afternoon,Cloudy,Yes,171
Mumbai,Chandan Cinema: Juhu,155.75,587,1,0,19.1147,72.8269,BookMyShow,Dangal,Morning,Humid,No,566
Ahmedabad,Amber Cinema: Ahmedabad,100.8333333,763,1,0,23.03431,72.62002,BookMyShow,Sooryavanshi,Night,Cloudy,Yes,337
Kolkata,"Khatoon Mahal, Garden Reach",187.80483726826088,712,1,0,22.5486653,88.2809764,MediaAnt,Vikram,Morning,Rainy,Yes,515
Bangalore,"INOX: Mantri Square, Malleshwaram",399.0611111,1497,6,1,12.99216,77.5703,"BookMyShow, MediaAnt",Sooryavanshi,Night,Hot,No,1239
Kolkata,"PVR: Mani Square Mall, Kolkata",237.3840741,1208,4,1,22.57771,88.4009,"BookMyShow, MediaAnt",RRR,Afternoon,Humid,No,551
Mumbai,"Gulshan Cinema, Ambewadi",198.1442727463636,725,1,0,18.9611893,72.8237326,MediaAnt,RRR,Night,Sunny,No,712
Mumbai,Carnival: R Mall Mulund,150.9619048,1353,4,1,19.18385,72.95173,BookMyShow,Vikram,Night,Rainy,No,1120
Mumbai,Gold Cinema: Sona Borivali (E),151.6666667,259,1,0,19.23479,72.86494,BookMyShow,Drishyam 2,Morning,Stormy,No,196
Mumbai,"Carnival: IMAX, Wadala",196.5968254,1634,5,1,19.03122,72.881,"BookMyShow, MediaAnt",Drishyam 2,Night,Humid,Yes,843
Hyderabad,Amba Theatre: Mehdipatnam,100.0,64,1,0,17.39167,78.44133,BookMyShow,3 Idiots,Afternoon,Hot,Yes,43
Mumbai,"PVR: Dynamix, Juhu",277.4550265,1279,5,1,19.11482,72.82753,"BookMyShow, MediaAnt",Sooryavanshi,Night,Humid,Yes,497
Hyderabad,Sensation Insomnia: Khairatabad,80.0,555,1,0,17.40693,78.46363,"BookMyShow, MediaAnt",Kabir Singh,Afternoon,Hot,Yes,122
Bangalore,Venkateshwara A/c Digital 2K Cinema: K.R.Puram,104.0,877,1,0,13.00525,77.69667,BookMyShow,Dangal,Night,Humid,Yes,398
Hyderabad,"INOX: Maheshwari Parmeshwari Mall, Kachiguda",150.0,1021,5,1,17.39052,78.48862,BookMyShow,Dangal,Evening,Humid,No,983
Bangalore,Cauvery Theatre: Sankey Road,123.3333333,1210,1,0,13.00256,77.58328,"BookMyShow, MediaAnt",Jawan,Evening,Stormy,Yes,933
Chennai,Bharath Theatre Dolby AtmosDolby Atmos,97.97240740555556,963,1,0,13.1102599,80.2797875,Internet Research,KGF 2,Afternoon,Sunny,No,533
Hyderabad,Asian Shahensha: Chintal,85.0,380,1,0,17.4922,78.45173,BookMyShow,Kantara,Morning,Hot,Yes,307
Mumbai,"PVR: Sona Shopping Centre, Kandivali (W)",125.4166667,287,1,0,19.20243,72.8511,BookMyShow,Shershaah,Night,Stormy,Yes,112
Delhi,"Hans Cinema, G.T Karnal Road",301.8207102540476,900,1,0,28.7031355,77.1824101,MediaAnt,Brahmastra,Night,Hot,No,785
Hyderabad,Asian Shahensha: Chintal,85.0,380,1,0,17.4922,78.45173,BookMyShow,Shershaah,Night,Humid,Yes,35
Bangalore,"Pushpanjali Talkies, Dinnur Main Road",183.50891304903843,1330,1,0,13.0218949,77.6031292,MediaAnt,Drishyam 2,Night,Hot,No,216
Chennai,"Bala Theatre, Anna Road",97.97240740555556,518,1,0,13.0949014,80.1855746,MediaAnt,Sooryavanshi,Night,Humid,Yes,45
Bangalore,Pradeep Theatre: K.R.Market,183.50891304903843,305,1,0,12.963106,77.577049,Internet Research,Vikram,Afternoon,Humid,No,78
Mumbai,"INOX: Inorbit Mall, Malad (W)",279.2494444,1212,7,1,19.17238,72.83547,BookMyShow,Vikram,Morning,Cloudy,No,34
Kolkata,Mitra Cinema Hall: Kolkata,80.0,1146,1,0,22.59727,88.37205,"BookMyShow, Internet Research",Shershaah,Afternoon,Cloudy,Yes,76
Mumbai,"INOX: Raghuleela Mall, Kandivali (W)",194.4583333,1236,5,1,19.21345,72.84918,BookMyShow,Jawan,Night,Stormy,No,38
Mumbai,Super Cinema: Grant Road,198.1442727463636,822,1,0,18.962068,72.821162,Internet Research,Kabir Singh,Afternoon,Stormy,Yes,473
Bangalore,Veeresh Cinemas Screen 2: Magadi Rd,100.0,214,1,0,12.97707,77.54595,BookMyShow,Kabir Singh,Afternoon,Sunny,Yes,29
Mumbai,"Amar Theatre, Chembur",198.1442727463636,1155,1,0,19.0523111,72.9101544,MediaAnt,Pushpa,Morning,Stormy,No,952
Kolkata,"Prabhat Cinema, Barabazar",187.80483726826088,700,1,0,22.5789136,88.3606355,MediaAnt,3 Idiots,Evening,Rainy,No,276
Mumbai,Sharada Cinema: Dadar (E),55.0,1104,1,0,19.01385,72.84666,"BookMyShow, MediaAnt",Shershaah,Evening,Sunny,No,627
Bangalore,Keshava Theatre -,183.50891304903843,809,1,0,13.0282203,77.5538235,Internet Research,3 Idiots,Night,Hot,Yes,200
Chennai,"Udhayam Theatre, Ashoknagar",97.97240740555556,759,1,0,13.0346888,80.2103968,MediaAnt,KGF 2,Evening,Stormy,No,643
Hyderabad,Talluri Theatres: Kushaiguda,69.5,1148,3,1,17.47771,78.57246,"BookMyShow, Internet Research",Jawan,Evening,Rainy,Yes,1025
Hyderabad,Rajdhani 70mm: Dilsukhnagar,80.0,1050,1,0,17.36855,78.52989,"BookMyShow, MediaAnt",3 Idiots,Morning,Hot,Yes,367
Bangalore,Sangeet Theatre: Shivaji Nagar,115.0,860,1,0,12.98161,77.60294,"BookMyShow, MediaAnt",Pushpa,Night,Rainy,Yes,497
Ahmedabad,"Time Cinema: CG Road, Ahmedabad",176.4583333,372,4,1,23.02435,72.55651,BookMyShow,Pushpa,Morning,Cloudy,No,197
Chennai,Sri Bhuvaneshwari Theatre A/C dts,97.97240740555556,565,1,0,13.0916293,80.2583516,Internet Research,Kantara,Night,Rainy,No,269
Hyderabad,Padmavati Cinema: Kachiguda,60.0,490,1,0,17.39063,78.4916,"BookMyShow, MediaAnt",Brahmastra,Evening,Hot,Yes,224
Hyderabad,"Cinepolis: Mantra Mall, Attapur",200.0,1094,5,1,17.35388,78.4206,BookMyShow,Jawan,Night,Cloudy,No,460
Ahmedabad,"Cinemax: Shiv, Ahmedabad",176.2777778,637,3,1,23.03188,72.57103,BookMyShow,Jawan,Night,Humid,No,575
Hyderabad,Sri Sai Ram Theatre: Malkajgiri,55.0,700,1,0,17.44632,78.5354,"BookMyShow, MediaAnt",RRR,Night,Hot,No,696
Kolkata,"Talkie Show House, Sibdas Bhaduri St",187.80483726826088,994,1,0,22.5985914,88.373945,MediaAnt,Baahubali,Afternoon,Stormy,No,231
Chennai,Devi Karumari A/C,97.97240740555556,850,1,0,13.0499059,80.1934024,Internet Research,Pathaan,Afternoon,Humid,Yes,185
Bangalore,"INOX: Forum Neighbourhood Mall, Whitefield",301.3636364,725,5,1,12.9595,77.74789,BookMyShow,RRR,Morning,Hot,No,685
Kolkata,"Kamal Talkies, Garden Reach",187.80483726826088,848,1,0,22.5485444,88.2891741,MediaAnt,Baahubali,Night,Cloudy,Yes,784
Kolkata,"Talkie Show House, Sibdas Bhaduri St",187.80483726826088,994,1,0,22.5985914,88.373945,MediaAnt,Baahubali,Morning,Sunny,Yes,638
Delhi,"PVR: Director's Cut, Ambience Delhi",1458.333333,282,4,1,28.5408,77.15479,"BookMyShow, MediaAnt",Kabir Singh,Night,Humid,Yes,55
Ahmedabad,"Aradhana Cinema, Behrampura",149.09491512148148,455,1,0,23.00396,72.5975195,MediaAnt,Pathaan,Evening,Rainy,No,385
Hyderabad,Sri Krishna 70MM: Uppal,70.0,939,1,0,17.40084,78.56788,"BookMyShow, MediaAnt",Pathaan,Evening,Stormy,No,283
Bangalore,"Anand Theatre, No-268",183.50891304903843,947,1,0,13.011335,77.609965,MediaAnt,Vikram,Afternoon,Sunny,Yes,284
Chennai,Woodlands Complex: Chennai,69.5,1713,2,1,13.05656,80.26497,"BookMyShow, MediaAnt",Pathaan,Afternoon,Humid,No,1193
Hyderabad,Shama Cinema: Hyderabad,46.66666667,712,1,0,17.34158,78.46565,"BookMyShow, MediaAnt",RRR,Night,Hot,No,341
Hyderabad,Rajdhani Deluxe Theatre: Dilsukhnagar,90.0,628,1,0,17.36897,78.52737,"BookMyShow, MediaAnt",Pushpa,Night,Rainy,No,334
Bangalore,Galaxy Paradise Screen 1: Bommanahalli Hosur Rd,160.0,100,1,0,12.89108,77.62648,"BookMyShow, Internet Research",Brahmastra,Afternoon,Stormy,No,44
Bangalore,Gopalan Cinemas: Bannerghatta Road,261.1805556,852,3,1,12.91444,77.5994,"BookMyShow, MediaAnt",Pathaan,Morning,Humid,Yes,479
Bangalore,Amruth Theatre: Lingarajapuram,127.5,926,1,0,13.01244,77.62621,"BookMyShow, MediaAnt",Pushpa,Afternoon,Sunny,No,633
Hyderabad,Prasads: Hyderabad,150.0,2230,6,1,17.33215,78.47,"BookMyShow, MediaAnt",Sooryavanshi,Morning,Humid,Yes,1591
Hyderabad,BVK Multiplex Vijayalakshmi: LB Nagar,105.5555556,1211,3,1,17.34365,78.55422,BookMyShow,KGF 2,Afternoon,Stormy,No,894
Hyderabad,"PVR: Inorbit, Cyberabad",150.0,800,5,1,17.43505,78.38674,BookMyShow,Vikram,Evening,Rainy,No,494
Hyderabad,"Manikanta, Reddy Colony",95.06145388259615,394,1,0,17.337529,78.549634,MediaAnt,Pathaan,Afternoon,Rainy,Yes,210
Chennai,Anna Theatre: Chennai,94.6,364,1,0,13.06717,80.27129,"BookMyShow, Internet Research",Kantara,Morning,Cloudy,Yes,81
Delhi,"Moti Cinema, Chandni Chowk",301.8207102540476,699,1,0,28.656595,77.235293,MediaAnt,Sooryavanshi,Evening,Sunny,No,620
Hyderabad,Devi 70mm 4K & Dolby Atmos: RTC X Roads,118.0,1200,1,0,17.40627,78.49504,"BookMyShow, Internet Research",KGF 2,Afternoon,Hot,Yes,1126
Kolkata,Prachi Cinema: Kolkata,80.0,784,1,0,22.56487,88.36829,"BookMyShow, MediaAnt",Pathaan,Afternoon,Sunny,Yes,370
Hyderabad,Anjali Theatre: Secunderabad,70.0,690,1,0,17.43751,78.49338,"BookMyShow, MediaAnt",Pathaan,Morning,Cloudy,Yes,153
Bangalore,"PVR: Pepsi IMAX, Koramangala",365.0,346,1,0,12.93455,77.61109,BookMyShow,Brahmastra,Evening,Hot,Yes,66
Delhi,"PVR: Select City Walk (Gold), Delhi",943.75,40,1,0,28.52857,77.21973,BookMyShow,Brahmastra,Afternoon,Sunny,No,20
Hyderabad,Sapna Cinemas: Abids,80.0,552,1,0,17.39103,78.47569,"BookMyShow, Internet Research",Dangal,Evening,Humid,Yes,82
Hyderabad,Sampoorna 70mm: Vanasthalipuram,85.0,865,1,0,17.33121,78.57603,"BookMyShow, MediaAnt",Pathaan,Night,Sunny,No,414
Hyderabad,"Brahmarambha 70 Mm, Hyder nagar",95.06145388259615,861,1,0,17.5000891,78.386969,MediaAnt,Kantara,Night,Stormy,No,683
Chennai,"Thirumurugan, Ambattur",97.97240740555556,510,1,0,13.1212603,80.1513583,MediaAnt,RRR,Morning,Hot,No,361
Chennai,Albert Complex,97.97240740555556,1200,1,0,13.0761554,80.2638409,Internet Research,Vikram,Afternoon,Hot,No,723
Chennai,"PVR: Ampa, Chennai",82.7,1794,7,1,13.07359,80.22138,"BookMyShow, MediaAnt",Brahmastra,Morning,Cloudy,No,629
Ahmedabad,"Usha Talkies, Gomtipur",149.09491512148148,550,1,0,23.017995,72.6152555,MediaAnt,Vikram,Night,Rainy,No,344
Hyderabad,Viswanath 70MM Theater: Kukatpally,80.0,1204,1,0,17.49677,78.39703,"BookMyShow, MediaAnt",Brahmastra,Afternoon,Humid,No,30
Hyderabad,Satyam Theatre: Ameerpet,60.0,1243,1,0,17.43715,78.44877,"BookMyShow, Internet Research",Jawan,Afternoon,Rainy,Yes,1168
Chennai,"Sathyam Royapettah, Lloyds Estate",97.97240740555556,2283,6,1,13.0553683,80.2579668,MediaAnt,Brahmastra,Afternoon,Rainy,No,1769
Chennai,"Bala Theatre, Anna Road",97.97240740555556,518,1,0,13.0949014,80.1855746,MediaAnt,3 Idiots,Night,Hot,No,36
Bangalore,Murali Gokula Digital 4K Cinema: Mathikere,118.0,900,1,0,13.03842,77.5526,"BookMyShow, MediaAnt",Brahmastra,Morning,Cloudy,No,315
Kolkata,Prachi Cinema: Kolkata,80.0,784,1,0,22.56487,88.36829,"BookMyShow, MediaAnt",Jawan,Evening,Sunny,Yes,636
Kolkata,"Aleya Cinema, Ballygunge RS",187.80483726826088,447,1,0,22.52022,88.367129,MediaAnt,Brahmastra,Night,Cloudy,Yes,5
Mumbai,"Sheetal Cinema, Kurla North",198.1442727463636,993,1,0,19.0825802,72.8822279,MediaAnt,Drishyam 2,Evening,Hot,No,185
Hyderabad,Amba Theatre: Mehdipatnam,100.0,64,1,0,17.39167,78.44133,BookMyShow,Sooryavanshi,Night,Rainy,Yes,35
Mumbai,"Cinepolis: Fun Republic Mall, Andheri (W)",260.0092593,1271,4,1,19.13469,72.83279,"BookMyShow, MediaAnt",RRR,Evening,Stormy,Yes,271
Bangalore,"Prasanna Theatre, Magadi Road",183.50891304903843,1100,1,0,12.9740859,77.5520529,MediaAnt,Jawan,Night,Hot,Yes,1061
Chennai,Kumaran Theatre QUBE A/C DTS: Madipakkam,0.0,1008,1,0,12.97191,80.19214,"BookMyShow, Internet Research",KGF 2,Evening,Cloudy,No,621
Mumbai,"Mukta A2 Cinemas: Jai Hind, Lalbaugh",158.0555556,350,2,1,18.98584,72.83596,BookMyShow,Brahmastra,Afternoon,Cloudy,Yes,66
Mumbai,"Imperial Cinema Pvt Ltd., Ambewadi",198.1442727463636,816,1,0,18.9585704,72.8174214,MediaAnt,Kabir Singh,Afternoon,Cloudy,No,738
Bangalore,Sri Vajreshwari Theatre: Ullal,110.0,844,1,0,12.94238,77.48814,"BookMyShow, MediaAnt",Baahubali,Night,Stormy,Yes,379
Chennai,"Pandian, Moolakadai",97.97240740555556,1002,1,0,13.1322548,80.2424585,MediaAnt,Kantara,Night,Stormy,Yes,824
Kochi,Sarita Cinema: Kochi,110.0,2141,3,1,9.984626,76.27759,"BookMyShow, Internet Research",3 Idiots,Evening,Rainy,No,139
Hyderabad,Srilatha and Sridevi Complex: Chanda Nagar,55.0,2009,2,1,17.49805,78.3171,"BookMyShow, Internet Research",Drishyam 2,Morning,Hot,No,1616
Kochi,"Cinepolis: Centre Square Mall, Kochi",119.55509767142858,1488,8,1,9.9778687,76.2831729,Internet Research,Brahmastra,Morning,Rainy,Yes,789
Hyderabad,Prashant Cinema: Secunderabad,80.0,1048,1,0,17.43958,78.49856,"BookMyShow, MediaAnt",Brahmastra,Night,Sunny,Yes,380
Bangalore,Cauvery Theatre: Sankey Road,123.3333333,1210,1,0,13.00256,77.58328,"BookMyShow, MediaAnt",Jawan,Night,Sunny,No,1001
Kolkata,"Jagat, Sealdah",187.80483726826088,377,1,0,22.5714426,88.371308,MediaAnt,Baahubali,Night,Hot,No,274
Chennai,Kasi4K Dolby Atmos,97.97240740555556,733,1,0,13.0294637,80.2084348,Internet Research,Kabir Singh,Evening,Hot,Yes,245
Ahmedabad,"Mukta A2 Cinemas: Gulmohar Park Mall, Satellite Rd",151.2708333,404,4,1,23.02655,72.50996,"BookMyShow, MediaAnt",Kabir Singh,Afternoon,Rainy,Yes,229
Hyderabad,Anjali Theatre: Secunderabad,70.0,690,1,0,17.43751,78.49338,"BookMyShow, MediaAnt",Pathaan,Morning,Sunny,Yes,222
Hyderabad,"Ganga Theatre, Chaithanyapuri Colony",95.06145388259615,786,1,0,17.3719842,78.535892,MediaAnt,Drishyam 2,Afternoon,Cloudy,Yes,186
Mumbai,"Cinepolis: Fun Republic Mall, Andheri (W)",260.0092593,1271,4,1,19.13469,72.83279,"BookMyShow, MediaAnt",Jawan,Evening,Humid,Yes,797
Bangalore,Vainidhi Digital 2K Cinemas (Chandan): Singapura,110.0,725,1,0,13.07427,77.5405,"BookMyShow, MediaAnt",Sooryavanshi,Afternoon,Humid,No,25
Bangalore,Aruna Theatre: Srirampuram,109.0,936,1,0,12.98679,77.56722,"BookMyShow, MediaAnt",3 Idiots,Night,Cloudy,No,626
Kolkata,Bina Cinema - Kolkatta,187.80483726826088,775,1,0,22.5814515,88.3658105,Internet Research,Jawan,Morning,Cloudy,Yes,1
Delhi,"PVR: Vikaspuri, Delhi",202.2619048,921,3,1,28.63902,77.07448,"BookMyShow, MediaAnt",RRR,Morning,Humid,No,881
Bangalore,Murali Gokula Digital 4K Cinema: Mathikere,118.0,900,1,0,13.03842,77.5526,"BookMyShow, MediaAnt",Vikram,Afternoon,Hot,Yes,399
Bangalore,Thirumala Digital 2K Cinema: Agara,108.5,904,1,0,12.91991,77.64969,"BookMyShow, MediaAnt",Shershaah,Night,Hot,Yes,834
Bangalore,Sri Krishna Theatre: KR Puram,100.0,979,1,0,13.00889,77.69893,"BookMyShow, MediaAnt",Pathaan,Evening,Stormy,No,532
Bangalore,Vinayaka Theatre: Harinagar,80.0,850,1,0,12.87488,77.57015,"BookMyShow, MediaAnt",KGF 2,Afternoon,Sunny,Yes,481
Bangalore,Manasa Digital 4K Dolby Atmos: Konanakunte,175.0,640,1,0,12.89064,77.5622,"BookMyShow, MediaAnt",Brahmastra,Night,Rainy,No,592
Delhi,Carnival: Odeon Complex,493.0555556,592,2,1,28.63429,77.22107,BookMyShow,Baahubali,Night,Cloudy,Yes,459
Hyderabad,Asian Shahensha: Chintal,85.0,380,1,0,17.4922,78.45173,BookMyShow,Pathaan,Morning,Hot,Yes,63
Ahmedabad,"Apsara Cinema, Behrampura",149.09491512148148,1117,1,0,23.0039742,72.597468,MediaAnt,Drishyam 2,Night,Hot,No,495
Bangalore,"Ranganatha Theatre, Mysore Road",183.50891304903843,410,1,0,12.9632206,77.5663842,MediaAnt,Kantara,Night,Stormy,No,395
Mumbai,Miraj Anupam Cinemas: Goregaon (E),146.1666667,490,2,1,19.16545,72.85126,BookMyShow,Vikram,Evening,Stormy,Yes,134
Hyderabad,Kumar Theatre: Kachiguda,90.0,74,1,0,17.38886,78.49632,BookMyShow,3 Idiots,Evening,Cloudy,No,6
Hyderabad,Tivoli Cinema: Extreme,118.0,912,1,0,17.44724,78.49246,"BookMyShow, MediaAnt",Dangal,Morning,Stormy,Yes,361
Bangalore,"Fame Shankarnag Chitramandira, Mahatma Gandhi Road",183.50891304903843,615,1,0,12.9743036,77.6098151,MediaAnt,KGF 2,Evening,Rainy,No,127
Bangalore,Rajarajeshwari Theatre: Nagarbhavi Circle,90.0,1080,1,0,12.95695,77.50206,"BookMyShow, MediaAnt",Pushpa,Evening,Hot,No,151
Bangalore,Vaibhavi A/C Theatre: Uttarahalli,105.0,715,1,0,12.90348,77.54415,"BookMyShow, MediaAnt",3 Idiots,Evening,Cloudy,No,381
Bangalore,"PVR: VR Gold, Bengaluru",697.025,1,4,1,12.99651,77.69526,BookMyShow,RRR,Evening,Rainy,Yes,0
Bangalore,Sri Venkateshwara Theatre: Kengeri,100.0,500,1,0,12.90644,77.48277,"BookMyShow, MediaAnt",Sooryavanshi,Night,Humid,Yes,408
Mumbai,Super Cinema: Grant Road,198.1442727463636,822,1,0,18.962068,72.821162,Internet Research,3 Idiots,Evening,Sunny,Yes,528
Ahmedabad,"Shital Cinema, Gomtipur",149.09491512148148,350,1,0,23.0217999,72.6105388,MediaAnt,Baahubali,Afternoon,Sunny,Yes,193
Hyderabad,Bhujanga 70MM: Jeedimetla,65.0,1311,1,0,17.5122,78.44861,"BookMyShow, MediaAnt",Jawan,Afternoon,Stormy,Yes,380
Mumbai,Citylight Cinema: Mahim,181.25,252,1,0,19.03054,72.84139,BookMyShow,Sooryavanshi,Morning,Humid,Yes,166
Bangalore,"INOX: Forum Neighbourhood Mall, Whitefield",301.3636364,725,5,1,12.9595,77.74789,BookMyShow,KGF 2,Afternoon,Hot,No,650
Kochi,"Cinepolis: Centre Square Mall, Kochi",119.55509767142858,1488,8,1,9.9778687,76.2831729,Internet Research,RRR,Morning,Stormy,No,6
Kolkata,Asoka Cinema: Behala,98.16666667,867,1,0,22.49382,88.31637,"BookMyShow, MediaAnt",Baahubali,Morning,Humid,No,500
Chennai,"Spectrum Mall, Perambur North",97.97240740555556,1395,5,1,13.1122465,80.2363247,MediaAnt,Baahubali,Afternoon,Humid,No,912
Hyderabad,"Cinepolis: Mantra Mall, Attapur",200.0,1094,5,1,17.35388,78.4206,BookMyShow,3 Idiots,Afternoon,Rainy,No,530
Hyderabad,"Cinepolis: Manjeera Mall, Kukatpally",200.0,1405,5,1,17.48978,78.39322,BookMyShow,Drishyam 2,Evening,Cloudy,No,843
Delhi,Wave: Raja Garden,269.1666667,777,4,1,28.65193,77.1208,BookMyShow,Baahubali,Night,Sunny,No,138
Delhi,INOX Eros One: Jangpura Extn,465.4166667,317,1,0,28.58122,77.24199,BookMyShow,Baahubali,Afternoon,Rainy,No,199
Mumbai,Miraj Anupam Cinemas: Goregaon (E),146.1666667,490,2,1,19.16545,72.85126,BookMyShow,Vikram,Evening,Sunny,No,455
Bangalore,Cinepolis: Royal Meenakshi Mall,271.0,1344,7,1,12.876,77.59582,"BookMyShow, MediaAnt",Kabir Singh,Afternoon,Hot,No,959
Bangalore,Triveni Theatre: Gandhinagar,109.0,800,1,0,12.97628,77.57538,"BookMyShow, MediaAnt",Jawan,Evening,Hot,No,214
Mumbai,"PVR: Market City, Kurla (4DX)",398.2142857,288,2,1,19.08571,72.88842,BookMyShow,Kantara,Evening,Sunny,No,104
Mumbai,"Moti Cinema, Ambewadi",198.1442727463636,745,1,0,18.9583336,72.8265371,MediaAnt,Pushpa,Afternoon,Rainy,No,483
Hyderabad,"Cinepolis: Manjeera Mall, Kukatpally",200.0,1405,5,1,17.48978,78.39322,BookMyShow,KGF 2,Night,Rainy,No,351
Kolkata,"Minar Cinema, R.G.Kar Medical College",187.80483726826088,849,1,0,22.5973062,88.3718559,MediaAnt,Pushpa,Afternoon,Stormy,No,223
Bangalore,"Manasa Theatre, Doddakallasandra",183.50891304903843,640,1,0,12.8906129,77.5622187,MediaAnt,3 Idiots,Night,Sunny,No,387
Hyderabad,"Srinivas Theatre, Allapur",95.06145388259615,461,1,0,17.4345092,78.4467967,MediaAnt,Baahubali,Evening,Sunny,Yes,129
Delhi,INOX Eros One: Jangpura Extn,465.4166667,317,1,0,28.58122,77.24199,BookMyShow,3 Idiots,Morning,Hot,Yes,102
Hyderabad,Raghavendra 70mm: Malkajgiri,70.0,691,1,0,17.4513,78.53616,"BookMyShow, MediaAnt",Pushpa,Afternoon,Hot,No,478
Bangalore,Pradeep Theatre: K.R.Market,183.50891304903843,305,1,0,12.963106,77.577049,Internet Research,3 Idiots,Afternoon,Hot,Yes,267
Bangalore,"The Cinema GT World: Magadi Rd, Bengaluru",195.8333333,1155,5,1,12.97345,77.55171,BookMyShow,Kabir Singh,Afternoon,Humid,Yes,401
Mumbai,"Amar Theatre, Chembur",198.1442727463636,1155,1,0,19.0523111,72.9101544,MediaAnt,Kabir Singh,Morning,Humid,No,956
Mumbai,"INOX: Nakshatra Mall, Dadar (W)",167.3333333,272,1,0,19.0199,72.84133,BookMyShow,RRR,Night,Humid,Yes,215
Kolkata,"Netro, Dum Dum",187.80483726826088,684,1,0,22.6210274,88.3928183,MediaAnt,Dangal,Evening,Cloudy,No,443
Chennai,"Chandran Theatre, Ashoknagar",97.97240740555556,515,1,0,13.0347676,80.2104299,MediaAnt,Pushpa,Evening,Sunny,No,454
Mumbai,"Cinepolis: Fun Republic Mall, Andheri (W)",260.0092593,1271,4,1,19.13469,72.83279,"BookMyShow, MediaAnt",Kabir Singh,Evening,Cloudy,Yes,1001
Ahmedabad,"Cinemax: Shiv, Ahmedabad",176.2777778,637,3,1,23.03188,72.57103,BookMyShow,KGF 2,Night,Rainy,Yes,427
Chennai,GK Cinemas 2K Dolby Atmos: Porur,116.19,557,2,1,13.03374,80.16108,BookMyShow,Vikram,Afternoon,Stormy,No,82
Hyderabad,Padmavati Cinema: Kachiguda,60.0,490,1,0,17.39063,78.4916,"BookMyShow, MediaAnt",Jawan,Evening,Humid,Yes,333
Bangalore,Vijayalakshmi Digital 2K Cinema: Garudacharpalya,100.0,671,1,0,12.99348,77.70187,"BookMyShow, MediaAnt",Kantara,Afternoon,Cloudy,No,127
Kochi,Padma Cinema Screen 2: Ernakulam,110.0,98,1,0,9.981755,76.2826,BookMyShow,Sooryavanshi,Morning,Humid,Yes,11
Bangalore,HMT Digital 4K Cinema: Jalahalli,150.0,874,1,0,13.0495,77.5439,BookMyShow,Kabir Singh,Evening,Rainy,Yes,516
Bangalore,"Super Talkies, Chickpet",183.50891304903843,619,1,0,12.9678583,77.5699123,MediaAnt,Brahmastra,Afternoon,Stormy,No,435
Chennai,Kumaran Theatre QUBE A/C DTS: Madipakkam,0.0,1008,1,0,12.97191,80.19214,"BookMyShow, Internet Research",Pathaan,Afternoon,Rainy,Yes,174
Mumbai,"Cinepolis: Fun Republic Mall, Andheri (W)",260.0092593,1271,4,1,19.13469,72.83279,"BookMyShow, MediaAnt",Kabir Singh,Morning,Sunny,Yes,389
Hyderabad,Yadagiri Theatre: Santosh Nagar,75.0,1076,1,0,17.34657,78.50888,"BookMyShow, MediaAnt",3 Idiots,Afternoon,Stormy,Yes,273
Bangalore,"Ascendas Park Square Mall, EPIP",183.50891304903843,779,4,1,12.987032,77.736366,MediaAnt,Jawan,Afternoon,Stormy,Yes,263
Bangalore,Parimala Digital 2K Cinema: K.R.Market,183.50891304903843,1112,1,0,12.963107,77.57705,Internet Research,KGF 2,Night,Sunny,Yes,756
Kochi,Padma Cinema Screen 1: Ernakulam,105.0,324,1,0,9.981755,76.2826,BookMyShow,Brahmastra,Morning,Cloudy,Yes,318
Chennai,"Thirumurugan, Ambattur",97.97240740555556,510,1,0,13.1212603,80.1513583,MediaAnt,Sooryavanshi,Afternoon,Humid,No,308
Mumbai,Maratha Mandir: Mumbai Central,60.0,1107,1,0,18.97133,72.82214,BookMyShow,Pathaan,Evening,Hot,No,1045
Kochi,"Ajantha Theatre, Mattancherry Jetty",119.55509767142858,620,1,0,9.9538634,76.2475442,MediaAnt,Brahmastra,Afternoon,Hot,Yes,78
Chennai,Abirami Cinemas: Chennai,113.5833333,1656,4,1,13.086,80.24809,BookMyShow,Pathaan,Morning,Humid,Yes,1352
Mumbai,"Kamran Theatre, Kurla North",198.1442727463636,432,1,0,19.077327,72.8788352,MediaAnt,RRR,Night,Hot,No,305
Bangalore,Sandeep Theatre: Shivaji Nagar,90.0,309,1,0,12.98161,77.60294,"BookMyShow, MediaAnt",Drishyam 2,Morning,Sunny,No,267
Mumbai,Maratha Mandir: Mumbai Central,60.0,1107,1,0,18.97133,72.82214,BookMyShow,Dangal,Morning,Humid,Yes,910
Delhi,"Cinepolis: V3S Mall, Laxmi Nagar",236.7857143,836,3,1,28.63711,77.28606,"BookMyShow, MediaAnt",Baahubali,Night,Cloudy,No,734
Bangalore,Anjan Digital 4K A/C Cinema: Magadi Road,125.0,990,1,0,12.97517,77.55891,"BookMyShow, MediaAnt",Jawan,Night,Stormy,No,408
