city,theatre_name,average_ticket_price,total_seats,no_screens,type,lat,lon,source_of_information,imdb_rating,genre,release_date,production,cast,director,budget,revenue,movie_name,showtime,weather,holiday_event_impact,ticket_sold
Kolkata,"Darpana, Bidhan Sarani",187.80483726826088,690,1,0,22.5977679,88.372279,MediaAnt,7.0,"Action, Thriller",2023-06-02,Red Chillies Entertainment,"Shah Rukh Khan, Nayanthara, Vijay Sethupathi",Atlee Kumar,2200000000,8000000000,Jawan,Afternoon,Rainy,Yes,304
Bangalore,Keshava Theatre -,183.50891304903843,809,1,0,13.0282203,77.5538235,Internet Research,7.0,"Action, Thriller",2023-06-02,Red Chillies Entertainment,"Shah Rukh Khan, Nayanthara, Vijay Sethupathi",Atlee Kumar,2200000000,8000000000,Jawan,Evening,Stormy,No,622
Kolkata,"Cinepolis: Lake Mall, Kolkata",214.2045455,947,4,1,22.51652,88.34876,BookMyShow,7.7,"Action, Adventure, Drama",2022-09-30,Hombale Films,"Rishab Shetty, Kishore Kumar G., Achyuth Kumar",Rishab Shetty,160000000,4000000000,Kantara,Morning,Stormy,No,144
Kolkata,Asoka Cinema: Behala,98.16666667,867,1,0,22.49382,88.31637,"BookMyShow, MediaAnt",7.1,"Drama, Romance",2019-06-21,Cine1 Studios,"Shahid Kapoor, Kiara Advani, Soham Majumdar",Sandeep Reddy Vanga,600000000,3800000000,Kabir Singh,Night,Hot,No,65
Kochi,"Evm Cinema Studio, KSRTC Road",119.55509767142858,1220,4,1,9.9468236,76.2556623,MediaAnt,6.3,"Action, Adventure, Thriller",2023-01-25,Yash Raj Films,"Shah Rukh Khan, Deepika Padukone, John Abraham",Siddharth Anand,2500000000,10500000000,Pathaan,Night,Stormy,Yes,562
Delhi,"PVR: Vikaspuri, Delhi",202.2619048,921,3,1,28.63902,77.07448,"BookMyShow, MediaAnt",7.7,"Action, Adventure, Drama",2022-09-30,Hombale Films,"Rishab Shetty, Kishore Kumar G., Achyuth Kumar",Rishab Shetty,160000000,4000000000,Kantara,Night,Hot,Yes,332
Delhi,PVR Promenade: Vasant Kunj,431.7234848,1139,7,1,28.54262,77.15575,"BookMyShow, Internet Research",6.3,"Action, Adventure, Thriller",2023-01-25,Yash Raj Films,"Shah Rukh Khan, Deepika Padukone, John Abraham",Siddharth Anand,2500000000,10500000000,Pathaan,Evening,Humid,Yes,967
Chennai,Kasi4K Dolby Atmos,97.97240740555556,733,1,0,13.0294637,80.2084348,Internet Research,7.3,"Action, Crime, Drama",2022-04-14,Hombale Films,"Yash, Sanjay Dutt, Raveena Tandon",Prashanth Neel,1000000000,12500000000,KGF 2,Afternoon,Humid,Yes,503
Bangalore,"Nalanda Theatre, Mysore Road",183.50891304903843,1090,1,0,12.9605832,77.5578493,MediaAnt,8.0,"Action, Drama",2015-07-10,Arka Media Works,"Prabhas, Rana Daggubati, Anushka Shetty",S.S. Rajamouli,1800000000,6500000000,Baahubali,Morning,Humid,Yes,393
Hyderabad,Select Talkies: Bolaram,60.0,566,1,0,17.51147,78.51067,"BookMyShow, MediaAnt",8.3,"Biography, Drama, Sport",2016-12-23,Walt Disney Pictures India,"Aamir Khan, Sakshi Tanwar, Fatima Sana Shaikh",Nitesh Tiwari,70000000,2100000000,Dangal,Evening,Humid,Yes,59
Bangalore,Mukunda Dolby Atmos: M S Nagar,159.375,814,1,0,13.00325,77.63585,BookMyShow,7.1,"Drama, Romance",2019-06-21,Cine1 Studios,"Shahid Kapoor, Kiara Advani, Soham Majumdar",Sandeep Reddy Vanga,600000000,3800000000,Kabir Singh,Afternoon,Rainy,No,520
Kolkata,"Ragini Cinema, Beliaghata",187.80483726826088,999,1,0,22.5616213,88.4063598,MediaAnt,7.0,"Action, Thriller",2023-06-02,Red Chillies Entertainment,"Shah Rukh Khan, Nayanthara, Vijay Sethupathi",Atlee Kumar,2200000000,8000000000,Jawan,Evening,Hot,No,449
Bangalore,Movie Land,183.50891304903843,648,1,0,12.9788182,77.5755948,Internet Research,7.0,"Action, Thriller",2023-06-02,Red Chillies Entertainment,"Shah Rukh Khan, Nayanthara, Vijay Sethupathi",Atlee Kumar,2200000000,8000000000,Jawan,Night,Rainy,Yes,451
Bangalore,Manasa Digital 4K Dolby Atmos: Konanakunte,175.0,640,1,0,12.89064,77.5622,"BookMyShow, MediaAnt",7.7,"Action, Adventure, Drama",2022-09-30,Hombale Films,"Rishab Shetty, Kishore Kumar G., Achyuth Kumar",Rishab Shetty,160000000,4000000000,Kantara,Night,Hot,No,18
Bangalore,"PVR: Orion Gold, Rajajinagar",806.2962963,144,3,0,13.011,77.55509,BookMyShow,6.5,"Action, Crime, Thriller",2021-11-05,Reliance Entertainment,"Akshay Kumar, Katrina Kaif, Ajay Devgn",Rohit Shetty,1650000000,2900000000,Sooryavanshi,Morning,Cloudy,No,19
Bangalore,Thirumala Digital 2K Cinema: Agara,108.5,904,1,0,12.91991,77.64969,"BookMyShow, MediaAnt",8.4,"Action, Biography, Drama",2021-08-12,Dharma Productions,"Sidharth Malhotra, Kiara Advani, Shiv Panditt",Vishnuvardhan,550000000,1360000000,Shershaah,Morning,Cloudy,No,719
Mumbai,"Sheetal Cinema, Kurla North",198.1442727463636,993,1,0,19.0825802,72.8822279,MediaAnt,7.3,"Action, Crime, Drama",2022-04-14,Hombale Films,"Yash, Sanjay Dutt, Raveena Tandon",Prashanth Neel,1000000000,12500000000,KGF 2,Afternoon,Hot,Yes,142
Bangalore,"Ranganatha Theatre, Mysore Road",183.50891304903843,410,1,0,12.9632206,77.5663842,MediaAnt,8.2,"Crime, Drama, Thriller",2022-11-18,Panorama Studios,"Ajay Devgn, Shriya Saran, Tabu",Abhishek Pathak,50000000,340000000,Drishyam 2,Night,Cloudy,No,116
Bangalore,"INOX: Central, JP Nagar, Mantri Junction",343.0347222,1118,4,1,12.9164,77.59241,"BookMyShow, MediaAnt",7.1,"Drama, Romance",2019-06-21,Cine1 Studios,"Shahid Kapoor, Kiara Advani, Soham Majumdar",Sandeep Reddy Vanga,600000000,3800000000,Kabir Singh,Morning,Humid,Yes,819
Chennai,Woodlands Complex: Chennai,69.5,1713,2,1,13.05656,80.26497,"BookMyShow, MediaAnt",7.1,"Drama, Romance",2019-06-21,Cine1 Studios,"Shahid Kapoor, Kiara Advani, Soham Majumdar",Sandeep Reddy Vanga,600000000,3800000000,Kabir Singh,Afternoon,Rainy,No,324
Bangalore,Vaibhavi A/C Theatre: Uttarahalli,105.0,715,1,0,12.90348,77.54415,"BookMyShow, MediaAnt",7.3,"Action, Thriller",2022-06-03,Raaj Kamal Films International,"Kamal Haasan, Vijay Sethupathi, Fahadh Faasil",Lokesh Kanagaraj,1500000000,4000000000,Vikram,Night,Hot,No,572
Chennai,Woodlands Complex: Chennai,69.5,1713,2,1,13.05656,80.26497,"BookMyShow, MediaAnt",7.7,"Action, Adventure, Drama",2022-09-30,Hombale Films,"Rishab Shetty, Kishore Kumar G., Achyuth Kumar",Rishab Shetty,160000000,4000000000,Kantara,Night,Stormy,Yes,1593
Bangalore,"Lakshmi Theatre, Dharmaram College",183.50891304903843,900,1,0,12.9362,77.6028377,MediaAnt,7.3,"Action, Thriller",2022-06-03,Raaj Kamal Films International,"Kamal Haasan, Vijay Sethupathi, Fahadh Faasil",Lokesh Kanagaraj,1500000000,4000000000,Vikram,Evening,Hot,Yes,201
Delhi,PVR Promenade: Vasant Kunj,431.7234848,1139,7,1,28.54262,77.15575,"BookMyShow, Internet Research",7.1,"Drama, Romance",2019-06-21,Cine1 Studios,"Shahid Kapoor, Kiara Advani, Soham Majumdar",Sandeep Reddy Vanga,600000000,3800000000,Kabir Singh,Night,Sunny,Yes,664
Kolkata,11D Adventureplex: Quest Mall,250.0,30,1,0,22.52575,88.35952,"BookMyShow, Internet Research",6.5,"Action, Crime, Thriller",2021-11-05,Reliance Entertainment,"Akshay Kumar, Katrina Kaif, Ajay Devgn",Rohit Shetty,1650000000,2900000000,Sooryavanshi,Morning,Sunny,No,0
Mumbai,Le Reve (Globus): Bandra (W),195.5,259,1,0,19.05605,72.83383,BookMyShow,7.3,"Action, Thriller",2022-06-03,Raaj Kamal Films International,"Kamal Haasan, Vijay Sethupathi, Fahadh Faasil",Lokesh Kanagaraj,1500000000,4000000000,Vikram,Night,Humid,Yes,38
Chennai,Udhayam Complex,97.97240740555556,759,1,0,12.9596264,80.2433274,Internet Research,8.4,"Action, Biography, Drama",2021-08-12,Dharma Productions,"Sidharth Malhotra, Kiara Advani, Shiv Panditt",Vishnuvardhan,550000000,1360000000,Shershaah,Evening,Cloudy,No,165
Ahmedabad,"Usha Talkies, Gomtipur",149.09491512148148,550,1,0,23.017995,72.6152555,MediaAnt,8.4,"Action, Biography, Drama",2021-08-12,Dharma Productions,"Sidharth Malhotra, Kiara Advani, Shiv Panditt",Vishnuvardhan,550000000,1360000000,Shershaah,Evening,Stormy,No,383
Hyderabad,Konark: Dilsukhnagar,80.0,1026,1,0,17.3686,78.51865,"BookMyShow, MediaAnt",8.2,"Crime, Drama, Thriller",2022-11-18,Panorama Studios,"Ajay Devgn, Shriya Saran, Tabu",Abhishek Pathak,50000000,340000000,Drishyam 2,Morning,Hot,Yes,195
Kolkata,INOX: Quest Mall (Insignia),608.3333333,162,3,1,22.53914,88.36565,BookMyShow,8.0,"Action, Drama",2015-07-10,Arka Media Works,"Prabhas, Rana Daggubati, Anushka Shetty",S.S. Rajamouli,1800000000,6500000000,Baahubali,Night,Stormy,No,68
Hyderabad,"Mallikarjuna 70 Mm, Hyder nagar",95.06145388259615,861,1,0,17.5000892,78.38697,MediaAnt,7.0,"Action, Thriller",2023-06-02,Red Chillies Entertainment,"Shah Rukh Khan, Nayanthara, Vijay Sethupathi",Atlee Kumar,2200000000,8000000000,Jawan,Morning,Rainy,No,465
Chennai,MM Theatre,97.97240740555556,772,1,0,13.1260232,80.2896379,Internet Research,5.6,"Action, Adventure, Fantasy",2022-09-09,Dharma Productions,"Ranbir Kapoor, Alia Bhatt, Amitabh Bachchan",Ayan Mukerji,4100000000,4300000000,Brahmastra,Evening,Cloudy,No,133
Bangalore,Vaishnavi A/C Theatre: Uttarahalli,120.0,800,1,0,12.90348,77.54415,"BookMyShow, MediaAnt",8.0,"Action, Drama",2015-07-10,Arka Media Works,"Prabhas, Rana Daggubati, Anushka Shetty",S.S. Rajamouli,1800000000,6500000000,Baahubali,Afternoon,Hot,Yes,259
Bangalore,"Sri Madeswara Chitra Mandira, Bangalore",183.50891304903843,1250,1,0,12.9156484,77.5633059,MediaAnt,7.0,"Action, Thriller",2023-06-02,Red Chillies Entertainment,"Shah Rukh Khan, Nayanthara, Vijay Sethupathi",Atlee Kumar,2200000000,8000000000,Jawan,Night,Cloudy,No,807
Kolkata,Navina Cinema: Tollygunge,110.1333333,983,1,0,22.501,88.34881,"BookMyShow, Internet Research",7.3,"Action, Thriller",2022-06-03,Raaj Kamal Films International,"Kamal Haasan, Vijay Sethupathi, Fahadh Faasil",Lokesh Kanagaraj,1500000000,4000000000,Vikram,Morning,Stormy,Yes,1
Delhi,Abhishek Cineplex: Chandni Chowk,96.46666667,260,1,0,28.65628,77.2342,BookMyShow,8.2,"Crime, Drama, Thriller",2022-11-18,Panorama Studios,"Ajay Devgn, Shriya Saran, Tabu",Abhishek Pathak,50000000,340000000,Drishyam 2,Night,Cloudy,Yes,137
Hyderabad,Raghavendra 35mm: Malkajgiri,70.0,580,1,0,17.4513,78.53616,"BookMyShow, MediaAnt",7.8,"Action, Drama",2022-03-25,DVV Entertainment,"N.T. Rama Rao Jr., Ram Charan, Alia Bhatt",S.S. Rajamouli,5500000000,12000000000,RRR,Night,Rainy,Yes,153
Bangalore,"INOX: Garuda Mall, Magrath Road",337.1212121,1103,5,1,12.97009,77.60943,"BookMyShow, MediaAnt",7.0,"Action, Thriller",2023-06-02,Red Chillies Entertainment,"Shah Rukh Khan, Nayanthara, Vijay Sethupathi",Atlee Kumar,2200000000,8000000000,Jawan,Morning,Humid,No,475
Delhi,"PVR: Sangam, Delhi",312.2321429,392,2,1,28.57239,77.1735,BookMyShow,5.6,"Action, Adventure, Fantasy",2022-09-09,Dharma Productions,"Ranbir Kapoor, Alia Bhatt, Amitabh Bachchan",Ayan Mukerji,4100000000,4300000000,Brahmastra,Night,Sunny,No,138
Kolkata,"Ragini Cinema, Beliaghata",187.80483726826088,999,1,0,22.5616213,88.4063598,MediaAnt,8.2,"Crime, Drama, Thriller",2022-11-18,Panorama Studios,"Ajay Devgn, Shriya Saran, Tabu",Abhishek Pathak,50000000,340000000,Drishyam 2,Night,Stormy,No,863
Kochi,"Cinemax: Oberon, Kochi",128.3472222,634,4,1,10.01432,76.31232,BookMyShow,6.3,"Action, Adventure, Thriller",2023-01-25,Yash Raj Films,"Shah Rukh Khan, Deepika Padukone, John Abraham",Siddharth Anand,2500000000,10500000000,Pathaan,Night,Sunny,Yes,388
Hyderabad,BR Hitech 70mm: Madhapur,80.0,528,1,0,17.44442,78.38823,"BookMyShow, Internet Research",7.7,"Action, Adventure, Drama",2022-09-30,Hombale Films,"Rishab Shetty, Kishore Kumar G., Achyuth Kumar",Rishab Shetty,160000000,4000000000,Kantara,Morning,Hot,No,14
Bangalore,Sri Vinayaka A/C Digital 2K Cinemas: Varthur,138.3333333,531,1,0,12.93572,77.74443,"BookMyShow, Internet Research",8.0,"Action, Drama",2015-07-10,Arka Media Works,"Prabhas, Rana Daggubati, Anushka Shetty",S.S. Rajamouli,1800000000,6500000000,Baahubali,Night,Rainy,Yes,219
Bangalore,Triveni Theatre: Gandhinagar,109.0,800,1,0,12.97628,77.57538,"BookMyShow, MediaAnt",7.3,"Action, Thriller",2022-06-03,Raaj Kamal Films International,"Kamal Haasan, Vijay Sethupathi, Fahadh Faasil",Lokesh Kanagaraj,1500000000,4000000000,Vikram,Evening,Stormy,No,487
Bangalore,Radhakrishna Theatre: R.T. Nagar,125.0,921,1,0,13.01337,77.59387,BookMyShow,7.4,"Action, Crime, Drama",2021-12-17,Mythri Movie Makers,"Allu Arjun, Fahadh Faasil, Rashmika Mandanna",Sukumar,2500000000,3650000000,Pushpa,Evening,Hot,Yes,694
Chennai,Casino Theatre: Chennai,59.0,83,1,0,13.06868,80.27017,BookMyShow,7.4,"Action, Crime, Drama",2021-12-17,Mythri Movie Makers,"Allu Arjun, Fahadh Faasil, Rashmika Mandanna",Sukumar,2500000000,3650000000,Pushpa,Morning,Humid,Yes,42
Ahmedabad,City Gold: Bapunagar,101.1666667,419,4,1,23.03743,72.61513,"BookMyShow, MediaAnt",8.0,"Action, Drama",2015-07-10,Arka Media Works,"Prabhas, Rana Daggubati, Anushka Shetty",S.S. Rajamouli,1800000000,6500000000,Baahubali,Afternoon,Sunny,No,322
Bangalore,"PVR: MSR Elements Mall, Bengaluru",288.0883838,1383,7,1,13.04516,77.62658,"BookMyShow, MediaAnt",8.2,"Crime, Drama, Thriller",2022-11-18,Panorama Studios,"Ajay Devgn, Shriya Saran, Tabu",Abhishek Pathak,50000000,340000000,Drishyam 2,Night,Hot,Yes,256
Bangalore,Sri Krishna Digital 2K Cinema: Bommanahalli,100.0,800,1,0,12.90535,77.62936,"BookMyShow, MediaAnt",8.4,"Action, Biography, Drama",2021-08-12,Dharma Productions,"Sidharth Malhotra, Kiara Advani, Shiv Panditt",Vishnuvardhan,550000000,1360000000,Shershaah,Afternoon,Rainy,No,202
Hyderabad,Priya Theatre: Malleypally,80.0,750,1,0,17.39049,78.4549,"BookMyShow, MediaAnt",7.7,"Action, Adventure, Drama",2022-09-30,Hombale Films,"Rishab Shetty, Kishore Kumar G., Achyuth Kumar",Rishab Shetty,160000000,4000000000,Kantara,Afternoon,Humid,No,519
Bangalore,Thirumala Digital 2K Cinema: Agara,108.5,904,1,0,12.91991,77.64969,"BookMyShow, MediaAnt",8.2,"Crime, Drama, Thriller",2022-11-18,Panorama Studios,"Ajay Devgn, Shriya Saran, Tabu",Abhishek Pathak,50000000,340000000,Drishyam 2,Morning,Sunny,No,746
Mumbai,"Shalimar Cinema, Bharat Nagar",198.1442727463636,704,1,0,18.9616462,72.8210111,MediaAnt,6.5,"Action, Crime, Thriller",2021-11-05,Reliance Entertainment,"Akshay Kumar, Katrina Kaif, Ajay Devgn",Rohit Shetty,1650000000,2900000000,Sooryavanshi,Morning,Sunny,Yes,632
Mumbai,"Moti Cinema, Ambewadi",198.1442727463636,745,1,0,18.9583336,72.8265371,MediaAnt,7.7,"Action, Adventure, Drama",2022-09-30,Hombale Films,"Rishab Shetty, Kishore Kumar G., Achyuth Kumar",Rishab Shetty,160000000,4000000000,Kantara,Night,Cloudy,Yes,710
Kolkata,Priya Cinema: Rashbehari Avenue,152.0,793,1,0,22.51794,88.35438,BookMyShow,7.8,"Action, Drama",2022-03-25,DVV Entertainment,"N.T. Rama Rao Jr., Ram Charan, Alia Bhatt",S.S. Rajamouli,5500000000,12000000000,RRR,Evening,Cloudy,Yes,224
Mumbai,"INOX Laserplex: CR2, Nariman Point",496.005291,868,5,1,18.92648,72.82293,BookMyShow,5.6,"Action, Adventure, Fantasy",2022-09-09,Dharma Productions,"Ranbir Kapoor, Alia Bhatt, Amitabh Bachchan",Ayan Mukerji,4100000000,4300000000,Brahmastra,Night,Stormy,No,856
Hyderabad,Sudarshan 35mm 4k & Dolby Atmos: RTC X Roads,118.0,1216,1,0,17.40646,78.49503,"BookMyShow, MediaAnt",7.7,"Action, Adventure, Drama",2022-09-30,Hombale Films,"Rishab Shetty, Kishore Kumar G., Achyuth Kumar",Rishab Shetty,160000000,4000000000,Kantara,Morning,Humid,No,949
Delhi,DT Cinemas: Savitri Complex GK2,238.8888889,300,1,0,28.54135,77.24011,BookMyShow,7.1,"Drama, Romance",2019-06-21,Cine1 Studios,"Shahid Kapoor, Kiara Advani, Soham Majumdar",Sandeep Reddy Vanga,600000000,3800000000,Kabir Singh,Night,Humid,Yes,176
Mumbai,"Nishat Talkies, Falkland Road",198.1442727463636,691,1,0,18.9620811,72.8237374,MediaAnt,6.3,"Action, Adventure, Thriller",2023-01-25,Yash Raj Films,"Shah Rukh Khan, Deepika Padukone, John Abraham",Siddharth Anand,2500000000,10500000000,Pathaan,Morning,Rainy,No,206
Ahmedabad,City Gold: Bopal,152.3571429,462,4,1,23.02869,72.47856,BookMyShow,5.6,"Action, Adventure, Fantasy",2022-09-09,Dharma Productions,"Ranbir Kapoor, Alia Bhatt, Amitabh Bachchan",Ayan Mukerji,4100000000,4300000000,Brahmastra,Afternoon,Rainy,Yes,5
Kolkata,"Cinepolis: Lake Mall, Kolkata",214.2045455,947,4,1,22.51652,88.34876,BookMyShow,6.5,"Action, Crime, Thriller",2021-11-05,Reliance Entertainment,"Akshay Kumar, Katrina Kaif, Ajay Devgn",Rohit Shetty,1650000000,2900000000,Sooryavanshi,Evening,Stormy,Yes,14
Hyderabad,Arjun 70MM: Kukatpally,100.0,786,1,0,17.49677,78.39703,"BookMyShow, MediaAnt",8.0,"Action, Drama",2015-07-10,Arka Media Works,"Prabhas, Rana Daggubati, Anushka Shetty",S.S. Rajamouli,1800000000,6500000000,Baahubali,Afternoon,Rainy,No,89
Delhi,"PVR: Naraina, Delhi",221.6666667,830,4,1,28.63308,77.13889,"BookMyShow, MediaAnt",8.4,"Action, Biography, Drama",2021-08-12,Dharma Productions,"Sidharth Malhotra, Kiara Advani, Shiv Panditt",Vishnuvardhan,550000000,1360000000,Shershaah,Afternoon,Cloudy,No,391
Delhi,PVR: Shalimar Bagh,311.0714286,1142,4,1,28.70282,77.15833,"BookMyShow, MediaAnt",6.5,"Action, Crime, Thriller",2021-11-05,Reliance Entertainment,"Akshay Kumar, Katrina Kaif, Ajay Devgn",Rohit Shetty,1650000000,2900000000,Sooryavanshi,Night,Hot,Yes,1106
Bangalore,Carnival: Rockline Mall,179.4444444,1011,4,1,13.04075,77.51825,"BookMyShow, MediaAnt",7.1,"Drama, Romance",2019-06-21,Cine1 Studios,"Shahid Kapoor, Kiara Advani, Soham Majumdar",Sandeep Reddy Vanga,600000000,3800000000,Kabir Singh,Night,Cloudy,No,845
Hyderabad,Kalyani Movie Max: Bowenpally,70.0,84,1,0,17.47373,78.47971,BookMyShow,7.3,"Action, Thriller",2022-06-03,Raaj Kamal Films International,"Kamal Haasan, Vijay Sethupathi, Fahadh Faasil",Lokesh Kanagaraj,1500000000,4000000000,Vikram,Night,Stormy,No,6
Hyderabad,"Manikanta, Reddy Colony",95.06145388259615,394,1,0,17.337529,78.549634,MediaAnt,6.5,"Action, Crime, Thriller",2021-11-05,Reliance Entertainment,"Akshay Kumar, Katrina Kaif, Ajay Devgn",Rohit Shetty,1650000000,2900000000,Sooryavanshi,Afternoon,Sunny,Yes,366
Bangalore,Veeresh Cinemas Screen 1: Magadi Rd,80.0,178,1,0,12.97707,77.54595,BookMyShow,7.3,"Action, Crime, Drama",2022-04-14,Hombale Films,"Yash, Sanjay Dutt, Raveena Tandon",Prashanth Neel,1000000000,12500000000,KGF 2,Afternoon,Stormy,Yes,92
Bangalore,"Nalanda Theatre, Mysore Road",183.50891304903843,1090,1,0,12.9605832,77.5578493,MediaAnt,5.6,"Action, Adventure, Fantasy",2022-09-09,Dharma Productions,"Ranbir Kapoor, Alia Bhatt, Amitabh Bachchan",Ayan Mukerji,4100000000,4300000000,Brahmastra,Afternoon,Hot,No,999
Bangalore,Vishal A/C Theatre: Kamakshipalya,80.0,875,1,0,12.98318,77.53018,"BookMyShow, MediaAnt",8.2,"Crime, Drama, Thriller",2022-11-18,Panorama Studios,"Ajay Devgn, Shriya Saran, Tabu",Abhishek Pathak,50000000,340000000,Drishyam 2,Afternoon,Cloudy,Yes,132
Bangalore,Sangeet Theatre: Shivaji Nagar,115.0,860,1,0,12.98161,77.60294,"BookMyShow, MediaAnt",6.3,"Action, Adventure, Thriller",2023-01-25,Yash Raj Films,"Shah Rukh Khan, Deepika Padukone, John Abraham",Siddharth Anand,2500000000,10500000000,Pathaan,Night,Cloudy,No,561
Delhi,"PVR: Anupam, Delhi",170.6018519,1000,4,1,28.52374,77.20716,"BookMyShow, Internet Research",8.2,"Crime, Drama, Thriller",2022-11-18,Panorama Studios,"Ajay Devgn, Shriya Saran, Tabu",Abhishek Pathak,50000000,340000000,Drishyam 2,Morning,Stormy,No,32
Hyderabad,Vimal 70mm: Balanagar,80.0,1010,1,0,17.46361,78.45124,"BookMyShow, MediaAnt",5.6,"Action, Adventure, Fantasy",2022-09-09,Dharma Productions,"Ranbir Kapoor, Alia Bhatt, Amitabh Bachchan",Ayan Mukerji,4100000000,4300000000,Brahmastra,Morning,Humid,No,865
Ahmedabad,City Gold: Motera,111.5,728,2,1,23.09203,72.59319,BookMyShow,7.3,"Action, Thriller",2022-06-03,Raaj Kamal Films International,"Kamal Haasan, Vijay Sethupathi, Fahadh Faasil",Lokesh Kanagaraj,1500000000,4000000000,Vikram,Morning,Sunny,Yes,488
Bangalore,Vaishnavi A/C Theatre: Uttarahalli,120.0,800,1,0,12.90348,77.54415,"BookMyShow, MediaAnt",8.2,"Crime, Drama, Thriller",2022-11-18,Panorama Studios,"Ajay Devgn, Shriya Saran, Tabu",Abhishek Pathak,50000000,340000000,Drishyam 2,Morning,Sunny,Yes,727
Ahmedabad,Carnival: Himalaya Mall,189.0509259,1110,5,1,23.04708,72.53093,"BookMyShow, MediaAnt",8.0,"Action, Drama",2015-07-10,Arka Media Works,"Prabhas, Rana Daggubati, Anushka Shetty",S.S. Rajamouli,1800000000,6500000000,Baahubali,Night,Cloudy,No,961
Chennai,Devi Karumari A/C,97.97240740555556,850,1,0,13.0499059,80.1934024,Internet Research,7.1,"Drama, Romance",2019-06-21,Cine1 Studios,"Shahid Kapoor, Kiara Advani, Soham Majumdar",Sandeep Reddy Vanga,600000000,3800000000,Kabir Singh,Evening,Cloudy,No,671
Bangalore,Chandrodaya Digital 2K Cinema: Vidyapeeta Circle,110.0,960,1,0,12.93546,77.56129,BookMyShow,7.4,"Action, Crime, Drama",2021-12-17,Mythri Movie Makers,"Allu Arjun, Fahadh Faasil, Rashmika Mandanna",Sukumar,2500000000,3650000000,Pushpa,Night,Hot,No,667
Mumbai,Movietime Suburbia: Bandra (W),458.9,189,1,0,19.06099,72.83685,"BookMyShow, MediaAnt",8.0,"Action, Drama",2015-07-10,Arka Media Works,"Prabhas, Rana Daggubati, Anushka Shetty",S.S. Rajamouli,1800000000,6500000000,Baahubali,Night,Sunny,No,108
Mumbai,24 Karat: Jogeshwari,219.5555556,1527,4,1,19.14108,72.84372,BookMyShow,8.2,"Crime, Drama, Thriller",2022-11-18,Panorama Studios,"Ajay Devgn, Shriya Saran, Tabu",Abhishek Pathak,50000000,340000000,Drishyam 2,Evening,Rainy,No,219
Hyderabad,Rajdhani 70mm: Dilsukhnagar,80.0,1050,1,0,17.36855,78.52989,"BookMyShow, MediaAnt",7.0,"Action, Thriller",2023-06-02,Red Chillies Entertainment,"Shah Rukh Khan, Nayanthara, Vijay Sethupathi",Atlee Kumar,2200000000,8000000000,Jawan,Morning,Humid,No,784
Hyderabad,Sensation Sunshine: Khairatabad,80.0,850,1,0,17.40714,78.46361,"BookMyShow, MediaAnt",6.5,"Action, Crime, Thriller",2021-11-05,Reliance Entertainment,"Akshay Kumar, Katrina Kaif, Ajay Devgn",Rohit Shetty,1650000000,2900000000,Sooryavanshi,Afternoon,Stormy,Yes,441
Kolkata,"New Empire Cinema, New Market",187.80483726826088,750,1,0,22.5605129,88.3514889,MediaAnt,6.5,"Action, Crime, Thriller",2021-11-05,Reliance Entertainment,"Akshay Kumar, Katrina Kaif, Ajay Devgn",Rohit Shetty,1650000000,2900000000,Sooryavanshi,Morning,Sunny,No,416
Bangalore,"INOX: Central, JP Nagar, Mantri Junction",343.0347222,1118,4,1,12.9164,77.59241,"BookMyShow, MediaAnt",7.3,"Action, Thriller",2022-06-03,Raaj Kamal Films International,"Kamal Haasan, Vijay Sethupathi, Fahadh Faasil",Lokesh Kanagaraj,1500000000,4000000000,Vikram,Afternoon,Sunny,Yes,649
Bangalore,Veeresh Cinemas Screen 2: Magadi Rd,100.0,214,1,0,12.97707,77.54595,BookMyShow,6.3,"Action, Adventure, Thriller",2023-01-25,Yash Raj Films,"Shah Rukh Khan, Deepika Padukone, John Abraham",Siddharth Anand,2500000000,10500000000,Pathaan,Night,Sunny,Yes,143
Bangalore,"Lavanya, Sivan Chetty Gardens",183.50891304903843,786,1,0,12.9848012,77.6148355,MediaAnt,7.0,"Action, Thriller",2023-06-02,Red Chillies Entertainment,"Shah Rukh Khan, Nayanthara, Vijay Sethupathi",Atlee Kumar,2200000000,8000000000,Jawan,Evening,Hot,Yes,161
Chennai,"Krishnaveni, South Usman Raod",97.97240740555556,898,1,0,13.0346055,80.2307106,MediaAnt,5.6,"Action, Adventure, Fantasy",2022-09-09,Dharma Productions,"Ranbir Kapoor, Alia Bhatt, Amitabh Bachchan",Ayan Mukerji,4100000000,4300000000,Brahmastra,Night,Hot,Yes,804
Delhi,"7D Mastiii: TDI Mall, Rajouri Garden, Delhi",170.0,18,1,0,28.65083,77.12087,BookMyShow,7.0,"Action, Thriller",2023-06-02,Red Chillies Entertainment,"Shah Rukh Khan, Nayanthara, Vijay Sethupathi",Atlee Kumar,2200000000,8000000000,Jawan,Evening,Sunny,No,9
Chennai,AGS Cinemas: T. Nagar,82.7,884,4,1,13.04745,80.24485,BookMyShow,6.3,"Action, Adventure, Thriller",2023-01-25,Yash Raj Films,"Shah Rukh Khan, Deepika Padukone, John Abraham",Siddharth Anand,2500000000,10500000000,Pathaan,Afternoon,Hot,No,695
Mumbai,Nandi Cinema: National Library Road,65.0,762,1,0,19.05546,72.83874,BookMyShow,7.3,"Action, Thriller",2022-06-03,Raaj Kamal Films International,"Kamal Haasan, Vijay Sethupathi, Fahadh Faasil",Lokesh Kanagaraj,1500000000,4000000000,Vikram,Afternoon,Cloudy,No,247
Mumbai,Nandi Cinema: National Library Road,65.0,762,1,0,19.05546,72.83874,BookMyShow,8.4,"Action, Biography, Drama",2021-08-12,Dharma Productions,"Sidharth Malhotra, Kiara Advani, Shiv Panditt",Vishnuvardhan,550000000,1360000000,Shershaah,Morning,Sunny,Yes,700
Hyderabad,Asian GPR Multiplex: Kukatpally,162.5,1143,3,1,17.49923,78.39067,BookMyShow,6.5,"Action, Crime, Thriller",2021-11-05,Reliance Entertainment,"Akshay Kumar, Katrina Kaif, Ajay Devgn",Rohit Shetty,1650000000,2900000000,Sooryavanshi,Morning,Cloudy,Yes,292
Mumbai,"Mayur Cinema, Subhash Lane",198.1442727463636,645,1,0,19.2020115,72.8450572,MediaAnt,5.6,"Action, Adventure, Fantasy",2022-09-09,Dharma Productions,"Ranbir Kapoor, Alia Bhatt, Amitabh Bachchan",Ayan Mukerji,4100000000,4300000000,Brahmastra,Morning,Cloudy,Yes,330
Hyderabad,Nartaki Theatre: Alwal,70.0,854,1,0,17.49423,78.5133,"BookMyShow, MediaAnt",7.0,"Action, Thriller",2023-06-02,Red Chillies Entertainment,"Shah Rukh Khan, Nayanthara, Vijay Sethupathi",Atlee Kumar,2200000000,8000000000,Jawan,Morning,Rainy,Yes,337
Bangalore,"Ganesh Theatre, Attur",183.50891304903843,713,1,0,13.1001929,77.5872728,MediaAnt,7.3,"Action, Thriller",2022-06-03,Raaj Kamal Films International,"Kamal Haasan, Vijay Sethupathi, Fahadh Faasil",Lokesh Kanagaraj,1500000000,4000000000,Vikram,Night,Rainy,No,144
Bangalore,"Raja Murali Theatre, Kodigehalli Sahakar Nagar(post)",183.50891304903843,558,1,0,13.0605001,77.5768534,MediaAnt,7.3,"Action, Thriller",2022-06-03,Raaj Kamal Films International,"Kamal Haasan, Vijay Sethupathi, Fahadh Faasil",Lokesh Kanagaraj,1500000000,4000000000,Vikram,Night,Sunny,No,154
Delhi,Movietime: Raja Garden,200.9621212,1226,6,1,28.65266,77.12335,"BookMyShow, Internet Research",6.5,"Action, Crime, Thriller",2021-11-05,Reliance Entertainment,"Akshay Kumar, Katrina Kaif, Ajay Devgn",Rohit Shetty,1650000000,2900000000,Sooryavanshi,Morning,Stormy,Yes,819
Ahmedabad,"PVR: Motera, Ahmedabad",154.3333333,1102,4,1,23.10273,72.59521,"BookMyShow, Internet Research",7.3,"Action, Thriller",2022-06-03,Raaj Kamal Films International,"Kamal Haasan, Vijay Sethupathi, Fahadh Faasil",Lokesh Kanagaraj,1500000000,4000000000,Vikram,Afternoon,Cloudy,Yes,234
Bangalore,Cauvery Theatre: Sankey Road,123.3333333,1210,1,0,13.00256,77.58328,"BookMyShow, MediaAnt",8.4,"Action, Biography, Drama",2021-08-12,Dharma Productions,"Sidharth Malhotra, Kiara Advani, Shiv Panditt",Vishnuvardhan,550000000,1360000000,Shershaah,Morning,Sunny,Yes,649
Chennai,Raj Theatre - A/C DTS: Chennai,175.0,950,1,0,13.0196,80.22324,BookMyShow,8.4,"Action, Biography, Drama",2021-08-12,Dharma Productions,"Sidharth Malhotra, Kiara Advani, Shiv Panditt",Vishnuvardhan,550000000,1360000000,Shershaah,Afternoon,Cloudy,Yes,301
Bangalore,Sangeet Theatre: Shivaji Nagar,115.0,860,1,0,12.98161,77.60294,"BookMyShow, MediaAnt",7.4,"Action, Crime, Drama",2021-12-17,Mythri Movie Makers,"Allu Arjun, Fahadh Faasil, Rashmika Mandanna",Sukumar,2500000000,3650000000,Pushpa,Afternoon,Hot,Yes,635
Hyderabad,Kalyani Movie Max: Bowenpally,70.0,84,1,0,17.47373,78.47971,BookMyShow,7.7,"Action, Adventure, Drama",2022-09-30,Hombale Films,"Rishab Shetty, Kishore Kumar G., Achyuth Kumar",Rishab Shetty,160000000,4000000000,Kantara,Afternoon,Sunny,No,59
Ahmedabad,"Shital Cinema, Gomtipur",149.09491512148148,350,1,0,23.0217999,72.6105388,MediaAnt,7.1,"Drama, Romance",2019-06-21,Cine1 Studios,"Shahid Kapoor, Kiara Advani, Soham Majumdar",Sandeep Reddy Vanga,600000000,3800000000,Kabir Singh,Evening,Stormy,Yes,62
Hyderabad,Select Talkies: Bolaram,60.0,566,1,0,17.51147,78.51067,"BookMyShow, MediaAnt",6.3,"Action, Adventure, Thriller",2023-01-25,Yash Raj Films,"Shah Rukh Khan, Deepika Padukone, John Abraham",Siddharth Anand,2500000000,10500000000,Pathaan,Morning,Cloudy,No,30
Delhi,"PVR: Rivoli, Delhi",320.8333333,329,1,0,28.63101,77.21636,BookMyShow,8.0,"Action, Drama",2015-07-10,Arka Media Works,"Prabhas, Rana Daggubati, Anushka Shetty",S.S. Rajamouli,1800000000,6500000000,Baahubali,Morning,Rainy,Yes,9
Mumbai,"Cinemax: R Odeon Mall, Ghatkopar (E)",158.3928571,1250,4,1,19.0796,72.90937,"BookMyShow, Internet Research",8.3,"Biography, Drama, Sport",2016-12-23,Walt Disney Pictures India,"Aamir Khan, Sakshi Tanwar, Fatima Sana Shaikh",Nitesh Tiwari,70000000,2100000000,Dangal,Night,Humid,Yes,721
Bangalore,"INOX: Central, JP Nagar, Mantri Junction",343.0347222,1118,4,1,12.9164,77.59241,"BookMyShow, MediaAnt",7.3,"Action, Thriller",2022-06-03,Raaj Kamal Films International,"Kamal Haasan, Vijay Sethupathi, Fahadh Faasil",Lokesh Kanagaraj,1500000000,4000000000,Vikram,Evening,Sunny,Yes,829
Hyderabad,"Sri Sai Ram Theatre, MainRoad",95.06145388259615,600,1,0,17.368235,78.526694,MediaAnt,8.3,"Biography, Drama, Sport",2016-12-23,Walt Disney Pictures India,"Aamir Khan, Sakshi Tanwar, Fatima Sana Shaikh",Nitesh Tiwari,70000000,2100000000,Dangal,Afternoon,Hot,No,382
Delhi,"PVR: Vikaspuri, Delhi",202.2619048,921,3,1,28.63902,77.07448,"BookMyShow, MediaAnt",7.3,"Action, Crime, Drama",2022-04-14,Hombale Films,"Yash, Sanjay Dutt, Raveena Tandon",Prashanth Neel,1000000000,12500000000,KGF 2,Evening,Hot,Yes,49
Kolkata,"Minar Cinema, R.G.Kar Medical College",187.80483726826088,849,1,0,22.5973062,88.3718559,MediaAnt,5.6,"Action, Adventure, Fantasy",2022-09-09,Dharma Productions,"Ranbir Kapoor, Alia Bhatt, Amitabh Bachchan",Ayan Mukerji,4100000000,4300000000,Brahmastra,Evening,Cloudy,Yes,736
Mumbai,Sharada Cinema: Dadar (E),55.0,1104,1,0,19.01385,72.84666,"BookMyShow, MediaAnt",7.3,"Action, Thriller",2022-06-03,Raaj Kamal Films International,"Kamal Haasan, Vijay Sethupathi, Fahadh Faasil",Lokesh Kanagaraj,1500000000,4000000000,Vikram,Afternoon,Rainy,Yes,949
Bangalore,"Tulsi Chitra Mandira, Marathalli",183.50891304903843,800,1,0,12.956319,77.6981967,MediaAnt,7.1,"Drama, Romance",2019-06-21,Cine1 Studios,"Shahid Kapoor, Kiara Advani, Soham Majumdar",Sandeep Reddy Vanga,600000000,3800000000,Kabir Singh,Morning,Rainy,No,313
Hyderabad,Satyam Theatre: Ameerpet,60.0,1243,1,0,17.43715,78.44877,"BookMyShow, Internet Research",7.7,"Action, Adventure, Drama",2022-09-30,Hombale Films,"Rishab Shetty, Kishore Kumar G., Achyuth Kumar",Rishab Shetty,160000000,4000000000,Kantara,Evening,Rainy,No,807
Mumbai,"Imperial Cinema Pvt Ltd., Ambewadi",198.1442727463636,816,1,0,18.9585704,72.8174214,MediaAnt,7.7,"Action, Adventure, Drama",2022-09-30,Hombale Films,"Rishab Shetty, Kishore Kumar G., Achyuth Kumar",Rishab Shetty,160000000,4000000000,Kantara,Evening,Humid,Yes,568
Delhi,"Hans Cinema, G.T Karnal Road",301.8207102540476,900,1,0,28.7031355,77.1824101,MediaAnt,7.3,"Action, Crime, Drama",2022-04-14,Hombale Films,"Yash, Sanjay Dutt, Raveena Tandon",Prashanth Neel,1000000000,12500000000,KGF 2,Morning,Sunny,Yes,454
Bangalore,Gopalan Grand Mall: Old Madras Road,256.1111111,1030,4,1,12.99336,77.66397,"BookMyShow, MediaAnt",8.4,"Action, Biography, Drama",2021-08-12,Dharma Productions,"Sidharth Malhotra, Kiara Advani, Shiv Panditt",Vishnuvardhan,550000000,1360000000,Shershaah,Evening,Sunny,No,113
Bangalore,"Uma Theatre, Chamrajpet",183.50891304903843,984,1,0,12.9554065,77.567022,MediaAnt,6.5,"Action, Crime, Thriller",2021-11-05,Reliance Entertainment,"Akshay Kumar, Katrina Kaif, Ajay Devgn",Rohit Shetty,1650000000,2900000000,Sooryavanshi,Morning,Stormy,Yes,47
Mumbai,Roxy Cinema: Charni Road,175.3333333,343,1,0,18.95486,72.81667,BookMyShow,7.3,"Action, Crime, Drama",2022-04-14,Hombale Films,"Yash, Sanjay Dutt, Raveena Tandon",Prashanth Neel,1000000000,12500000000,KGF 2,Morning,Cloudy,No,334
Bangalore,"Anand Theatre, No-268",183.50891304903843,947,1,0,13.011335,77.609965,MediaAnt,6.3,"Action, Adventure, Thriller",2023-01-25,Yash Raj Films,"Shah Rukh Khan, Deepika Padukone, John Abraham",Siddharth Anand,2500000000,10500000000,Pathaan,Morning,Hot,Yes,425
Chennai,"PVR: Ampa, Chennai",82.7,1794,7,1,13.07359,80.22138,"BookMyShow, MediaAnt",7.7,"Action, Adventure, Drama",2022-09-30,Hombale Films,"Rishab Shetty, Kishore Kumar G., Achyuth Kumar",Rishab Shetty,160000000,4000000000,Kantara,Afternoon,Cloudy,Yes,72
Delhi,"PVR: Select City Walk (Gold), Delhi",943.75,40,1,0,28.52857,77.21973,BookMyShow,7.8,"Action, Drama",2022-03-25,DVV Entertainment,"N.T. Rama Rao Jr., Ram Charan, Alia Bhatt",S.S. Rajamouli,5500000000,12000000000,RRR,Morning,Humid,No,36
Ahmedabad,"Shital Cinema, Gomtipur",149.09491512148148,350,1,0,23.0217999,72.6105388,MediaAnt,7.8,"Action, Drama",2022-03-25,DVV Entertainment,"N.T. Rama Rao Jr., Ram Charan, Alia Bhatt",S.S. Rajamouli,5500000000,12000000000,RRR,Night,Rainy,Yes,262
Bangalore,"7D Voyage: Central Mall, Bellandur",180.0,8,1,0,12.9264,77.67533,BookMyShow,7.7,"Action, Adventure, Drama",2022-09-30,Hombale Films,"Rishab Shetty, Kishore Kumar G., Achyuth Kumar",Rishab Shetty,160000000,4000000000,Kantara,Afternoon,Sunny,Yes,5
Mumbai,"Carnival: Sangam, Andheri",230.712963,1274,4,1,19.11239,72.86467,BookMyShow,7.3,"Action, Thriller",2022-06-03,Raaj Kamal Films International,"Kamal Haasan, Vijay Sethupathi, Fahadh Faasil",Lokesh Kanagaraj,1500000000,4000000000,Vikram,Night,Humid,No,55
Delhi,INOX Eros One: Jangpura Extn,465.4166667,317,1,0,28.58122,77.24199,BookMyShow,8.4,"Comedy, Drama",2009-12-25,Vinod Chopra Films,"Aamir Khan, R. Madhavan, Sharman Joshi",Rajkumar Hirani,35000000,470000000,3 Idiots,Morning,Rainy,Yes,99
Hyderabad,Vishnu Cinemas A/C DTS: Vanasthalipuram,85.0,935,1,0,17.33902,78.56577,"BookMyShow, MediaAnt",7.8,"Action, Drama",2022-03-25,DVV Entertainment,"N.T. Rama Rao Jr., Ram Charan, Alia Bhatt",S.S. Rajamouli,5500000000,12000000000,RRR,Afternoon,Sunny,No,282
Ahmedabad,Miraj City Pulse: Ahmedabad,158.7590909,936,4,1,23.01467,72.5964,BookMyShow,8.2,"Crime, Drama, Thriller",2022-11-18,Panorama Studios,"Ajay Devgn, Shriya Saran, Tabu",Abhishek Pathak,50000000,340000000,Drishyam 2,Afternoon,Humid,No,218
Chennai,"The Forum Vijaya Mall, Vadapalani",97.97240740555556,3010,9,1,13.0497383,80.2095368,MediaAnt,7.3,"Action, Thriller",2022-06-03,Raaj Kamal Films International,"Kamal Haasan, Vijay Sethupathi, Fahadh Faasil",Lokesh Kanagaraj,1500000000,4000000000,Vikram,Night,Rainy,Yes,1510
Delhi,"PVR: Select City Walk (Gold), Delhi",943.75,40,1,0,28.52857,77.21973,BookMyShow,6.5,"Action, Crime, Thriller",2021-11-05,Reliance Entertainment,"Akshay Kumar, Katrina Kaif, Ajay Devgn",Rohit Shetty,1650000000,2900000000,Sooryavanshi,Evening,Cloudy,No,3
Mumbai,"Carnival: Sangam, Andheri",230.712963,1274,4,1,19.11239,72.86467,BookMyShow,7.0,"Action, Thriller",2023-06-02,Red Chillies Entertainment,"Shah Rukh Khan, Nayanthara, Vijay Sethupathi",Atlee Kumar,2200000000,8000000000,Jawan,Afternoon,Rainy,Yes,785
Hyderabad,Santosh Cinemas: Abids,90.0,812,1,0,17.39103,78.47569,"BookMyShow, Internet Research",8.3,"Biography, Drama, Sport",2016-12-23,Walt Disney Pictures India,"Aamir Khan, Sakshi Tanwar, Fatima Sana Shaikh",Nitesh Tiwari,70000000,2100000000,Dangal,Night,Humid,No,634
Ahmedabad,"Time Cinema: CG Road, Ahmedabad",176.4583333,372,4,1,23.02435,72.55651,BookMyShow,8.4,"Action, Biography, Drama",2021-08-12,Dharma Productions,"Sidharth Malhotra, Kiara Advani, Shiv Panditt",Vishnuvardhan,550000000,1360000000,Shershaah,Night,Hot,Yes,287
Bangalore,"7D Mastiii: Forum Value Mall, Whitefield",150.0,16,1,0,12.95972,77.74778,BookMyShow,6.5,"Action, Crime, Thriller",2021-11-05,Reliance Entertainment,"Akshay Kumar, Katrina Kaif, Ajay Devgn",Rohit Shetty,1650000000,2900000000,Sooryavanshi,Afternoon,Rainy,Yes,3
Ahmedabad,"PVR: Acropolis, Ahmedabad",232.1338384,1343,6,1,23.04884,72.51621,BookMyShow,7.3,"Action, Thriller",2022-06-03,Raaj Kamal Films International,"Kamal Haasan, Vijay Sethupathi, Fahadh Faasil",Lokesh Kanagaraj,1500000000,4000000000,Vikram,Evening,Humid,No,200
Mumbai,"Cinepolis: Magnet Mall, Bhandup (W)",210.2347222,956,6,1,19.14114,72.93097,"BookMyShow, MediaAnt",7.0,"Action, Thriller",2023-06-02,Red Chillies Entertainment,"Shah Rukh Khan, Nayanthara, Vijay Sethupathi",Atlee Kumar,2200000000,8000000000,Jawan,Night,Rainy,Yes,523
Hyderabad,Select Talkies: Bolaram,60.0,566,1,0,17.51147,78.51067,"BookMyShow, MediaAnt",8.4,"Action, Biography, Drama",2021-08-12,Dharma Productions,"Sidharth Malhotra, Kiara Advani, Shiv Panditt",Vishnuvardhan,550000000,1360000000,Shershaah,Morning,Humid,Yes,57
Mumbai,PVR: Sion,172.8125,730,3,1,19.04175,72.86422,"BookMyShow, MediaAnt",6.5,"Action, Crime, Thriller",2021-11-05,Reliance Entertainment,"Akshay Kumar, Katrina Kaif, Ajay Devgn",Rohit Shetty,1650000000,2900000000,Sooryavanshi,Morning,Hot,Yes,470
Hyderabad,Alankar (Pratap Theatre): Langer House,100.0,774,1,0,17.37651,78.4196,"BookMyShow, Internet Research",7.0,"Action, Thriller",2023-06-02,Red Chillies Entertainment,"Shah Rukh Khan, Nayanthara, Vijay Sethupathi",Atlee Kumar,2200000000,8000000000,Jawan,Evening,Humid,Yes,173
Mumbai,Gold Cinema: Santacruz (W),205.3333333,420,1,0,19.08958,72.83912,BookMyShow,8.2,"Crime, Drama, Thriller",2022-11-18,Panorama Studios,"Ajay Devgn, Shriya Saran, Tabu",Abhishek Pathak,50000000,340000000,Drishyam 2,Evening,Humid,No,161
Mumbai,"PVR: Oberoi Mall, Goregaon (E)",264.9142857,1782,6,1,19.17399,72.86125,"BookMyShow, MediaAnt",6.5,"Action, Crime, Thriller",2021-11-05,Reliance Entertainment,"Akshay Kumar, Katrina Kaif, Ajay Devgn",Rohit Shetty,1650000000,2900000000,Sooryavanshi,Afternoon,Cloudy,No,1279
Chennai,Kasi4K Dolby Atmos,97.97240740555556,733,1,0,13.0294637,80.2084348,Internet Research,6.3,"Action, Adventure, Thriller",2023-01-25,Yash Raj Films,"Shah Rukh Khan, Deepika Padukone, John Abraham",Siddharth Anand,2500000000,10500000000,Pathaan,Night,Hot,Yes,661
Bangalore,Akash Cinemas (Rajeshwari Theatre): Laggere,125.0,780,1,0,13.01481,77.51611,"BookMyShow, MediaAnt",6.5,"Action, Crime, Thriller",2021-11-05,Reliance Entertainment,"Akshay Kumar, Katrina Kaif, Ajay Devgn",Rohit Shetty,1650000000,2900000000,Sooryavanshi,Evening,Cloudy,Yes,292
Chennai,Ega Cinema,97.97240740555556,1168,2,1,13.0778725,80.2404635,Internet Research,7.0,"Action, Thriller",2023-06-02,Red Chillies Entertainment,"Shah Rukh Khan, Nayanthara, Vijay Sethupathi",Atlee Kumar,2200000000,8000000000,Jawan,Morning,Stormy,No,477
Bangalore,"7D Voyage: Central Mall, Bellandur",180.0,8,1,0,12.9264,77.67533,BookMyShow,7.8,"Action, Drama",2022-03-25,DVV Entertainment,"N.T. Rama Rao Jr., Ram Charan, Alia Bhatt",S.S. Rajamouli,5500000000,12000000000,RRR,Afternoon,Sunny,Yes,4
Hyderabad,Glory Cinema: Mallepally,95.06145388259615,486,1,0,17.39404,78.45831,BookMyShow,7.4,"Action, Crime, Drama",2021-12-17,Mythri Movie Makers,"Allu Arjun, Fahadh Faasil, Rashmika Mandanna",Sukumar,2500000000,3650000000,Pushpa,Morning,Hot,Yes,130
Bangalore,"Uma Theatre, Chamrajpet",183.50891304903843,984,1,0,12.9554065,77.567022,MediaAnt,7.7,"Action, Adventure, Drama",2022-09-30,Hombale Films,"Rishab Shetty, Kishore Kumar G., Achyuth Kumar",Rishab Shetty,160000000,4000000000,Kantara,Morning,Hot,Yes,956
Bangalore,Veeresh Cinemas Screen 1: Magadi Rd,80.0,178,1,0,12.97707,77.54595,BookMyShow,8.3,"Biography, Drama, Sport",2016-12-23,Walt Disney Pictures India,"Aamir Khan, Sakshi Tanwar, Fatima Sana Shaikh",Nitesh Tiwari,70000000,2100000000,Dangal,Night,Humid,Yes,129
Hyderabad,Viswanath 70MM Theater: Kukatpally,80.0,1204,1,0,17.49677,78.39703,"BookMyShow, MediaAnt",7.7,"Action, Adventure, Drama",2022-09-30,Hombale Films,"Rishab Shetty, Kishore Kumar G., Achyuth Kumar",Rishab Shetty,160000000,4000000000,Kantara,Night,Cloudy,Yes,30
Bangalore,"Venkateshwara Cinemas: Gollarahatti,Magadi Rd",90.0,300,1,0,12.98848,77.47392,BookMyShow,7.3,"Action, Thriller",2022-06-03,Raaj Kamal Films International,"Kamal Haasan, Vijay Sethupathi, Fahadh Faasil",Lokesh Kanagaraj,1500000000,4000000000,Vikram,Evening,Rainy,No,12
Mumbai,"Nishat Talkies, Falkland Road",198.1442727463636,691,1,0,18.9620811,72.8237374,MediaAnt,7.3,"Action, Thriller",2022-06-03,Raaj Kamal Films International,"Kamal Haasan, Vijay Sethupathi, Fahadh Faasil",Lokesh Kanagaraj,1500000000,4000000000,Vikram,Night,Hot,No,592
Bangalore,"Gopalan Cinemas: Arcade Mall, Mysore Road",250.3846154,1019,3,1,12.93531,77.51761,BookMyShow,8.0,"Action, Drama",2015-07-10,Arka Media Works,"Prabhas, Rana Daggubati, Anushka Shetty",S.S. Rajamouli,1800000000,6500000000,Baahubali,Evening,Stormy,Yes,266
Hyderabad,Sudarshan 35mm 4k & Dolby Atmos: RTC X Roads,118.0,1216,1,0,17.40646,78.49503,"BookMyShow, MediaAnt",7.0,"Action, Thriller",2023-06-02,Red Chillies Entertainment,"Shah Rukh Khan, Nayanthara, Vijay Sethupathi",Atlee Kumar,2200000000,8000000000,Jawan,Morning,Stormy,No,150
Chennai,"Baby Albert Theatre, Whannels Road",97.97240740555556,242,1,0,13.0761555,80.263841,MediaAnt,8.4,"Action, Biography, Drama",2021-08-12,Dharma Productions,"Sidharth Malhotra, Kiara Advani, Shiv Panditt",Vishnuvardhan,550000000,1360000000,Shershaah,Morning,Cloudy,No,238
Chennai,Jothi Theatre 4K A/c DTS: ST Thomas Mount,0.0,805,1,0,13.00611,80.20134,"BookMyShow, Internet Research",6.5,"Action, Crime, Thriller",2021-11-05,Reliance Entertainment,"Akshay Kumar, Katrina Kaif, Ajay Devgn",Rohit Shetty,1650000000,2900000000,Sooryavanshi,Night,Hot,No,570
Hyderabad,Raghavendra 35mm: Malkajgiri,70.0,580,1,0,17.4513,78.53616,"BookMyShow, MediaAnt",7.3,"Action, Crime, Drama",2022-04-14,Hombale Films,"Yash, Sanjay Dutt, Raveena Tandon",Prashanth Neel,1000000000,12500000000,KGF 2,Evening,Rainy,Yes,244
Chennai,Raj Theatre - A/C DTS: Chennai,175.0,950,1,0,13.0196,80.22324,BookMyShow,6.3,"Action, Adventure, Thriller",2023-01-25,Yash Raj Films,"Shah Rukh Khan, Deepika Padukone, John Abraham",Siddharth Anand,2500000000,10500000000,Pathaan,Morning,Stormy,Yes,712
Mumbai,Bharat Cineplex: Kurla (W),175.0,398,2,1,19.06685,72.87733,"BookMyShow, MediaAnt",8.2,"Crime, Drama, Thriller",2022-11-18,Panorama Studios,"Ajay Devgn, Shriya Saran, Tabu",Abhishek Pathak,50000000,340000000,Drishyam 2,Morning,Humid,Yes,383
Mumbai,"Carnival: Moviestar, Goregaon",123.8589744,1366,7,1,19.1513,72.84638,"BookMyShow, MediaAnt",6.3,"Action, Adventure, Thriller",2023-01-25,Yash Raj Films,"Shah Rukh Khan, Deepika Padukone, John Abraham",Siddharth Anand,2500000000,10500000000,Pathaan,Night,Humid,Yes,1343
Kolkata,Hind INOX: Kolkata,178.2,710,2,1,22.56492,88.3591,"BookMyShow, Internet Research",8.0,"Action, Drama",2015-07-10,Arka Media Works,"Prabhas, Rana Daggubati, Anushka Shetty",S.S. Rajamouli,1800000000,6500000000,Baahubali,Morning,Stormy,No,291
Bangalore,"The Cinema GT World: Magadi Rd, Bengaluru",195.8333333,1155,5,1,12.97345,77.55171,BookMyShow,8.4,"Comedy, Drama",2009-12-25,Vinod Chopra Films,"Aamir Khan, R. Madhavan, Sharman Joshi",Rajkumar Hirani,35000000,470000000,3 Idiots,Evening,Rainy,No,760
Mumbai,"Mukta A2 Cinemas: Topiwala, Goregaon",129.5462963,453,2,1,19.16381,72.84758,BookMyShow,7.1,"Drama, Romance",2019-06-21,Cine1 Studios,"Shahid Kapoor, Kiara Advani, Soham Majumdar",Sandeep Reddy Vanga,600000000,3800000000,Kabir Singh,Night,Sunny,No,436
Bangalore,Venkateshwara Digital 2K Cinema: Avalahalli Girina,100.0,363,1,0,12.94351,77.54797,BookMyShow,7.3,"Action, Crime, Drama",2022-04-14,Hombale Films,"Yash, Sanjay Dutt, Raveena Tandon",Prashanth Neel,1000000000,12500000000,KGF 2,Night,Sunny,Yes,349
Chennai,Casino Theatre: Chennai,59.0,83,1,0,13.06868,80.27017,BookMyShow,7.1,"Drama, Romance",2019-06-21,Cine1 Studios,"Shahid Kapoor, Kiara Advani, Soham Majumdar",Sandeep Reddy Vanga,600000000,3800000000,Kabir Singh,Night,Hot,No,74
Kolkata,INOX: Quest Mall,313.0919697,511,4,1,22.53914,88.36565,BookMyShow,8.4,"Comedy, Drama",2009-12-25,Vinod Chopra Films,"Aamir Khan, R. Madhavan, Sharman Joshi",Rajkumar Hirani,35000000,470000000,3 Idiots,Evening,Stormy,Yes,429
Mumbai,"PVR: Milap, Kandivali (W)",197.5,325,2,1,19.19617,72.84706,BookMyShow,7.3,"Action, Crime, Drama",2022-04-14,Hombale Films,"Yash, Sanjay Dutt, Raveena Tandon",Prashanth Neel,1000000000,12500000000,KGF 2,Night,Sunny,No,54
Bangalore,Radhakrishna Theatre: R.T. Nagar,125.0,921,1,0,13.01337,77.59387,BookMyShow,5.6,"Action, Adventure, Fantasy",2022-09-09,Dharma Productions,"Ranbir Kapoor, Alia Bhatt, Amitabh Bachchan",Ayan Mukerji,4100000000,4300000000,Brahmastra,Night,Humid,Yes,277
Mumbai,"Carnival: Annex Mall, Borivali",174.1092593,636,4,1,19.21546,72.86812,"BookMyShow, MediaAnt",7.3,"Action, Thriller",2022-06-03,Raaj Kamal Films International,"Kamal Haasan, Vijay Sethupathi, Fahadh Faasil",Lokesh Kanagaraj,1500000000,4000000000,Vikram,Afternoon,Humid,Yes,604
Hyderabad,Asian GPR Multiplex: Kukatpally,162.5,1143,3,1,17.49923,78.39067,BookMyShow,5.6,"Action, Adventure, Fantasy",2022-09-09,Dharma Productions,"Ranbir Kapoor, Alia Bhatt, Amitabh Bachchan",Ayan Mukerji,4100000000,4300000000,Brahmastra,Night,Rainy,No,1038
Bangalore,Galaxy Paradise Screen 1: Bommanahalli Hosur Rd,160.0,100,1,0,12.89108,77.62648,"BookMyShow, Internet Research",7.3,"Action, Thriller",2022-06-03,Raaj Kamal Films International,"Kamal Haasan, Vijay Sethupathi, Fahadh Faasil",Lokesh Kanagaraj,1500000000,4000000000,Vikram,Afternoon,Stormy,Yes,18
Hyderabad,"Pratap Theatre, Gandhi Bhawan",95.06145388259615,774,1,0,17.3882628,78.4707395,MediaAnt,7.8,"Action, Drama",2022-03-25,DVV Entertainment,"N.T. Rama Rao Jr., Ram Charan, Alia Bhatt",S.S. Rajamouli,5500000000,12000000000,RRR,Night,Cloudy,No,322
Chennai,Kasi4K Dolby Atmos,97.97240740555556,733,1,0,13.0294637,80.2084348,Internet Research,7.4,"Action, Crime, Drama",2021-12-17,Mythri Movie Makers,"Allu Arjun, Fahadh Faasil, Rashmika Mandanna",Sukumar,2500000000,3650000000,Pushpa,Morning,Humid,Yes,14
Hyderabad,SSV Cine Park: Patancheru,95.06145388259615,0,0,1,17.53196,78.27094,BookMyShow,8.0,"Action, Drama",2015-07-10,Arka Media Works,"Prabhas, Rana Daggubati, Anushka Shetty",S.S. Rajamouli,1800000000,6500000000,Baahubali,Evening,Humid,Yes,0
Hyderabad,"Suresh, Sitaphalmandi",95.06145388259615,956,1,0,17.4269211,78.5161231,MediaAnt,7.1,"Drama, Romance",2019-06-21,Cine1 Studios,"Shahid Kapoor, Kiara Advani, Soham Majumdar",Sandeep Reddy Vanga,600000000,3800000000,Kabir Singh,Evening,Humid,No,883
Chennai,Kumaran Theatre QUBE A/C DTS: Madipakkam,0.0,1008,1,0,12.97191,80.19214,"BookMyShow, Internet Research",7.1,"Drama, Romance",2019-06-21,Cine1 Studios,"Shahid Kapoor, Kiara Advani, Soham Majumdar",Sandeep Reddy Vanga,600000000,3800000000,Kabir Singh,Morning,Rainy,No,879
Mumbai,Super Cinema: Grant Road,198.1442727463636,822,1,0,18.962068,72.821162,Internet Research,7.7,"Action, Adventure, Drama",2022-09-30,Hombale Films,"Rishab Shetty, Kishore Kumar G., Achyuth Kumar",Rishab Shetty,160000000,4000000000,Kantara,Evening,Hot,No,308
Kolkata,Asoka Cinema: Behala,98.16666667,867,1,0,22.49382,88.31637,"BookMyShow, MediaAnt",7.7,"Action, Adventure, Drama",2022-09-30,Hombale Films,"Rishab Shetty, Kishore Kumar G., Achyuth Kumar",Rishab Shetty,160000000,4000000000,Kantara,Afternoon,Cloudy,No,592
Hyderabad,Ramakrishna 70MM - Indra Cinemas: Abids,87.5,724,1,0,17.38591,78.47678,BookMyShow,7.7,"Action, Adventure, Drama",2022-09-30,Hombale Films,"Rishab Shetty, Kishore Kumar G., Achyuth Kumar",Rishab Shetty,160000000,4000000000,Kantara,Morning,Sunny,Yes,506
Bangalore,Veeresh Cinemas Screen 2: Magadi Rd,100.0,214,1,0,12.97707,77.54595,BookMyShow,7.7,"Action, Adventure, Drama",2022-09-30,Hombale Films,"Rishab Shetty, Kishore Kumar G., Achyuth Kumar",Rishab Shetty,160000000,4000000000,Kantara,Afternoon,Sunny,No,154
Chennai,"SK-Marlen Cinemas 2K, Guindy: Alandur",150.0,229,1,0,13.00176,80.20358,"BookMyShow, Internet Research",5.6,"Action, Adventure, Fantasy",2022-09-09,Dharma Productions,"Ranbir Kapoor, Alia Bhatt, Amitabh Bachchan",Ayan Mukerji,4100000000,4300000000,Brahmastra,Morning,Cloudy,Yes,17
Delhi,G3S Cinema: Rohini,228.5714286,809,3,1,28.73469,77.11376,BookMyShow,5.6,"Action, Adventure, Fantasy",2022-09-09,Dharma Productions,"Ranbir Kapoor, Alia Bhatt, Amitabh Bachchan",Ayan Mukerji,4100000000,4300000000,Brahmastra,Afternoon,Rainy,Yes,751
Bangalore,Sandhya Digital 4K Projection Dolby Atmos: Madiwal,125.0,720,1,0,12.92101,77.61794,"BookMyShow, MediaAnt",7.1,"Drama, Romance",2019-06-21,Cine1 Studios,"Shahid Kapoor, Kiara Advani, Soham Majumdar",Sandeep Reddy Vanga,600000000,3800000000,Kabir Singh,Night,Hot,No,504
Delhi,Delite Cinema: Asaf Ali Road,93.75,110,2,1,28.64122,77.23587,BookMyShow,8.4,"Comedy, Drama",2009-12-25,Vinod Chopra Films,"Aamir Khan, R. Madhavan, Sharman Joshi",Rajkumar Hirani,35000000,470000000,3 Idiots,Afternoon,Rainy,Yes,36
Mumbai,"PVR: Sona Shopping Centre, Kandivali (W)",125.4166667,287,1,0,19.20243,72.8511,BookMyShow,6.5,"Action, Crime, Thriller",2021-11-05,Reliance Entertainment,"Akshay Kumar, Katrina Kaif, Ajay Devgn",Rohit Shetty,1650000000,2900000000,Sooryavanshi,Morning,Cloudy,No,102
Bangalore,Vainidhi Digital 2K Cinemas (Chandan): Singapura,110.0,725,1,0,13.07427,77.5405,"BookMyShow, MediaAnt",6.5,"Action, Crime, Thriller",2021-11-05,Reliance Entertainment,"Akshay Kumar, Katrina Kaif, Ajay Devgn",Rohit Shetty,1650000000,2900000000,Sooryavanshi,Morning,Rainy,No,74
Kolkata,Indira Cinema: Kolkata,80.0,733,1,0,22.52712,88.34657,"BookMyShow, Internet Research",7.7,"Action, Adventure, Drama",2022-09-30,Hombale Films,"Rishab Shetty, Kishore Kumar G., Achyuth Kumar",Rishab Shetty,160000000,4000000000,Kantara,Night,Hot,No,176
Mumbai,"Kamran Theatre, Kurla North",198.1442727463636,432,1,0,19.077327,72.8788352,MediaAnt,7.3,"Action, Crime, Drama",2022-04-14,Hombale Films,"Yash, Sanjay Dutt, Raveena Tandon",Prashanth Neel,1000000000,12500000000,KGF 2,Afternoon,Cloudy,Yes,31
Bangalore,Sapna Theatre: Gandhi Nagar,95.0,345,1,0,12.9743,77.57619,"BookMyShow, MediaAnt",7.1,"Drama, Romance",2019-06-21,Cine1 Studios,"Shahid Kapoor, Kiara Advani, Soham Majumdar",Sandeep Reddy Vanga,600000000,3800000000,Kabir Singh,Evening,Hot,Yes,216
Bangalore,HMT Digital 4K Cinema: Jalahalli,150.0,874,1,0,13.0495,77.5439,BookMyShow,8.2,"Crime, Drama, Thriller",2022-11-18,Panorama Studios,"Ajay Devgn, Shriya Saran, Tabu",Abhishek Pathak,50000000,340000000,Drishyam 2,Morning,Stormy,No,520
Mumbai,"Alankar Cinema, Ambewadi",198.1442727463636,942,1,0,18.9579554,72.8254315,MediaAnt,5.6,"Action, Adventure, Fantasy",2022-09-09,Dharma Productions,"Ranbir Kapoor, Alia Bhatt, Amitabh Bachchan",Ayan Mukerji,4100000000,4300000000,Brahmastra,Night,Sunny,No,659
Bangalore,"PVR: MSR Elements Mall, Bengaluru",288.0883838,1383,7,1,13.04516,77.62658,"BookMyShow, MediaAnt",7.0,"Action, Thriller",2023-06-02,Red Chillies Entertainment,"Shah Rukh Khan, Nayanthara, Vijay Sethupathi",Atlee Kumar,2200000000,8000000000,Jawan,Afternoon,Cloudy,No,414
Bangalore,Radhakrishna Theatre: R.T. Nagar,125.0,921,1,0,13.01337,77.59387,BookMyShow,7.7,"Action, Adventure, Drama",2022-09-30,Hombale Films,"Rishab Shetty, Kishore Kumar G., Achyuth Kumar",Rishab Shetty,160000000,4000000000,Kantara,Evening,Stormy,No,565
Hyderabad,Shiva Parvathi Cinema: Kukatpally,100.0,1116,1,0,17.4966,78.39707,"BookMyShow, MediaAnt",6.5,"Action, Crime, Thriller",2021-11-05,Reliance Entertainment,"Akshay Kumar, Katrina Kaif, Ajay Devgn",Rohit Shetty,1650000000,2900000000,Sooryavanshi,Night,Sunny,Yes,550
Bangalore,Aruna Theatre: Srirampuram,109.0,936,1,0,12.98679,77.56722,"BookMyShow, MediaAnt",6.3,"Action, Adventure, Thriller",2023-01-25,Yash Raj Films,"Shah Rukh Khan, Deepika Padukone, John Abraham",Siddharth Anand,2500000000,10500000000,Pathaan,Night,Stormy,No,287
Chennai,Rakki Cinemas - Ambattur,97.97240740555556,361,1,0,13.1227657,80.1476317,Internet Research,7.3,"Action, Crime, Drama",2022-04-14,Hombale Films,"Yash, Sanjay Dutt, Raveena Tandon",Prashanth Neel,1000000000,12500000000,KGF 2,Evening,Cloudy,No,293
Hyderabad,Mukta A2 Cinemas: Abids,90.0,637,1,0,17.38586,78.47723,BookMyShow,6.3,"Action, Adventure, Thriller",2023-01-25,Yash Raj Films,"Shah Rukh Khan, Deepika Padukone, John Abraham",Siddharth Anand,2500000000,10500000000,Pathaan,Night,Hot,No,500
Hyderabad,Indra: Karmanghat,80.0,112,1,0,17.34507,78.53179,BookMyShow,8.4,"Action, Biography, Drama",2021-08-12,Dharma Productions,"Sidharth Malhotra, Kiara Advani, Shiv Panditt",Vishnuvardhan,550000000,1360000000,Shershaah,Afternoon,Cloudy,No,53
Hyderabad,Tivoli Cinema: Extreme,118.0,912,1,0,17.44724,78.49246,"BookMyShow, MediaAnt",6.5,"Action, Crime, Thriller",2021-11-05,Reliance Entertainment,"Akshay Kumar, Katrina Kaif, Ajay Devgn",Rohit Shetty,1650000000,2900000000,Sooryavanshi,Morning,Hot,Yes,731
Delhi,"PVR: Naraina, Delhi",221.6666667,830,4,1,28.63308,77.13889,"BookMyShow, MediaAnt",7.7,"Action, Adventure, Drama",2022-09-30,Hombale Films,"Rishab Shetty, Kishore Kumar G., Achyuth Kumar",Rishab Shetty,160000000,4000000000,Kantara,Evening,Sunny,No,634
Mumbai,Regal Cinema: Colaba,166.0,1178,1,0,18.92472,72.83243,BookMyShow,8.4,"Comedy, Drama",2009-12-25,Vinod Chopra Films,"Aamir Khan, R. Madhavan, Sharman Joshi",Rajkumar Hirani,35000000,470000000,3 Idiots,Evening,Rainy,Yes,253
Bangalore,"Vinayaka Theatre, Chamrajpet",183.50891304903843,1004,1,0,12.9632205,77.5663841,MediaAnt,8.4,"Action, Biography, Drama",2021-08-12,Dharma Productions,"Sidharth Malhotra, Kiara Advani, Shiv Panditt",Vishnuvardhan,550000000,1360000000,Shershaah,Evening,Cloudy,No,125
Hyderabad,Sri Sai Ram Theatre: Malkajgiri,55.0,700,1,0,17.44632,78.5354,"BookMyShow, MediaAnt",7.7,"Action, Adventure, Drama",2022-09-30,Hombale Films,"Rishab Shetty, Kishore Kumar G., Achyuth Kumar",Rishab Shetty,160000000,4000000000,Kantara,Evening,Hot,Yes,110
Mumbai,"Carnival: IMAX, Wadala",196.5968254,1634,5,1,19.03122,72.881,"BookMyShow, MediaAnt",7.3,"Action, Thriller",2022-06-03,Raaj Kamal Films International,"Kamal Haasan, Vijay Sethupathi, Fahadh Faasil",Lokesh Kanagaraj,1500000000,4000000000,Vikram,Night,Hot,Yes,616
Hyderabad,Viswanath 70MM Theater: Kukatpally,80.0,1204,1,0,17.49677,78.39703,"BookMyShow, MediaAnt",7.3,"Action, Thriller",2022-06-03,Raaj Kamal Films International,"Kamal Haasan, Vijay Sethupathi, Fahadh Faasil",Lokesh Kanagaraj,1500000000,4000000000,Vikram,Afternoon,Hot,No,708
Hyderabad,"Brahmarambha 70 Mm, Hyder nagar",95.06145388259615,861,1,0,17.5000891,78.386969,MediaAnt,7.8,"Action, Drama",2022-03-25,DVV Entertainment,"N.T. Rama Rao Jr., Ram Charan, Alia Bhatt",S.S. Rajamouli,5500000000,12000000000,RRR,Night,Cloudy,Yes,635
Kolkata,INOX: Quest Mall,313.0919697,511,4,1,22.53914,88.36565,BookMyShow,7.1,"Drama, Romance",2019-06-21,Cine1 Studios,"Shahid Kapoor, Kiara Advani, Soham Majumdar",Sandeep Reddy Vanga,600000000,3800000000,Kabir Singh,Morning,Hot,Yes,56
Mumbai,Chitra Cinema: Dadar (E),128.3333333,635,1,0,19.01336,72.84388,"BookMyShow, mediaAnt",8.4,"Comedy, Drama",2009-12-25,Vinod Chopra Films,"Aamir Khan, R. Madhavan, Sharman Joshi",Rajkumar Hirani,35000000,470000000,3 Idiots,Evening,Sunny,Yes,613
Bangalore,Sri Srinivasa Theatre: Padmanabanagara,110.0,725,1,0,12.90898,77.55804,"BookMyShow, Internet Research",5.6,"Action, Adventure, Fantasy",2022-09-09,Dharma Productions,"Ranbir Kapoor, Alia Bhatt, Amitabh Bachchan",Ayan Mukerji,4100000000,4300000000,Brahmastra,Night,Humid,No,312
Kolkata,"Bhabani Cinema, Indrani Park",187.80483726826088,665,1,0,22.5055091,88.3451152,MediaAnt,7.0,"Action, Thriller",2023-06-02,Red Chillies Entertainment,"Shah Rukh Khan, Nayanthara, Vijay Sethupathi",Atlee Kumar,2200000000,8000000000,Jawan,Night,Cloudy,Yes,190
Hyderabad,Tivoli Cinema: Extreme,118.0,912,1,0,17.44724,78.49246,"BookMyShow, MediaAnt",7.7,"Action, Adventure, Drama",2022-09-30,Hombale Films,"Rishab Shetty, Kishore Kumar G., Achyuth Kumar",Rishab Shetty,160000000,4000000000,Kantara,Evening,Rainy,No,903
Hyderabad,Sree Rama Theatre: Bahadurpura,80.0,796,1,0,17.35449,78.4573,"BookMyShow, MediaAnt",7.1,"Drama, Romance",2019-06-21,Cine1 Studios,"Shahid Kapoor, Kiara Advani, Soham Majumdar",Sandeep Reddy Vanga,600000000,3800000000,Kabir Singh,Morning,Humid,Yes,58
Kolkata,"Chabighar, Parsibagan",187.80483726826088,646,1,0,22.5795878,88.3724625,MediaAnt,7.4,"Action, Crime, Drama",2021-12-17,Mythri Movie Makers,"Allu Arjun, Fahadh Faasil, Rashmika Mandanna",Sukumar,2500000000,3650000000,Pushpa,Evening,Rainy,Yes,328
Mumbai,"INOX: R-City, Ghatkopar",357.0008547,1220,9,1,19.09982,72.91545,BookMyShow,8.2,"Crime, Drama, Thriller",2022-11-18,Panorama Studios,"Ajay Devgn, Shriya Saran, Tabu",Abhishek Pathak,50000000,340000000,Drishyam 2,Night,Stormy,Yes,755
Mumbai,"Sheetal Cinema, Kurla North",198.1442727463636,993,1,0,19.0825802,72.8822279,MediaAnt,7.8,"Action, Drama",2022-03-25,DVV Entertainment,"N.T. Rama Rao Jr., Ram Charan, Alia Bhatt",S.S. Rajamouli,5500000000,12000000000,RRR,Afternoon,Humid,No,904
Bangalore,Vainidhi Digital 2K Cinemas (Chandan): Singapura,110.0,725,1,0,13.07427,77.5405,"BookMyShow, MediaAnt",7.8,"Action, Drama",2022-03-25,DVV Entertainment,"N.T. Rama Rao Jr., Ram Charan, Alia Bhatt",S.S. Rajamouli,5500000000,12000000000,RRR,Afternoon,Humid,No,364
Bangalore,"INOX: Forum Neighbourhood Mall, Whitefield",301.3636364,725,5,1,12.9595,77.74789,BookMyShow,8.2,"Crime, Drama, Thriller",2022-11-18,Panorama Studios,"Ajay Devgn, Shriya Saran, Tabu",Abhishek Pathak,50000000,340000000,Drishyam 2,Afternoon,Humid,Yes,430
Bangalore,"Sri Maruthi Theatre, Rajagopal Nagar",183.50891304903843,1119,1,0,13.0122659,77.5098421,MediaAnt,8.0,"Action, Drama",2015-07-10,Arka Media Works,"Prabhas, Rana Daggubati, Anushka Shetty",S.S. Rajamouli,1800000000,6500000000,Baahubali,Evening,Rainy,No,883
Mumbai,"Carnival: Moviestar, Goregaon",123.8589744,1366,7,1,19.1513,72.84638,"BookMyShow, MediaAnt",7.7,"Action, Adventure, Drama",2022-09-30,Hombale Films,"Rishab Shetty, Kishore Kumar G., Achyuth Kumar",Rishab Shetty,160000000,4000000000,Kantara,Night,Humid,Yes,1009
Kochi,"Evm Cinema Studio, KSRTC Road",119.55509767142858,1220,4,1,9.9468236,76.2556623,MediaAnt,8.4,"Action, Biography, Drama",2021-08-12,Dharma Productions,"Sidharth Malhotra, Kiara Advani, Shiv Panditt",Vishnuvardhan,550000000,1360000000,Shershaah,Afternoon,Sunny,No,396
Delhi,"PVR: Select City Walk (Gold), Delhi",943.75,40,1,0,28.52857,77.21973,BookMyShow,8.4,"Action, Biography, Drama",2021-08-12,Dharma Productions,"Sidharth Malhotra, Kiara Advani, Shiv Panditt",Vishnuvardhan,550000000,1360000000,Shershaah,Evening,Cloudy,Yes,8
Bangalore,Sangeet Theatre: Shivaji Nagar,115.0,860,1,0,12.98161,77.60294,"BookMyShow, MediaAnt",8.4,"Comedy, Drama",2009-12-25,Vinod Chopra Films,"Aamir Khan, R. Madhavan, Sharman Joshi",Rajkumar Hirani,35000000,470000000,3 Idiots,Evening,Stormy,No,760
Hyderabad,"PVR: Panjagutta, Hyderabad",150.0,1322,5,1,17.42675,78.45295,BookMyShow,8.2,"Crime, Drama, Thriller",2022-11-18,Panorama Studios,"Ajay Devgn, Shriya Saran, Tabu",Abhishek Pathak,50000000,340000000,Drishyam 2,Night,Sunny,Yes,13
Hyderabad,Srinivasa Talkies: Uppal,60.0,809,1,0,17.40106,78.56853,"BookMyShow, MediaAnt",8.4,"Comedy, Drama",2009-12-25,Vinod Chopra Films,"Aamir Khan, R. Madhavan, Sharman Joshi",Rajkumar Hirani,35000000,470000000,3 Idiots,Night,Hot,Yes,49
Kochi,Padma Cinema Screen 1: Ernakulam,105.0,324,1,0,9.981755,76.2826,BookMyShow,7.1,"Drama, Romance",2019-06-21,Cine1 Studios,"Shahid Kapoor, Kiara Advani, Soham Majumdar",Sandeep Reddy Vanga,600000000,3800000000,Kabir Singh,Evening,Rainy,Yes,68
Delhi,Gagan Cinema: Delhi,62.5,982,1,0,28.69635,77.31493,"BookMyShow, MediaAnt",7.8,"Action, Drama",2022-03-25,DVV Entertainment,"N.T. Rama Rao Jr., Ram Charan, Alia Bhatt",S.S. Rajamouli,5500000000,12000000000,RRR,Morning,Hot,No,24
Delhi,"PVR: Sangam, Delhi",312.2321429,392,2,1,28.57239,77.1735,BookMyShow,7.4,"Action, Crime, Drama",2021-12-17,Mythri Movie Makers,"Allu Arjun, Fahadh Faasil, Rashmika Mandanna",Sukumar,2500000000,3650000000,Pushpa,Morning,Hot,Yes,100
Chennai,AVM Rajeswari A/C dts,97.97240740555556,603,1,0,13.0475424,80.2046086,Internet Research,7.1,"Drama, Romance",2019-06-21,Cine1 Studios,"Shahid Kapoor, Kiara Advani, Soham Majumdar",Sandeep Reddy Vanga,600000000,3800000000,Kabir Singh,Morning,Stormy,No,191
Hyderabad,Konark: Dilsukhnagar,80.0,1026,1,0,17.3686,78.51865,"BookMyShow, MediaAnt",7.3,"Action, Thriller",2022-06-03,Raaj Kamal Films International,"Kamal Haasan, Vijay Sethupathi, Fahadh Faasil",Lokesh Kanagaraj,1500000000,4000000000,Vikram,Afternoon,Hot,No,167
Bangalore,"Padma Theatre, Amruthahalli",183.50891304903843,600,1,0,13.0687241,77.6026388,MediaAnt,6.3,"Action, Adventure, Thriller",2023-01-25,Yash Raj Films,"Shah Rukh Khan, Deepika Padukone, John Abraham",Siddharth Anand,2500000000,10500000000,Pathaan,Night,Hot,Yes,41
Mumbai,Miraj Anupam Cinemas: Goregaon (E),146.1666667,490,2,1,19.16545,72.85126,BookMyShow,7.7,"Action, Adventure, Drama",2022-09-30,Hombale Films,"Rishab Shetty, Kishore Kumar G., Achyuth Kumar",Rishab Shetty,160000000,4000000000,Kantara,Evening,Sunny,Yes,213
Delhi,"PVR: Plaza-CP, Delhi",366.6666667,300,1,0,28.63515,77.21966,BookMyShow,7.4,"Action, Crime, Drama",2021-12-17,Mythri Movie Makers,"Allu Arjun, Fahadh Faasil, Rashmika Mandanna",Sukumar,2500000000,3650000000,Pushpa,Morning,Rainy,Yes,163
Bangalore,Srinivasa Digital 4K Cinema: S.G. Palya,132.5,800,1,0,12.93188,77.60772,"BookMyShow, MediaAnt",7.0,"Action, Thriller",2023-06-02,Red Chillies Entertainment,"Shah Rukh Khan, Nayanthara, Vijay Sethupathi",Atlee Kumar,2200000000,8000000000,Jawan,Afternoon,Cloudy,No,233
Hyderabad,Nagendra: Karmanghat,80.0,711,1,0,17.34507,78.53179,"BookMyShow, MediaAnt",7.1,"Drama, Romance",2019-06-21,Cine1 Studios,"Shahid Kapoor, Kiara Advani, Soham Majumdar",Sandeep Reddy Vanga,600000000,3800000000,Kabir Singh,Evening,Sunny,No,617
Mumbai,"PVR: Growel, Kandivali (E)",228.452381,482,4,1,19.20261,72.86005,BookMyShow,8.4,"Comedy, Drama",2009-12-25,Vinod Chopra Films,"Aamir Khan, R. Madhavan, Sharman Joshi",Rajkumar Hirani,35000000,470000000,3 Idiots,Morning,Cloudy,No,335
Mumbai,"Mayur Cinema, Subhash Lane",198.1442727463636,645,1,0,19.2020115,72.8450572,MediaAnt,8.4,"Action, Biography, Drama",2021-08-12,Dharma Productions,"Sidharth Malhotra, Kiara Advani, Shiv Panditt",Vishnuvardhan,550000000,1360000000,Shershaah,Afternoon,Sunny,No,26
Bangalore,"7D Mastiii: Forum Value Mall, Whitefield",150.0,16,1,0,12.95972,77.74778,BookMyShow,7.7,"Action, Adventure, Drama",2022-09-30,Hombale Films,"Rishab Shetty, Kishore Kumar G., Achyuth Kumar",Rishab Shetty,160000000,4000000000,Kantara,Morning,Hot,Yes,5
Mumbai,"Fun Cinemas: K Star Mall, Chembur",149.7530864,1253,5,1,19.05235,72.90172,"BookMyShow, MediaAnt",7.1,"Drama, Romance",2019-06-21,Cine1 Studios,"Shahid Kapoor, Kiara Advani, Soham Majumdar",Sandeep Reddy Vanga,600000000,3800000000,Kabir Singh,Afternoon,Rainy,No,492
Mumbai,"PVR: Market City, Kurla (Premiere)",243.723545,910,5,1,19.08571,72.88842,BookMyShow,7.7,"Action, Adventure, Drama",2022-09-30,Hombale Films,"Rishab Shetty, Kishore Kumar G., Achyuth Kumar",Rishab Shetty,160000000,4000000000,Kantara,Morning,Cloudy,No,581
Bangalore,Galaxy Paradise Screen 1: Bommanahalli Hosur Rd,160.0,100,1,0,12.89108,77.62648,"BookMyShow, Internet Research",7.3,"Action, Crime, Drama",2022-04-14,Hombale Films,"Yash, Sanjay Dutt, Raveena Tandon",Prashanth Neel,1000000000,12500000000,KGF 2,Evening,Sunny,Yes,61
Mumbai,Movietime: Malad,161.4444444,403,3,1,19.18909,72.83519,BookMyShow,7.3,"Action, Thriller",2022-06-03,Raaj Kamal Films International,"Kamal Haasan, Vijay Sethupathi, Fahadh Faasil",Lokesh Kanagaraj,1500000000,4000000000,Vikram,Afternoon,Sunny,No,115
Mumbai,"INOX: R-City, Ghatkopar",357.0008547,1220,9,1,19.09982,72.91545,BookMyShow,7.8,"Action, Drama",2022-03-25,DVV Entertainment,"N.T. Rama Rao Jr., Ram Charan, Alia Bhatt",S.S. Rajamouli,5500000000,12000000000,RRR,Afternoon,Rainy,No,757
Bangalore,"INOX: Garuda Mall, Magrath Road",337.1212121,1103,5,1,12.97009,77.60943,"BookMyShow, MediaAnt",5.6,"Action, Adventure, Fantasy",2022-09-09,Dharma Productions,"Ranbir Kapoor, Alia Bhatt, Amitabh Bachchan",Ayan Mukerji,4100000000,4300000000,Brahmastra,Night,Sunny,No,380
Bangalore,Carnival: Rockline Mall,179.4444444,1011,4,1,13.04075,77.51825,"BookMyShow, MediaAnt",7.1,"Drama, Romance",2019-06-21,Cine1 Studios,"Shahid Kapoor, Kiara Advani, Soham Majumdar",Sandeep Reddy Vanga,600000000,3800000000,Kabir Singh,Afternoon,Sunny,No,707
Ahmedabad,City Gold Satellite: Ahmedabad,156.1458333,371,4,1,23.01568,72.52992,BookMyShow,8.2,"Crime, Drama, Thriller",2022-11-18,Panorama Studios,"Ajay Devgn, Shriya Saran, Tabu",Abhishek Pathak,50000000,340000000,Drishyam 2,Afternoon,Sunny,No,152
Delhi,Satyam Nehru Place-NCR,301.8207102540476,994,4,1,28.550044,77.251155,Internet Research,7.1,"Drama, Romance",2019-06-21,Cine1 Studios,"Shahid Kapoor, Kiara Advani, Soham Majumdar",Sandeep Reddy Vanga,600000000,3800000000,Kabir Singh,Afternoon,Rainy,Yes,799
Hyderabad,"Miraj Cinemas: Shalini Shivani, Hyderabad",158.8541667,1286,4,1,17.36764,78.5362,BookMyShow,7.3,"Action, Thriller",2022-06-03,Raaj Kamal Films International,"Kamal Haasan, Vijay Sethupathi, Fahadh Faasil",Lokesh Kanagaraj,1500000000,4000000000,Vikram,Evening,Rainy,Yes,544
Bangalore,Murali Gokula Digital 4K Cinema: Mathikere,118.0,900,1,0,13.03842,77.5526,"BookMyShow, MediaAnt",8.0,"Action, Drama",2015-07-10,Arka Media Works,"Prabhas, Rana Daggubati, Anushka Shetty",S.S. Rajamouli,1800000000,6500000000,Baahubali,Morning,Humid,No,86
Ahmedabad,Devi Multiplex: Naroda,94.77777778,804,3,1,23.07253,72.64998,"BookMyShow, MediaAnt",8.4,"Comedy, Drama",2009-12-25,Vinod Chopra Films,"Aamir Khan, R. Madhavan, Sharman Joshi",Rajkumar Hirani,35000000,470000000,3 Idiots,Evening,Humid,Yes,7
Hyderabad,SVR's Siva Sakthi Theatre: Kapra,70.0,313,1,0,17.47652,78.56276,"BookMyShow, Internet Research",8.3,"Biography, Drama, Sport",2016-12-23,Walt Disney Pictures India,"Aamir Khan, Sakshi Tanwar, Fatima Sana Shaikh",Nitesh Tiwari,70000000,2100000000,Dangal,Evening,Rainy,Yes,45
Bangalore,Akash Cinemas (Rajeshwari Theatre): Laggere,125.0,780,1,0,13.01481,77.51611,"BookMyShow, MediaAnt",8.2,"Crime, Drama, Thriller",2022-11-18,Panorama Studios,"Ajay Devgn, Shriya Saran, Tabu",Abhishek Pathak,50000000,340000000,Drishyam 2,Morning,Humid,Yes,744
Mumbai,Maratha Mandir: Mumbai Central,60.0,1107,1,0,18.97133,72.82214,BookMyShow,8.4,"Comedy, Drama",2009-12-25,Vinod Chopra Films,"Aamir Khan, R. Madhavan, Sharman Joshi",Rajkumar Hirani,35000000,470000000,3 Idiots,Afternoon,Rainy,Yes,69
Chennai,INOX National: Arcot Road,153.6,1182,5,1,13.04689,80.19036,BookMyShow,7.3,"Action, Thriller",2022-06-03,Raaj Kamal Films International,"Kamal Haasan, Vijay Sethupathi, Fahadh Faasil",Lokesh Kanagaraj,1500000000,4000000000,Vikram,Evening,Humid,No,240
Chennai,Luxe Cinemas: Chennai,153.6,1844,9,1,12.99154,80.21681,BookMyShow,8.4,"Comedy, Drama",2009-12-25,Vinod Chopra Films,"Aamir Khan, R. Madhavan, Sharman Joshi",Rajkumar Hirani,35000000,470000000,3 Idiots,Morning,Sunny,No,609
Chennai,Devi Karumari A/C,97.97240740555556,850,1,0,13.0499059,80.1934024,Internet Research,7.3,"Action, Thriller",2022-06-03,Raaj Kamal Films International,"Kamal Haasan, Vijay Sethupathi, Fahadh Faasil",Lokesh Kanagaraj,1500000000,4000000000,Vikram,Evening,Rainy,No,617
Mumbai,"INOX: Nakshatra Mall, Dadar (W)",167.3333333,272,1,0,19.0199,72.84133,BookMyShow,6.5,"Action, Crime, Thriller",2021-11-05,Reliance Entertainment,"Akshay Kumar, Katrina Kaif, Ajay Devgn",Rohit Shetty,1650000000,2900000000,Sooryavanshi,Evening,Rainy,No,209
Chennai,Woodlands Complex: Chennai,69.5,1713,2,1,13.05656,80.26497,"BookMyShow, MediaAnt",7.7,"Action, Adventure, Drama",2022-09-30,Hombale Films,"Rishab Shetty, Kishore Kumar G., Achyuth Kumar",Rishab Shetty,160000000,4000000000,Kantara,Night,Cloudy,Yes,1284
Chennai,Abirami Cinemas: Chennai,113.5833333,1656,4,1,13.086,80.24809,BookMyShow,7.4,"Action, Crime, Drama",2021-12-17,Mythri Movie Makers,"Allu Arjun, Fahadh Faasil, Rashmika Mandanna",Sukumar,2500000000,3650000000,Pushpa,Afternoon,Sunny,Yes,19
Bangalore,Sri Lakshmi Theatre: Ramamurthy Nagar,100.0,618,1,0,13.0103,77.67387,"BookMyShow, MediaAnt",8.0,"Action, Drama",2015-07-10,Arka Media Works,"Prabhas, Rana Daggubati, Anushka Shetty",S.S. Rajamouli,1800000000,6500000000,Baahubali,Evening,Stormy,Yes,103
Hyderabad,Manju Cinema: Kalasiguda,70.0,289,1,0,17.44048,78.4936,BookMyShow,8.2,"Crime, Drama, Thriller",2022-11-18,Panorama Studios,"Ajay Devgn, Shriya Saran, Tabu",Abhishek Pathak,50000000,340000000,Drishyam 2,Night,Stormy,No,189
Bangalore,"Ascendas Park Square Mall, EPIP",183.50891304903843,779,4,1,12.987032,77.736366,MediaAnt,8.3,"Biography, Drama, Sport",2016-12-23,Walt Disney Pictures India,"Aamir Khan, Sakshi Tanwar, Fatima Sana Shaikh",Nitesh Tiwari,70000000,2100000000,Dangal,Afternoon,Rainy,Yes,774
Mumbai,Miraj Thakur Cinemas: Kandivali (E),196.875,668,1,0,19.20909,72.87242,BookMyShow,5.6,"Action, Adventure, Fantasy",2022-09-09,Dharma Productions,"Ranbir Kapoor, Alia Bhatt, Amitabh Bachchan",Ayan Mukerji,4100000000,4300000000,Brahmastra,Evening,Stormy,No,228
Bangalore,Vinayaka Theatre: Harinagar,80.0,850,1,0,12.87488,77.57015,"BookMyShow, MediaAnt",7.1,"Drama, Romance",2019-06-21,Cine1 Studios,"Shahid Kapoor, Kiara Advani, Soham Majumdar",Sandeep Reddy Vanga,600000000,3800000000,Kabir Singh,Morning,Stormy,No,126
Mumbai,"New Shirin Talkies, Agripada",198.1442727463636,801,1,0,18.9811379,72.8260349,MediaAnt,7.3,"Action, Crime, Drama",2022-04-14,Hombale Films,"Yash, Sanjay Dutt, Raveena Tandon",Prashanth Neel,1000000000,12500000000,KGF 2,Morning,Rainy,No,711
Mumbai,"Cinepolis: Magnet Mall, Bhandup (W)",210.2347222,956,6,1,19.14114,72.93097,"BookMyShow, MediaAnt",7.1,"Drama, Romance",2019-06-21,Cine1 Studios,"Shahid Kapoor, Kiara Advani, Soham Majumdar",Sandeep Reddy Vanga,600000000,3800000000,Kabir Singh,Afternoon,Hot,Yes,824
Hyderabad,SVC Sangeetha Theatre: RC Puram,100.0,590,1,0,17.51352,78.2866,"BookMyShow, Internet Research",7.3,"Action, Thriller",2022-06-03,Raaj Kamal Films International,"Kamal Haasan, Vijay Sethupathi, Fahadh Faasil",Lokesh Kanagaraj,1500000000,4000000000,Vikram,Morning,Cloudy,No,261
Kolkata,Menoka Cinema: Kolkata,130.0,790,1,0,22.51115,88.35068,"BookMyShow, Internet Research",8.4,"Action, Biography, Drama",2021-08-12,Dharma Productions,"Sidharth Malhotra, Kiara Advani, Shiv Panditt",Vishnuvardhan,550000000,1360000000,Shershaah,Night,Hot,No,179
Kochi,Q Cinemas: Gold Souk Grande,159.5384615,1236,4,1,9.977553,76.31627,"BookMyShow, MediaAnt",8.0,"Action, Drama",2015-07-10,Arka Media Works,"Prabhas, Rana Daggubati, Anushka Shetty",S.S. Rajamouli,1800000000,6500000000,Baahubali,Evening,Stormy,No,1115
Delhi,INOX Eros One: Jangpura Extn,465.4166667,317,1,0,28.58122,77.24199,BookMyShow,7.7,"Action, Adventure, Drama",2022-09-30,Hombale Films,"Rishab Shetty, Kishore Kumar G., Achyuth Kumar",Rishab Shetty,160000000,4000000000,Kantara,Night,Rainy,Yes,121
Chennai,"Saravana Theatre, Brick Kiln Road",97.97240740555556,600,1,0,13.0928614,80.2515167,MediaAnt,8.4,"Comedy, Drama",2009-12-25,Vinod Chopra Films,"Aamir Khan, R. Madhavan, Sharman Joshi",Rajkumar Hirani,35000000,470000000,3 Idiots,Evening,Cloudy,No,515
Ahmedabad,"Apsara Cinema, Behrampura",149.09491512148148,1117,1,0,23.0039742,72.597468,MediaAnt,7.4,"Action, Crime, Drama",2021-12-17,Mythri Movie Makers,"Allu Arjun, Fahadh Faasil, Rashmika Mandanna",Sukumar,2500000000,3650000000,Pushpa,Morning,Stormy,No,248
Mumbai,Movietime Star City: Matunga (W),172.375,366,1,0,19.0286,72.8436,BookMyShow,7.7,"Action, Adventure, Drama",2022-09-30,Hombale Films,"Rishab Shetty, Kishore Kumar G., Achyuth Kumar",Rishab Shetty,160000000,4000000000,Kantara,Night,Stormy,No,29
Mumbai,"PVR: Oberoi Mall, Goregaon (E)",264.9142857,1782,6,1,19.17399,72.86125,"BookMyShow, MediaAnt",7.1,"Drama, Romance",2019-06-21,Cine1 Studios,"Shahid Kapoor, Kiara Advani, Soham Majumdar",Sandeep Reddy Vanga,600000000,3800000000,Kabir Singh,Evening,Stormy,No,232
Delhi,Movietime: Pitampura,168.3928571,788,3,1,28.70582,77.14283,"BookMyShow, Internet Research",8.4,"Comedy, Drama",2009-12-25,Vinod Chopra Films,"Aamir Khan, R. Madhavan, Sharman Joshi",Rajkumar Hirani,35000000,470000000,3 Idiots,Night,Rainy,No,422
Delhi,Abhishek Cineplex: Chandni Chowk,96.46666667,260,1,0,28.65628,77.2342,BookMyShow,7.4,"Action, Crime, Drama",2021-12-17,Mythri Movie Makers,"Allu Arjun, Fahadh Faasil, Rashmika Mandanna",Sukumar,2500000000,3650000000,Pushpa,Evening,Hot,No,204
Mumbai,Cinemax: Andheri (E),118.0,362,1,0,19.11633,72.85641,BookMyShow,7.8,"Action, Drama",2022-03-25,DVV Entertainment,"N.T. Rama Rao Jr., Ram Charan, Alia Bhatt",S.S. Rajamouli,5500000000,12000000000,RRR,Night,Hot,No,320
Mumbai,Super Cinema: Grant Road,198.1442727463636,822,1,0,18.962068,72.821162,Internet Research,6.3,"Action, Adventure, Thriller",2023-01-25,Yash Raj Films,"Shah Rukh Khan, Deepika Padukone, John Abraham",Siddharth Anand,2500000000,10500000000,Pathaan,Night,Stormy,No,102
Bangalore,Pushpanjali A/C Theatre: B.N. Pura,125.0,999,1,0,12.99809,77.67521,"BookMyShow, MediaAnt",8.2,"Crime, Drama, Thriller",2022-11-18,Panorama Studios,"Ajay Devgn, Shriya Saran, Tabu",Abhishek Pathak,50000000,340000000,Drishyam 2,Evening,Stormy,Yes,471
Bangalore,"Shobha Talkies, Bhabuji Nagar",183.50891304903843,1000,1,0,12.9574781,77.543303,MediaAnt,8.0,"Action, Drama",2015-07-10,Arka Media Works,"Prabhas, Rana Daggubati, Anushka Shetty",S.S. Rajamouli,1800000000,6500000000,Baahubali,Night,Stormy,Yes,944
Bangalore,"Raja Murali Theatre, Kodigehalli Sahakar Nagar(post)",183.50891304903843,558,1,0,13.0605001,77.5768534,MediaAnt,6.3,"Action, Adventure, Thriller",2023-01-25,Yash Raj Films,"Shah Rukh Khan, Deepika Padukone, John Abraham",Siddharth Anand,2500000000,10500000000,Pathaan,Evening,Cloudy,No,209
Mumbai,Regal Cinema: Colaba,166.0,1178,1,0,18.92472,72.83243,BookMyShow,6.3,"Action, Adventure, Thriller",2023-01-25,Yash Raj Films,"Shah Rukh Khan, Deepika Padukone, John Abraham",Siddharth Anand,2500000000,10500000000,Pathaan,Morning,Rainy,Yes,796
Bangalore,"Fame Shankarnag Chitramandira, Mahatma Gandhi Road",183.50891304903843,615,1,0,12.9743036,77.6098151,MediaAnt,8.3,"Biography, Drama, Sport",2016-12-23,Walt Disney Pictures India,"Aamir Khan, Sakshi Tanwar, Fatima Sana Shaikh",Nitesh Tiwari,70000000,2100000000,Dangal,Morning,Rainy,No,206
Mumbai,Gold Cinema: Dadar (E),155.0,245,1,0,19.00916,72.84208,BookMyShow,8.2,"Crime, Drama, Thriller",2022-11-18,Panorama Studios,"Ajay Devgn, Shriya Saran, Tabu",Abhishek Pathak,50000000,340000000,Drishyam 2,Morning,Humid,No,101
Kochi,Padma Cinema Screen 1: Ernakulam,105.0,324,1,0,9.981755,76.2826,BookMyShow,8.4,"Comedy, Drama",2009-12-25,Vinod Chopra Films,"Aamir Khan, R. Madhavan, Sharman Joshi",Rajkumar Hirani,35000000,470000000,3 Idiots,Afternoon,Rainy,No,69
Bangalore,"Venkateshwara Cinemas: Gollarahatti,Magadi Rd",90.0,300,1,0,12.98848,77.47392,BookMyShow,8.2,"Crime, Drama, Thriller",2022-11-18,Panorama Studios,"Ajay Devgn, Shriya Saran, Tabu",Abhishek Pathak,50000000,340000000,Drishyam 2,Afternoon,Humid,No,247
Ahmedabad,"Hanjar Cinema, Gandhi Ashram",149.09491512148148,995,1,0,23.0263983,72.6040875,MediaAnt,7.0,"Action, Thriller",2023-06-02,Red Chillies Entertainment,"Shah Rukh Khan, Nayanthara, Vijay Sethupathi",Atlee Kumar,2200000000,8000000000,Jawan,Morning,Rainy,No,345
Delhi,Batra Reels Cinemas: New Friends Colony,287.5,1500,1,0,28.56153,77.26865,"BookMyShow, MediaAnt",7.4,"Action, Crime, Drama",2021-12-17,Mythri Movie Makers,"Allu Arjun, Fahadh Faasil, Rashmika Mandanna",Sukumar,2500000000,3650000000,Pushpa,Morning,Hot,No,1262
Bangalore,"Venkateshwara Cinemas: Gollarahatti,Magadi Rd",90.0,300,1,0,12.98848,77.47392,BookMyShow,7.1,"Drama, Romance",2019-06-21,Cine1 Studios,"Shahid Kapoor, Kiara Advani, Soham Majumdar",Sandeep Reddy Vanga,600000000,3800000000,Kabir Singh,Morning,Rainy,Yes,220
Hyderabad,Vyjayanthi Cinema: Nacharam,100.0,711,1,0,17.42889,78.55238,"BookMyShow, MediaAnt",6.3,"Action, Adventure, Thriller",2023-01-25,Yash Raj Films,"Shah Rukh Khan, Deepika Padukone, John Abraham",Siddharth Anand,2500000000,10500000000,Pathaan,Afternoon,Cloudy,No,431
Kolkata,INOX: Quest Mall (Insignia),608.3333333,162,3,1,22.53914,88.36565,BookMyShow,8.0,"Action, Drama",2015-07-10,Arka Media Works,"Prabhas, Rana Daggubati, Anushka Shetty",S.S. Rajamouli,1800000000,6500000000,Baahubali,Morning,Sunny,No,66
Hyderabad,Sri Krishna 70MM: Uppal,70.0,939,1,0,17.40084,78.56788,"BookMyShow, MediaAnt",6.5,"Action, Crime, Thriller",2021-11-05,Reliance Entertainment,"Akshay Kumar, Katrina Kaif, Ajay Devgn",Rohit Shetty,1650000000,2900000000,Sooryavanshi,Morning,Humid,Yes,513
Mumbai,Chandan Cinema: Juhu,155.75,587,1,0,19.1147,72.8269,BookMyShow,7.1,"Drama, Romance",2019-06-21,Cine1 Studios,"Shahid Kapoor, Kiara Advani, Soham Majumdar",Sandeep Reddy Vanga,600000000,3800000000,Kabir Singh,Morning,Humid,No,406
Hyderabad,Asian Shiva: Dilsukhnagar,85.0,554,1,0,17.36117,78.5231,BookMyShow,7.3,"Action, Crime, Drama",2022-04-14,Hombale Films,"Yash, Sanjay Dutt, Raveena Tandon",Prashanth Neel,1000000000,12500000000,KGF 2,Morning,Hot,No,37
Mumbai,Movietime Star City: Matunga (W),172.375,366,1,0,19.0286,72.8436,BookMyShow,8.2,"Crime, Drama, Thriller",2022-11-18,Panorama Studios,"Ajay Devgn, Shriya Saran, Tabu",Abhishek Pathak,50000000,340000000,Drishyam 2,Afternoon,Humid,No,231
Hyderabad,SVC Mahalakshmi Screen 2: Kothapet,100.0,319,1,0,17.36944,78.53973,"BookMyShow, Internet Research",7.3,"Action, Thriller",2022-06-03,Raaj Kamal Films International,"Kamal Haasan, Vijay Sethupathi, Fahadh Faasil",Lokesh Kanagaraj,1500000000,4000000000,Vikram,Afternoon,Rainy,No,265
Mumbai,"PVR: Phoenix, Lower Parel",337.8737374,1760,7,1,18.9952,72.82407,BookMyShow,6.5,"Action, Crime, Thriller",2021-11-05,Reliance Entertainment,"Akshay Kumar, Katrina Kaif, Ajay Devgn",Rohit Shetty,1650000000,2900000000,Sooryavanshi,Evening,Humid,No,205
Hyderabad,"INOX: Maheshwari Parmeshwari Mall, Kachiguda",150.0,1021,5,1,17.39052,78.48862,BookMyShow,7.8,"Action, Drama",2022-03-25,DVV Entertainment,"N.T. Rama Rao Jr., Ram Charan, Alia Bhatt",S.S. Rajamouli,5500000000,12000000000,RRR,Evening,Cloudy,Yes,280
Ahmedabad,City Gold: Motera,111.5,728,2,1,23.09203,72.59319,BookMyShow,8.3,"Biography, Drama, Sport",2016-12-23,Walt Disney Pictures India,"Aamir Khan, Sakshi Tanwar, Fatima Sana Shaikh",Nitesh Tiwari,70000000,2100000000,Dangal,Afternoon,Hot,Yes,273
Bangalore,Vaibhavi A/C Theatre: Uttarahalli,105.0,715,1,0,12.90348,77.54415,"BookMyShow, MediaAnt",6.3,"Action, Adventure, Thriller",2023-01-25,Yash Raj Films,"Shah Rukh Khan, Deepika Padukone, John Abraham",Siddharth Anand,2500000000,10500000000,Pathaan,Night,Stormy,Yes,299
Bangalore,INOX: Brookefield Mall,270.9259259,338,3,1,12.96623,77.71794,"BookMyShow, MediaAnt",8.3,"Biography, Drama, Sport",2016-12-23,Walt Disney Pictures India,"Aamir Khan, Sakshi Tanwar, Fatima Sana Shaikh",Nitesh Tiwari,70000000,2100000000,Dangal,Evening,Humid,No,75
Ahmedabad,"Cinemax: Shiv, Ahmedabad",176.2777778,637,3,1,23.03188,72.57103,BookMyShow,7.8,"Action, Drama",2022-03-25,DVV Entertainment,"N.T. Rama Rao Jr., Ram Charan, Alia Bhatt",S.S. Rajamouli,5500000000,12000000000,RRR,Afternoon,Humid,Yes,485
Bangalore,Santosh Theatre: Gandhinagar,106.0,680,1,0,12.97484,77.57638,"BookMyShow, MediaAnt",7.4,"Action, Crime, Drama",2021-12-17,Mythri Movie Makers,"Allu Arjun, Fahadh Faasil, Rashmika Mandanna",Sukumar,2500000000,3650000000,Pushpa,Morning,Hot,No,577
Bangalore,Vijayalakshmi Digital 2K Cinema: Garudacharpalya,100.0,671,1,0,12.99348,77.70187,"BookMyShow, MediaAnt",7.3,"Action, Thriller",2022-06-03,Raaj Kamal Films International,"Kamal Haasan, Vijay Sethupathi, Fahadh Faasil",Lokesh Kanagaraj,1500000000,4000000000,Vikram,Evening,Stormy,Yes,165
Kolkata,"Aleya Cinema, Ballygunge RS",187.80483726826088,447,1,0,22.52022,88.367129,MediaAnt,8.2,"Crime, Drama, Thriller",2022-11-18,Panorama Studios,"Ajay Devgn, Shriya Saran, Tabu",Abhishek Pathak,50000000,340000000,Drishyam 2,Night,Hot,Yes,416
Ahmedabad,"Aradhana Cinema, Behrampura",149.09491512148148,455,1,0,23.00396,72.5975195,MediaAnt,8.0,"Action, Drama",2015-07-10,Arka Media Works,"Prabhas, Rana Daggubati, Anushka Shetty",S.S. Rajamouli,1800000000,6500000000,Baahubali,Night,Stormy,Yes,392
Hyderabad,Yadagiri Theatre: Santosh Nagar,75.0,1076,1,0,17.34657,78.50888,"BookMyShow, MediaAnt",7.1,"Drama, Romance",2019-06-21,Cine1 Studios,"Shahid Kapoor, Kiara Advani, Soham Majumdar",Sandeep Reddy Vanga,600000000,3800000000,Kabir Singh,Afternoon,Rainy,No,366
Delhi,Movietime: Raja Garden,200.9621212,1226,6,1,28.65266,77.12335,"BookMyShow, Internet Research",6.5,"Action, Crime, Thriller",2021-11-05,Reliance Entertainment,"Akshay Kumar, Katrina Kaif, Ajay Devgn",Rohit Shetty,1650000000,2900000000,Sooryavanshi,Morning,Stormy,Yes,379
Hyderabad,Asian Sha: Chintal,85.0,716,1,0,17.4922,78.45173,BookMyShow,8.3,"Biography, Drama, Sport",2016-12-23,Walt Disney Pictures India,"Aamir Khan, Sakshi Tanwar, Fatima Sana Shaikh",Nitesh Tiwari,70000000,2100000000,Dangal,Night,Cloudy,Yes,225
Hyderabad,Sampoorna 70mm: Vanasthalipuram,85.0,865,1,0,17.33121,78.57603,"BookMyShow, MediaAnt",7.4,"Action, Crime, Drama",2021-12-17,Mythri Movie Makers,"Allu Arjun, Fahadh Faasil, Rashmika Mandanna",Sukumar,2500000000,3650000000,Pushpa,Evening,Sunny,No,617
Mumbai,G7 Multiplex: Bandra (W),98.66666667,2266,7,1,19.06148,72.83872,BookMyShow,8.2,"Crime, Drama, Thriller",2022-11-18,Panorama Studios,"Ajay Devgn, Shriya Saran, Tabu",Abhishek Pathak,50000000,340000000,Drishyam 2,Evening,Hot,Yes,512
Bangalore,Aruna Theatre: Srirampuram,109.0,936,1,0,12.98679,77.56722,"BookMyShow, MediaAnt",7.8,"Action, Drama",2022-03-25,DVV Entertainment,"N.T. Rama Rao Jr., Ram Charan, Alia Bhatt",S.S. Rajamouli,5500000000,12000000000,RRR,Night,Hot,No,682
Mumbai,"PVR: Oberoi Mall, Goregaon (E)",264.9142857,1782,6,1,19.17399,72.86125,"BookMyShow, MediaAnt",7.7,"Action, Adventure, Drama",2022-09-30,Hombale Films,"Rishab Shetty, Kishore Kumar G., Achyuth Kumar",Rishab Shetty,160000000,4000000000,Kantara,Evening,Hot,Yes,807
Delhi,Wave: Raja Garden,269.1666667,777,4,1,28.65193,77.1208,BookMyShow,7.3,"Action, Crime, Drama",2022-04-14,Hombale Films,"Yash, Sanjay Dutt, Raveena Tandon",Prashanth Neel,1000000000,12500000000,KGF 2,Afternoon,Cloudy,No,205
Bangalore,"PVR: Orion, Rajajinagar",285.3444444,2714,8,1,13.011,77.55509,"BookMyShow, MediaAnt",7.3,"Action, Crime, Drama",2022-04-14,Hombale Films,"Yash, Sanjay Dutt, Raveena Tandon",Prashanth Neel,1000000000,12500000000,KGF 2,Morning,Rainy,No,1775
Bangalore,Radhakrishna Theatre: R.T. Nagar,125.0,921,1,0,13.01337,77.59387,BookMyShow,8.4,"Comedy, Drama",2009-12-25,Vinod Chopra Films,"Aamir Khan, R. Madhavan, Sharman Joshi",Rajkumar Hirani,35000000,470000000,3 Idiots,Afternoon,Sunny,No,115
Bangalore,"Lakshmi Theatre, Dharmaram College",183.50891304903843,900,1,0,12.9362,77.6028377,MediaAnt,7.3,"Action, Crime, Drama",2022-04-14,Hombale Films,"Yash, Sanjay Dutt, Raveena Tandon",Prashanth Neel,1000000000,12500000000,KGF 2,Night,Rainy,Yes,887
Delhi,Satyam Janak Place-NCR,301.8207102540476,1262,4,1,28.629686,77.081896,Internet Research,7.1,"Drama, Romance",2019-06-21,Cine1 Studios,"Shahid Kapoor, Kiara Advani, Soham Majumdar",Sandeep Reddy Vanga,600000000,3800000000,Kabir Singh,Afternoon,Humid,No,954
Mumbai,Gold Cinema: Sona Borivali (E),151.6666667,259,1,0,19.23479,72.86494,BookMyShow,7.8,"Action, Drama",2022-03-25,DVV Entertainment,"N.T. Rama Rao Jr., Ram Charan, Alia Bhatt",S.S. Rajamouli,5500000000,12000000000,RRR,Night,Hot,Yes,129
Kolkata,7D Adventure Plex: Mani Square Mall,200.0,32,1,0,22.57758,88.4006,BookMyShow,7.1,"Drama, Romance",2019-06-21,Cine1 Studios,"Shahid Kapoor, Kiara Advani, Soham Majumdar",Sandeep Reddy Vanga,600000000,3800000000,Kabir Singh,Morning,Cloudy,Yes,7
Delhi,"Moti Cinema, Chandni Chowk",301.8207102540476,699,1,0,28.656595,77.235293,MediaAnt,7.7,"Action, Adventure, Drama",2022-09-30,Hombale Films,"Rishab Shetty, Kishore Kumar G., Achyuth Kumar",Rishab Shetty,160000000,4000000000,Kantara,Afternoon,Stormy,Yes,282
Hyderabad,"Cinepolis: CCPL Mall, Hyderabad",150.0,703,5,1,17.45718,78.53681,BookMyShow,7.1,"Drama, Romance",2019-06-21,Cine1 Studios,"Shahid Kapoor, Kiara Advani, Soham Majumdar",Sandeep Reddy Vanga,600000000,3800000000,Kabir Singh,Afternoon,Rainy,No,113
Mumbai,Cinemax: Andheri (E),118.0,362,1,0,19.11633,72.85641,BookMyShow,5.6,"Action, Adventure, Fantasy",2022-09-09,Dharma Productions,"Ranbir Kapoor, Alia Bhatt, Amitabh Bachchan",Ayan Mukerji,4100000000,4300000000,Brahmastra,Morning,Cloudy,Yes,62
Delhi,Satyam Nehru Place-NCR,301.8207102540476,994,4,1,28.550044,77.251155,Internet Research,8.2,"Crime, Drama, Thriller",2022-11-18,Panorama Studios,"Ajay Devgn, Shriya Saran, Tabu",Abhishek Pathak,50000000,340000000,Drishyam 2,Afternoon,Rainy,No,400
Hyderabad,Vishnu Cinemas A/C DTS: Vanasthalipuram,85.0,935,1,0,17.33902,78.56577,"BookMyShow, MediaAnt",7.4,"Action, Crime, Drama",2021-12-17,Mythri Movie Makers,"Allu Arjun, Fahadh Faasil, Rashmika Mandanna",Sukumar,2500000000,3650000000,Pushpa,Afternoon,Hot,No,645
Mumbai,"PVR: Phoenix, Lower Parel",337.8737374,1760,7,1,18.9952,72.82407,BookMyShow,8.0,"Action, Drama",2015-07-10,Arka Media Works,"Prabhas, Rana Daggubati, Anushka Shetty",S.S. Rajamouli,1800000000,6500000000,Baahubali,Afternoon,Humid,No,933
Chennai,Srinivasa Theatre,97.97240740555556,900,1,0,13.0310779,80.2250651,Internet Research,7.3,"Action, Thriller",2022-06-03,Raaj Kamal Films International,"Kamal Haasan, Vijay Sethupathi, Fahadh Faasil",Lokesh Kanagaraj,1500000000,4000000000,Vikram,Afternoon,Rainy,Yes,864
Hyderabad,"Sapthagiri 70Mm, Ashoknagar",95.06145388259615,1150,1,0,17.40743,78.496222,MediaAnt,7.8,"Action, Drama",2022-03-25,DVV Entertainment,"N.T. Rama Rao Jr., Ram Charan, Alia Bhatt",S.S. Rajamouli,5500000000,12000000000,RRR,Evening,Rainy,No,260
Mumbai,"Carnival: Harmony Mall, Oshiwara",160.06,433,2,1,19.15756,72.83473,BookMyShow,8.0,"Action, Drama",2015-07-10,Arka Media Works,"Prabhas, Rana Daggubati, Anushka Shetty",S.S. Rajamouli,1800000000,6500000000,Baahubali,Afternoon,Sunny,Yes,1
Kolkata,Regal Cinema: Kolkata,80.0,500,1,0,22.56284,88.35266,"BookMyShow, MediaAnt",7.0,"Action, Thriller",2023-06-02,Red Chillies Entertainment,"Shah Rukh Khan, Nayanthara, Vijay Sethupathi",Atlee Kumar,2200000000,8000000000,Jawan,Morning,Cloudy,Yes,333
Mumbai,EROS Theatre,198.1442727463636,1204,1,0,18.932265,72.8279021,Internet Research,8.4,"Action, Biography, Drama",2021-08-12,Dharma Productions,"Sidharth Malhotra, Kiara Advani, Shiv Panditt",Vishnuvardhan,550000000,1360000000,Shershaah,Morning,Hot,No,124
Chennai,"Spectrum Mall, Perambur North",97.97240740555556,1395,5,1,13.1122465,80.2363247,MediaAnt,8.4,"Comedy, Drama",2009-12-25,Vinod Chopra Films,"Aamir Khan, R. Madhavan, Sharman Joshi",Rajkumar Hirani,35000000,470000000,3 Idiots,Morning,Humid,Yes,800
Hyderabad,Konark: Dilsukhnagar,80.0,1026,1,0,17.3686,78.51865,"BookMyShow, MediaAnt",6.3,"Action, Adventure, Thriller",2023-01-25,Yash Raj Films,"Shah Rukh Khan, Deepika Padukone, John Abraham",Siddharth Anand,2500000000,10500000000,Pathaan,Night,Cloudy,No,1012
Bangalore,Maheshwari Digital 4K Cinema: Bannerghatta Road,183.50891304903843,0,0,1,12.92339,77.59894,BookMyShow,8.3,"Biography, Drama, Sport",2016-12-23,Walt Disney Pictures India,"Aamir Khan, Sakshi Tanwar, Fatima Sana Shaikh",Nitesh Tiwari,70000000,2100000000,Dangal,Evening,Hot,No,0
Bangalore,"Fame Shankarnag Chitramandira, Mahatma Gandhi Road",183.50891304903843,615,1,0,12.9743036,77.6098151,MediaAnt,8.4,"Action, Biography, Drama",2021-08-12,Dharma Productions,"Sidharth Malhotra, Kiara Advani, Shiv Panditt",Vishnuvardhan,550000000,1360000000,Shershaah,Afternoon,Rainy,No,300
Hyderabad,Asian CineSquare Multiplex: Uppal,125.0,1512,5,1,17.40215,78.57207,BookMyShow,7.3,"Action, Crime, Drama",2022-04-14,Hombale Films,"Yash, Sanjay Dutt, Raveena Tandon",Prashanth Neel,1000000000,12500000000,KGF 2,Morning,Sunny,Yes,1469
Kolkata,"Bijoli Cinema, Bhawanipore",187.80483726826088,921,1,0,22.5271158,88.34657,MediaAnt,7.3,"Action, Crime, Drama",2022-04-14,Hombale Films,"Yash, Sanjay Dutt, Raveena Tandon",Prashanth Neel,1000000000,12500000000,KGF 2,Night,Cloudy,No,880
Bangalore,"Mohan Theatre, Magadi Main Road",183.50891304903843,956,1,0,12.9987083,77.5035393,MediaAnt,6.5,"Action, Crime, Thriller",2021-11-05,Reliance Entertainment,"Akshay Kumar, Katrina Kaif, Ajay Devgn",Rohit Shetty,1650000000,2900000000,Sooryavanshi,Morning,Cloudy,No,556
Bangalore,"7D Voyage: Central Mall, Bellandur",180.0,8,1,0,12.9264,77.67533,BookMyShow,8.2,"Crime, Drama, Thriller",2022-11-18,Panorama Studios,"Ajay Devgn, Shriya Saran, Tabu",Abhishek Pathak,50000000,340000000,Drishyam 2,Evening,Stormy,No,7
Chennai,"Spectrum Mall, Perambur North",97.97240740555556,1395,5,1,13.1122465,80.2363247,MediaAnt,8.4,"Action, Biography, Drama",2021-08-12,Dharma Productions,"Sidharth Malhotra, Kiara Advani, Shiv Panditt",Vishnuvardhan,550000000,1360000000,Shershaah,Evening,Hot,No,137
Ahmedabad,Anupam Cinema: Ahmedabad,125.8333333,781,1,0,23.00656,72.61333,BookMyShow,8.3,"Biography, Drama, Sport",2016-12-23,Walt Disney Pictures India,"Aamir Khan, Sakshi Tanwar, Fatima Sana Shaikh",Nitesh Tiwari,70000000,2100000000,Dangal,Night,Humid,No,182
Hyderabad,Sree Ramulu 70mm: Moosapet,70.0,849,1,0,17.46784,78.42939,"BookMyShow, MediaAnt",7.7,"Action, Adventure, Drama",2022-09-30,Hombale Films,"Rishab Shetty, Kishore Kumar G., Achyuth Kumar",Rishab Shetty,160000000,4000000000,Kantara,Morning,Stormy,No,286
Ahmedabad,"PVR: Motera, Ahmedabad",154.3333333,1102,4,1,23.10273,72.59521,"BookMyShow, Internet Research",7.0,"Action, Thriller",2023-06-02,Red Chillies Entertainment,"Shah Rukh Khan, Nayanthara, Vijay Sethupathi",Atlee Kumar,2200000000,8000000000,Jawan,Morning,Sunny,No,760
Mumbai,Kasturba Cinema: Malad,112.2222222,350,1,0,19.18786,72.84753,BookMyShow,8.4,"Comedy, Drama",2009-12-25,Vinod Chopra Films,"Aamir Khan, R. Madhavan, Sharman Joshi",Rajkumar Hirani,35000000,470000000,3 Idiots,Evening,Stormy,Yes,149
Hyderabad,Kalyani Movie Max: Bowenpally,70.0,84,1,0,17.47373,78.47971,BookMyShow,6.5,"Action, Crime, Thriller",2021-11-05,Reliance Entertainment,"Akshay Kumar, Katrina Kaif, Ajay Devgn",Rohit Shetty,1650000000,2900000000,Sooryavanshi,Afternoon,Humid,Yes,68
Kochi,"Ajantha Theatre, Mattancherry Jetty",119.55509767142858,620,1,0,9.9538634,76.2475442,MediaAnt,7.1,"Drama, Romance",2019-06-21,Cine1 Studios,"Shahid Kapoor, Kiara Advani, Soham Majumdar",Sandeep Reddy Vanga,600000000,3800000000,Kabir Singh,Afternoon,Humid,No,354
Mumbai,Sun City: Vile Parle,180.2083333,615,2,1,19.10541,72.84651,BookMyShow,7.4,"Action, Crime, Drama",2021-12-17,Mythri Movie Makers,"Allu Arjun, Fahadh Faasil, Rashmika Mandanna",Sukumar,2500000000,3650000000,Pushpa,Afternoon,Sunny,Yes,133
Kolkata,"Moonlight Cinema, Chittaranjan Avenue",187.80483726826088,780,1,0,22.5775595,88.3598131,MediaAnt,8.2,"Crime, Drama, Thriller",2022-11-18,Panorama Studios,"Ajay Devgn, Shriya Saran, Tabu",Abhishek Pathak,50000000,340000000,Drishyam 2,Morning,Cloudy,No,262
Mumbai,"PVR: Market City, Kurla (Gold)",530.0,137,2,1,19.08571,72.88842,BookMyShow,7.3,"Action, Crime, Drama",2022-04-14,Hombale Films,"Yash, Sanjay Dutt, Raveena Tandon",Prashanth Neel,1000000000,12500000000,KGF 2,Night,Rainy,No,43
Chennai,"Spectrum Mall, Perambur North",97.97240740555556,1395,5,1,13.1122465,80.2363247,MediaAnt,7.0,"Action, Thriller",2023-06-02,Red Chillies Entertainment,"Shah Rukh Khan, Nayanthara, Vijay Sethupathi",Atlee Kumar,2200000000,8000000000,Jawan,Night,Cloudy,Yes,994
Mumbai,"PVR: Phoenix, Lower Parel",337.8737374,1760,7,1,18.9952,72.82407,BookMyShow,7.0,"Action, Thriller",2023-06-02,Red Chillies Entertainment,"Shah Rukh Khan, Nayanthara, Vijay Sethupathi",Atlee Kumar,2200000000,8000000000,Jawan,Evening,Humid,No,222
Ahmedabad,Carnival: Himalaya Mall,189.0509259,1110,5,1,23.04708,72.53093,"BookMyShow, MediaAnt",8.0,"Action, Drama",2015-07-10,Arka Media Works,"Prabhas, Rana Daggubati, Anushka Shetty",S.S. Rajamouli,1800000000,6500000000,Baahubali,Night,Stormy,No,583
Hyderabad,"PVR: RK Cineplex, Hyderabad",200.0,1034,3,1,17.42332,78.42792,"BookMyShow, Internet Research",8.2,"Crime, Drama, Thriller",2022-11-18,Panorama Studios,"Ajay Devgn, Shriya Saran, Tabu",Abhishek Pathak,50000000,340000000,Drishyam 2,Morning,Cloudy,No,899
Hyderabad,Raghavendra Mini: Malkajgiri,70.0,385,1,0,17.4513,78.53616,"BookMyShow, MediaAnt",8.4,"Comedy, Drama",2009-12-25,Vinod Chopra Films,"Aamir Khan, R. Madhavan, Sharman Joshi",Rajkumar Hirani,35000000,470000000,3 Idiots,Morning,Rainy,Yes,225
Kolkata,Navina Cinema: Tollygunge,110.1333333,983,1,0,22.501,88.34881,"BookMyShow, Internet Research",8.2,"Crime, Drama, Thriller",2022-11-18,Panorama Studios,"Ajay Devgn, Shriya Saran, Tabu",Abhishek Pathak,50000000,340000000,Drishyam 2,Afternoon,Hot,No,263
Bangalore,Vaibhavi A/C Theatre: Uttarahalli,105.0,715,1,0,12.90348,77.54415,"BookMyShow, MediaAnt",8.2,"Crime, Drama, Thriller",2022-11-18,Panorama Studios,"Ajay Devgn, Shriya Saran, Tabu",Abhishek Pathak,50000000,340000000,Drishyam 2,Evening,Rainy,No,350
Hyderabad,SVC Mahalakshmi Screen 2: Kothapet,100.0,319,1,0,17.36944,78.53973,"BookMyShow, Internet Research",8.4,"Action, Biography, Drama",2021-08-12,Dharma Productions,"Sidharth Malhotra, Kiara Advani, Shiv Panditt",Vishnuvardhan,550000000,1360000000,Shershaah,Night,Sunny,Yes,190
Bangalore,Sangeet Theatre: Shivaji Nagar,115.0,860,1,0,12.98161,77.60294,"BookMyShow, MediaAnt",8.0,"Action, Drama",2015-07-10,Arka Media Works,"Prabhas, Rana Daggubati, Anushka Shetty",S.S. Rajamouli,1800000000,6500000000,Baahubali,Morning,Sunny,Yes,391
Kolkata,Paradise Cinema: Kolkata,110.0,1063,1,0,22.5668,88.35196,"BookMyShow, Internet Research",6.3,"Action, Adventure, Thriller",2023-01-25,Yash Raj Films,"Shah Rukh Khan, Deepika Padukone, John Abraham",Siddharth Anand,2500000000,10500000000,Pathaan,Morning,Hot,Yes,943
Mumbai,24 Karat: Jogeshwari,219.5555556,1527,4,1,19.14108,72.84372,BookMyShow,7.7,"Action, Adventure, Drama",2022-09-30,Hombale Films,"Rishab Shetty, Kishore Kumar G., Achyuth Kumar",Rishab Shetty,160000000,4000000000,Kantara,Evening,Hot,No,957
Kolkata,"Prabhat Cinema, Barabazar",187.80483726826088,700,1,0,22.5789136,88.3606355,MediaAnt,6.5,"Action, Crime, Thriller",2021-11-05,Reliance Entertainment,"Akshay Kumar, Katrina Kaif, Ajay Devgn",Rohit Shetty,1650000000,2900000000,Sooryavanshi,Morning,Hot,No,339
Bangalore,"7D Mastiii: Forum Value Mall, Whitefield",150.0,16,1,0,12.95972,77.74778,BookMyShow,8.0,"Action, Drama",2015-07-10,Arka Media Works,"Prabhas, Rana Daggubati, Anushka Shetty",S.S. Rajamouli,1800000000,6500000000,Baahubali,Afternoon,Humid,Yes,6
Mumbai,Chitra Cinema: Dadar (E),128.3333333,635,1,0,19.01336,72.84388,"BookMyShow, mediaAnt",7.8,"Action, Drama",2022-03-25,DVV Entertainment,"N.T. Rama Rao Jr., Ram Charan, Alia Bhatt",S.S. Rajamouli,5500000000,12000000000,RRR,Night,Stormy,Yes,170
Delhi,PVR: Shalimar Bagh,311.0714286,1142,4,1,28.70282,77.15833,"BookMyShow, MediaAnt",8.4,"Action, Biography, Drama",2021-08-12,Dharma Productions,"Sidharth Malhotra, Kiara Advani, Shiv Panditt",Vishnuvardhan,550000000,1360000000,Shershaah,Evening,Stormy,No,291
Hyderabad,Sensation Sunshine: Khairatabad,80.0,850,1,0,17.40714,78.46361,"BookMyShow, MediaAnt",7.7,"Action, Adventure, Drama",2022-09-30,Hombale Films,"Rishab Shetty, Kishore Kumar G., Achyuth Kumar",Rishab Shetty,160000000,4000000000,Kantara,Evening,Cloudy,Yes,225
Kolkata,"Star Theatre, Bidhan Sarani",187.80483726826088,685,1,0,22.5972365,88.3719017,MediaAnt,7.1,"Drama, Romance",2019-06-21,Cine1 Studios,"Shahid Kapoor, Kiara Advani, Soham Majumdar",Sandeep Reddy Vanga,600000000,3800000000,Kabir Singh,Night,Rainy,Yes,359
Hyderabad,"Cinepolis: CCPL Mall, Hyderabad",150.0,703,5,1,17.45718,78.53681,BookMyShow,8.4,"Action, Biography, Drama",2021-08-12,Dharma Productions,"Sidharth Malhotra, Kiara Advani, Shiv Panditt",Vishnuvardhan,550000000,1360000000,Shershaah,Evening,Sunny,Yes,672
Delhi,"DT Cinemas: DLF Place, Saket",286.0795455,953,6,1,28.5274,77.21713,BookMyShow,8.0,"Action, Drama",2015-07-10,Arka Media Works,"Prabhas, Rana Daggubati, Anushka Shetty",S.S. Rajamouli,1800000000,6500000000,Baahubali,Morning,Humid,No,801
Bangalore,Gopalan Cinemas: Bannerghatta Road,261.1805556,852,3,1,12.91444,77.5994,"BookMyShow, MediaAnt",6.3,"Action, Adventure, Thriller",2023-01-25,Yash Raj Films,"Shah Rukh Khan, Deepika Padukone, John Abraham",Siddharth Anand,2500000000,10500000000,Pathaan,Evening,Rainy,Yes,1
Bangalore,"Srinivasa Chitra Mandira, Kadugodi",183.50891304903843,625,1,0,12.9885232,77.7660591,MediaAnt,6.5,"Action, Crime, Thriller",2021-11-05,Reliance Entertainment,"Akshay Kumar, Katrina Kaif, Ajay Devgn",Rohit Shetty,1650000000,2900000000,Sooryavanshi,Morning,Sunny,Yes,286
Mumbai,"Movietime: The Hub, Goregaon",178.6022487,1320,7,1,19.1548,72.85626,"BookMyShow, MediaAnt",7.8,"Action, Drama",2022-03-25,DVV Entertainment,"N.T. Rama Rao Jr., Ram Charan, Alia Bhatt",S.S. Rajamouli,5500000000,12000000000,RRR,Evening,Hot,Yes,471
Mumbai,"Mukta A2 Cinemas: Jai Hind, Lalbaugh",158.0555556,350,2,1,18.98584,72.83596,BookMyShow,8.4,"Action, Biography, Drama",2021-08-12,Dharma Productions,"Sidharth Malhotra, Kiara Advani, Shiv Panditt",Vishnuvardhan,550000000,1360000000,Shershaah,Afternoon,Humid,No,8
Mumbai,"PVR: Growel, Kandivali (E)",228.452381,482,4,1,19.20261,72.86005,BookMyShow,8.2,"Crime, Drama, Thriller",2022-11-18,Panorama Studios,"Ajay Devgn, Shriya Saran, Tabu",Abhishek Pathak,50000000,340000000,Drishyam 2,Night,Stormy,Yes,475
Kolkata,London Paris: Mukti World Ballygunge,237.0,298,2,1,22.52623,88.36665,BookMyShow,6.3,"Action, Adventure, Thriller",2023-01-25,Yash Raj Films,"Shah Rukh Khan, Deepika Padukone, John Abraham",Siddharth Anand,2500000000,10500000000,Pathaan,Morning,Hot,Yes,1
Bangalore,"Soundarya Mahal, Antharahalli",183.50891304903843,726,1,0,12.9032569,77.5861215,MediaAnt,7.7,"Action, Adventure, Drama",2022-09-30,Hombale Films,"Rishab Shetty, Kishore Kumar G., Achyuth Kumar",Rishab Shetty,160000000,4000000000,Kantara,Evening,Rainy,No,168
Hyderabad,"Cinepolis: CCPL Mall, Hyderabad",150.0,703,5,1,17.45718,78.53681,BookMyShow,8.3,"Biography, Drama, Sport",2016-12-23,Walt Disney Pictures India,"Aamir Khan, Sakshi Tanwar, Fatima Sana Shaikh",Nitesh Tiwari,70000000,2100000000,Dangal,Evening,Stormy,Yes,507
Hyderabad,Amba Theatre: Mehdipatnam,100.0,64,1,0,17.39167,78.44133,BookMyShow,6.3,"Action, Adventure, Thriller",2023-01-25,Yash Raj Films,"Shah Rukh Khan, Deepika Padukone, John Abraham",Siddharth Anand,2500000000,10500000000,Pathaan,Night,Humid,Yes,29
Bangalore,Cauvery Theatre: Sankey Road,123.3333333,1210,1,0,13.00256,77.58328,"BookMyShow, MediaAnt",5.6,"Action, Adventure, Fantasy",2022-09-09,Dharma Productions,"Ranbir Kapoor, Alia Bhatt, Amitabh Bachchan",Ayan Mukerji,4100000000,4300000000,Brahmastra,Afternoon,Cloudy,Yes,280
Mumbai,"Carnival: Moviestar, Goregaon",123.8589744,1366,7,1,19.1513,72.84638,"BookMyShow, MediaAnt",7.7,"Action, Adventure, Drama",2022-09-30,Hombale Films,"Rishab Shetty, Kishore Kumar G., Achyuth Kumar",Rishab Shetty,160000000,4000000000,Kantara,Afternoon,Hot,No,1099
Bangalore,"Vinayaka Chitra Mandira, Marathahalli",183.50891304903843,723,1,0,12.9557258,77.6995081,MediaAnt,7.3,"Action, Crime, Drama",2022-04-14,Hombale Films,"Yash, Sanjay Dutt, Raveena Tandon",Prashanth Neel,1000000000,12500000000,KGF 2,Evening,Humid,No,693
Mumbai,"Imperial Cinema Pvt Ltd., Ambewadi",198.1442727463636,816,1,0,18.9585704,72.8174214,MediaAnt,6.5,"Action, Crime, Thriller",2021-11-05,Reliance Entertainment,"Akshay Kumar, Katrina Kaif, Ajay Devgn",Rohit Shetty,1650000000,2900000000,Sooryavanshi,Afternoon,Hot,No,416
Kochi,EVM Kavitha Theatre 2K UFO: Ernakulam,110.0,1220,4,1,9.978573,76.28262,"BookMyShow, MediaAnt",7.3,"Action, Crime, Drama",2022-04-14,Hombale Films,"Yash, Sanjay Dutt, Raveena Tandon",Prashanth Neel,1000000000,12500000000,KGF 2,Evening,Cloudy,No,688
Bangalore,"PVR: VR, Bengaluru",257.2,932,5,1,12.99651,77.69526,BookMyShow,7.7,"Action, Adventure, Drama",2022-09-30,Hombale Films,"Rishab Shetty, Kishore Kumar G., Achyuth Kumar",Rishab Shetty,160000000,4000000000,Kantara,Afternoon,Humid,Yes,154
Kolkata,Asoka Cinema: Behala,98.16666667,867,1,0,22.49382,88.31637,"BookMyShow, MediaAnt",8.0,"Action, Drama",2015-07-10,Arka Media Works,"Prabhas, Rana Daggubati, Anushka Shetty",S.S. Rajamouli,1800000000,6500000000,Baahubali,Night,Hot,No,623
Mumbai,"PVR: Market City, Kurla (Gold)",530.0,137,2,1,19.08571,72.88842,BookMyShow,7.7,"Action, Adventure, Drama",2022-09-30,Hombale Films,"Rishab Shetty, Kishore Kumar G., Achyuth Kumar",Rishab Shetty,160000000,4000000000,Kantara,Morning,Rainy,Yes,118
Chennai,Rohini Silver Screens: Chennai,104.03,3175,7,1,13.07575,80.19586,BookMyShow,8.0,"Action, Drama",2015-07-10,Arka Media Works,"Prabhas, Rana Daggubati, Anushka Shetty",S.S. Rajamouli,1800000000,6500000000,Baahubali,Evening,Rainy,No,2650
